id,street,house,postcode,city,lon,lat
pt.ine.add.PTCONT.4393762,R VALE,377,2200-148,ABRANTES,-8.202767400004454,39.49551314556457
pt.ine.add.PTCONT.4395787,R CURRAIS,1,2205-408,SÃO FACUNDO,-8.106462972941992,39.37372823586262
pt.ine.add.PTCONT.4399909,R MARTINHO,,2200-700,MOURISCAS,-8.07993747880329,39.47568844321676
pt.ine.add.PTCONT.4406253,R PRINCIPAL,,2205-135,ALVEGA,-8.004174358853145,39.443672160007274
pt.ine.add.PTCONT.4406254,BC S JOSE,,2205-135,ALVEGA,-8.004286709158068,39.44574390797927
pt.ine.add.PTCONT.4406255,R ANTIGA,,2205-409,BEMPOSTA ABT,-8.22098251019927,39.36462787944873
pt.ine.add.PTCONT.4408192,R VINHA,,2205-347,PEGO,-8.149318879259798,39.466179046519684
pt.ine.add.PTCONT.4409561,R CIMA,,2205-500,SÃO MIGUEL DO RIO TORTO,-8.233550493171109,39.38171332225296
pt.ine.add.PTCONT.4391288,R 5 DE OUTUBRO,94,2205-104,ALVEGA,-8.036013139791399,39.462302649199124
pt.ine.add.PTCONT.4391289,R 25 DE ABRIL,30,2205-136,ALVEGA,-8.029541037858639,39.45437087135107
pt.ine.add.PTCONT.4391290,R VALONGO,53 55,2205-570,SÃO MIGUEL DO RIO TORTO,-8.213514809501534,39.42968280881376
pt.ine.add.PTCONT.4391291,R VALONGO,51,2205-570,SÃO MIGUEL DO RIO TORTO,-8.213456665153732,39.429619799396974
pt.ine.add.PTCONT.4391292,R PADRE,,2205-573,SÃO MIGUEL DO RIO TORTO,-8.213583242169415,39.428592904143564
pt.ine.add.PTCONT.4391293,R GEN AVELAR MACHADO,83,2205-563,SÃO MIGUEL DO RIO TORTO,-8.212223514261693,39.427828234471214
pt.ine.add.PTCONT.4391294,R DR ANTÓNIO FERREIRA BAIRRAO,,2205-655,TRAMAGAL,-8.247034525422487,39.45142488837137
pt.ine.add.PTCONT.4391295,R TERREIRO,,2205-693,TRAMAGAL,-8.24774317830911,39.45139717092114
pt.ine.add.PTCONT.4391296,R MERCADO,247,2205-691,TRAMAGAL,-8.251667856186693,39.4500962212764
pt.ine.add.PTCONT.4391297,AZ FAZENDA,117,2205-717,TRAMAGAL,-8.254625062911348,39.44703077117461
pt.ine.add.PTCONT.4391374,R S PEDRO,11,2205-136,ALVEGA,-8.0294621125042,39.45274953268114
pt.ine.add.PTCONT.4391375,R PRINCIPAL,1,2205-135,ALVEGA,-8.0045073831557,39.445771173349236
pt.ine.add.PTCONT.4391376,R HENRIQUE AUGUSTO SILVA MARTINS,,2205-002,SÃO MIGUEL DO RIO TORTO,-8.192432585742246,39.44090928148171
pt.ine.add.PTCONT.4391377,R HENRIQUE AUGUSTO SILVA MARTINS,,2205-002,SÃO MIGUEL DO RIO TORTO,-8.192432585742246,39.44090928148171
pt.ine.add.PTCONT.4391378,R TAPADA DA PEDRA,36,2205-067,SÃO MIGUEL DO RIO TORTO,-8.188085804272825,39.43798411934714
pt.ine.add.PTCONT.4391379,R TAPADA PEDRA,38,2205-067,SÃO MIGUEL DO RIO TORTO,-8.188167079220618,39.437939045540645
pt.ine.add.PTCONT.4391380,R TAPADA PEDRA,40,2205-067,SÃO MIGUEL DO RIO TORTO,-8.188167079220618,39.437939045540645
pt.ine.add.PTCONT.4391381,R MARIA LANCA,309,2205-065,SÃO MIGUEL DO RIO TORTO,-8.183898370687151,39.43005979365311
pt.ine.add.PTCONT.4391382,BR VALE CORTICAS,2,2205-595,SÃO MIGUEL DO RIO TORTO,-8.163185685222583,39.39348910343187
pt.ine.add.PTCONT.4391383,R CANAVIAIS QTA DO CAARITO,,2205-044,SÃO MIGUEL DO RIO TORTO,-8.183762447337035,39.4348245990009
pt.ine.add.PTCONT.4391384,LG S JOÃO,6,2205-812,VALE DAS MÓS,-8.058486462881424,39.341893942611655
pt.ine.add.PTCONT.4391385,R FORTUNATAS,16,2205-810,VALE DAS MÓS,-8.062546137650042,39.342166691158454
pt.ine.add.PTCONT.4391386,R PRINCIPAL,1,2205-291,CONCAVADA,-8.057050008582575,39.45770670639327
pt.ine.add.PTCONT.4391387,R PRINCIPAL,1,2205-291,CONCAVADA,-8.056169093054093,39.4557696127619
pt.ine.add.PTCONT.4391388,BR S JOAO BAPTISTA,4,2205-291,CONCAVADA,-8.056887607186498,39.45746340995332
pt.ine.add.PTCONT.4391389,BC FLORES,2,2205-256,CONCAVADA,-8.068454824726947,39.4506520805655
pt.ine.add.PTCONT.4391487,R PRINCIPAL,,2205-135,ALVEGA,-8.004615710411802,39.44371768371101
pt.ine.add.PTCONT.4391488,R BAIRRO NOVO,7,2205-175,BEMPOSTA ABT,-8.143248709301444,39.35643704615239
pt.ine.add.PTCONT.4391489,TV FOROS,,2205-183,BEMPOSTA ABT,-8.141218050212196,39.35415838329071
pt.ine.add.PTCONT.4391490,R DR MANUEL RODRIGUES,69,2205-179,BEMPOSTA ABT,-8.139396341297939,39.351780593717656
pt.ine.add.PTCONT.4391491,R PALMEIRAS,14,2205-563,SÃO MIGUEL DO RIO TORTO,-8.209052919247526,39.42787538307197
pt.ine.add.PTCONT.4391492,R CIRCUNVALAÇÃO PARQUE DESPORTIVO,14,2205-567,SÃO MIGUEL DO RIO TORTO,-8.208691072681052,39.42620030019326
pt.ine.add.PTCONT.4391493,R FONTE,53,2205-568,SÃO MIGUEL DO RIO TORTO,-8.21280205349337,39.425927343767036
pt.ine.add.PTCONT.4391494,R 1 BR NOVO,21,2205-554,SÃO MIGUEL DO RIO TORTO,-8.2102821547222,39.4261902484295
pt.ine.add.PTCONT.4391495,R 1 BR NOVO,21,2205-554,SÃO MIGUEL DO RIO TORTO,-8.2102821547222,39.4261902484295
pt.ine.add.PTCONT.4391496,R 4 BR NOVO,5,2205-557,SÃO MIGUEL DO RIO TORTO,-8.209873981615909,39.424650305865924
pt.ine.add.PTCONT.4391497,ESTR FONTES,,2230-837,FONTES ABT,-8.234458761388527,39.61591193187376
pt.ine.add.PTCONT.4391498,R POÇO DAS SOBREIRAS,,2230-835,FONTES ABT,-8.245872152166372,39.60925439719053
pt.ine.add.PTCONT.4391499,R GUILHERME SERRAS,,2230-831,FONTES ABT,-8.192210757818925,39.631621916136616
pt.ine.add.PTCONT.4391586,R 25 DE ABRIL,374,2205-409,BEMPOSTA ABT,-8.224484638236222,39.362967860033066
pt.ine.add.PTCONT.4391587,R 8 BR NOVO,11,2205-561,SÃO MIGUEL DO RIO TORTO,-8.21067557634996,39.42488395853198
pt.ine.add.PTCONT.4391588,R CIMA,,2205-500,SÃO MIGUEL DO RIO TORTO,-8.233028075546477,39.38162370043993
pt.ine.add.PTCONT.4391589,R CIMA,187,2205-500,SÃO MIGUEL DO RIO TORTO,-8.233712853837494,39.38162311041039
pt.ine.add.PTCONT.4391590,BC BERNARDINO CARAÇA,4,2205-468,SÃO MIGUEL DO RIO TORTO,-8.172869483435278,39.41815670718716
pt.ine.add.PTCONT.4391591,R 15 DE AGOSTO,,2230-836,FONTES ABT,-8.22891404058343,39.60638743995998
pt.ine.add.PTCONT.4391592,R NSA SRA DA ASSUNÇAO,,2230-836,FONTES ABT,-8.223685083899763,39.60572513000804
pt.ine.add.PTCONT.4391593,R SERAFINA,172,2230-862,CARVALHAL ABT,-8.198248316855942,39.573587768209215
pt.ine.add.PTCONT.4391594,R DEUS,7,2230-862,CARVALHAL ABT,-8.20012127885366,39.57274005822372
pt.ine.add.PTCONT.4391595,R VAL DA CARREIRA,133,2230-862,CARVALHAL ABT,-8.200737150913884,39.57175795331493
pt.ine.add.PTCONT.4391596,TV D MARIA I,,2230-862,CARVALHAL ABT,-8.19058542090934,39.56771933382848
pt.ine.add.PTCONT.4391693,PTO RODRIGUES,23,2205-161,BEMPOSTA ABT,-8.197725777492144,39.273039309383776
pt.ine.add.PTCONT.4391694,CSL AGUA BRANCA,,2205-162,BEMPOSTA ABT,-8.102728253741553,39.28840174328512
pt.ine.add.PTCONT.4391695,R 10 DE JUNHO,3,2205-201,BEMPOSTA ABT,-8.085939839090463,39.32981159382163
pt.ine.add.PTCONT.4391696,R FRENTE,,2205-217,BEMPOSTA ABT,-8.091722557886344,39.31796025217944
pt.ine.add.PTCONT.4391697,R VALE DA CEREJEIRA,,2200-482,ABRANTES,-8.215606456364956,39.509303425409406
pt.ine.add.PTCONT.4391698,R ASSOCIAÇÃO,163,2200-007,ABRANTES,-8.218683414359342,39.505743450725454
pt.ine.add.PTCONT.4391783,R VALE DO ARNEIRO,1002,2200-650,MARTINCHEL,-8.30319264744635,39.5359408655019
pt.ine.add.PTCONT.4391784,R FONTE,,2200-638,MARTINCHEL,-8.312044368550199,39.53582850062927
pt.ine.add.PTCONT.4391785,AZ VELHA,45,2200-631,MARTINCHEL,-8.333221884248957,39.51806834406527
pt.ine.add.PTCONT.4391786,CSL IGREJA,,2200-684,MOURISCAS,-8.095239683488176,39.50454382893498
pt.ine.add.PTCONT.4391787,R PALMEIRA,22,2200-154,ABRANTES,-8.198248052671483,39.48617551635059
pt.ine.add.PTCONT.4416974,R BREJO,,2200-048,ABRANTES,-8.181211103492759,39.47442066090726
pt.ine.add.PTCONT.4391788,R INDUSTRIA,471,2200-153,ABRANTES,-8.194374906358135,39.48341247262216
pt.ine.add.PTCONT.4391789,R SOCIEDADE,1293,2200-155,ABRANTES,-8.196852771072113,39.485707925716014
pt.ine.add.PTCONT.4391790,R IGREJA,199,2200-152,ABRANTES,-8.198977292010985,39.482932585538634
pt.ine.add.PTCONT.4391883,CASAL DO POCARRAO,,2200-721,MOURISCAS,-8.089874068126717,39.49487747104351
pt.ine.add.PTCONT.4391884,BC PARDAL,,2200-728,MOURISCAS,-8.085238002002123,39.49137193673975
pt.ine.add.PTCONT.4391885,R EMILIO SOUSA PINTO,,2200-705,MOURISCAS,-8.085936150627191,39.4903814530835
pt.ine.add.PTCONT.4391974,R GELFA,,2200-705,MOURISCAS,-8.084472055175452,39.48953419263852
pt.ine.add.PTCONT.4391975,R FERRO,,2200-724,MOURISCAS,-8.088043915429568,39.48459979759233
pt.ine.add.PTCONT.4391976,LG IGREJA,157,2205-328,PEGO,-8.149132344553637,39.46353100504792
pt.ine.add.PTCONT.4391977,EN 118,240,2205-324,PEGO,-8.143135897266736,39.45993786906676
pt.ine.add.PTCONT.4391978,R VALE PEREIRO,706,2205-362,PEGO,-8.143926302604921,39.46177523397539
pt.ine.add.PTCONT.4391979,R SAMARRA,400,2200-211,ABRANTES,-8.20817400149786,39.47464957140926
pt.ine.add.PTCONT.4392091,R VIDEIRA,50,2205-346,PEGO,-8.150154950451691,39.46371100032586
pt.ine.add.PTCONT.4392092,R COVAS,132,2205-348,PEGO,-8.150352778088953,39.4648728783629
pt.ine.add.PTCONT.4392093,R ROSEIRA,45,2205-343,PEGO,-8.151467098165082,39.46021607055423
pt.ine.add.PTCONT.4392094,R ROSEIRA PEQUENA,90,2205-345,PEGO,-8.154185842420162,39.45951306053213
pt.ine.add.PTCONT.4392095,EN 118,1707,2205-322,PEGO,-8.158508042246092,39.458962767436375
pt.ine.add.PTCONT.4392096,R LÍRIOS,,2200-282,ABRANTES,-8.200918994438572,39.471600649256104
pt.ine.add.PTCONT.4392220,EN 118,673,2205-324,PEGO,-8.14771418410194,39.4610542569824
pt.ine.add.PTCONT.4392221,URB CASALINHO,,2205-309,PEGO,-8.159088104671444,39.45653974483833
pt.ine.add.PTCONT.4392222,URB CASALINHO,,2205-309,PEGO,-8.159088104671444,39.45653974483833
pt.ine.add.PTCONT.4392223,URB CASALINHO,,2205-309,PEGO,-8.159088104671444,39.45653974483833
pt.ine.add.PTCONT.4392224,URB CASALINHO,,2205-309,PEGO,-8.159088104671444,39.45653974483833
pt.ine.add.PTCONT.4392225,URB CASALINHO,,2205-309,PEGO,-8.159088104671444,39.45653974483833
pt.ine.add.PTCONT.4392226,R BARRO VERMELHO,14,2200-122,ABRANTES,-8.210226426084697,39.45991273320743
pt.ine.add.PTCONT.4392227,R S JOÃO BAPTISTA DE AJUDA,12,2200-240,ABRANTES,-8.203618961444716,39.46386200821749
pt.ine.add.PTCONT.4392339,R DIREITA,87,2200-752,RIO DE MOINHOS ABT,-8.269532754863935,39.49008581567643
pt.ine.add.PTCONT.4392340,R CASCALHOS,15,2200-752,RIO DE MOINHOS ABT,-8.268452138860557,39.490321260183634
pt.ine.add.PTCONT.4392341,LG ESCOLA,19,2200-752,RIO DE MOINHOS ABT,-8.26710164550887,39.48925099267839
pt.ine.add.PTCONT.4392342,R FERNANDO FERREIRA,2,2200-798,RIO DE MOINHOS ABT,-8.244214561042838,39.47536830414814
pt.ine.add.PTCONT.4392343,LG FERRARIA,5,2200-346,ABRANTES,-8.197472268019194,39.46421684672773
pt.ine.add.PTCONT.4392344,R CONDES DE ABRANTES,23,2200-384,ABRANTES,-8.197971206164931,39.46343295771778
pt.ine.add.PTCONT.4392345,R D ANTÓNIO PRIOR DO CRATO,,2200-086,ABRANTES,-8.210848517435942,39.46554171496145
pt.ine.add.PTCONT.4392346,R D ANTÓNIO PRIOR DO CRATO,,2200-086,ABRANTES,-8.210848517435942,39.46554171496145
pt.ine.add.PTCONT.4392347,R D ANTÓNIO PRIOR DO CRATO,,2200-086,ABRANTES,-8.210848517435942,39.46554171496145
pt.ine.add.PTCONT.4392348,R D ANTÓNIO PRIOR DO CRATO,,2200-086,ABRANTES,-8.210848517435942,39.46554171496145
pt.ine.add.PTCONT.4392349,R D ANTÓNIO PRIOR DO CRATO,,2200-086,ABRANTES,-8.210848517435942,39.46554171496145
pt.ine.add.PTCONT.4392350,R D ANTÓNIO PRIOR DO CRATO,,2200-086,ABRANTES,-8.210848517435942,39.46554171496145
pt.ine.add.PTCONT.4392351,R D ANTÓNIO PRIOR DO CRATO,,2200-086,ABRANTES,-8.210848517435942,39.46554171496145
pt.ine.add.PTCONT.4392444,R PRINCIPAL,1203,2200-601,ALDEIA DO MATO,-8.257431357880925,39.555111462427
pt.ine.add.PTCONT.4392445,R VALE MANSO HI,HI,2200-601,ALDEIA DO MATO,-8.292611853044832,39.54802511873673
pt.ine.add.PTCONT.4392446,R VALE MANSO EO,EO,2200-601,ALDEIA DO MATO,-8.292611853044832,39.54802511873673
pt.ine.add.PTCONT.4392447,R VALE MANSO EN,EN,2200-601,ALDEIA DO MATO,-8.292611853044832,39.54802511873673
pt.ine.add.PTCONT.4392448,EN 118,,2205-010,ABRANTES,-8.18455154122449,39.44960484839505
pt.ine.add.PTCONT.4392449,BR S JOSE,,2205-033,ABRANTES,-8.187035284016211,39.446433239203174
pt.ine.add.PTCONT.4392450,BR S JOSE,,2205-033,ABRANTES,-8.187035284016211,39.446433239203174
pt.ine.add.PTCONT.4392451,BR S JOSE,,2205-033,ABRANTES,-8.187035284016211,39.446433239203174
pt.ine.add.PTCONT.4392452,BR S JOSE,,2205-033,ABRANTES,-8.187035284016211,39.446433239203174
pt.ine.add.PTCONT.4392453,BR S JOSE,,2205-033,ABRANTES,-8.187035284016211,39.446433239203174
pt.ine.add.PTCONT.4392454,BR S JOSE,,2205-033,ABRANTES,-8.187035284016211,39.446433239203174
pt.ine.add.PTCONT.4392455,BR S JOSE,,2205-033,ABRANTES,-8.187035284016211,39.446433239203174
pt.ine.add.PTCONT.4392456,R GASPAR CORREIA,85,2200-087,ABRANTES,-8.212462558908591,39.464495809368074
pt.ine.add.PTCONT.4392549,R LAMEIRA,64,2200-601,ALDEIA DO MATO,-8.294707378745043,39.53859199674113
pt.ine.add.PTCONT.4392550,R IGREJA,18,2200-464,ABRANTES,-8.178325161963112,39.50455921731841
pt.ine.add.PTCONT.4392551,R SRA ROSARIO,426,2205-063,ABRANTES,-8.18441609910778,39.43918373649646
pt.ine.add.PTCONT.4392552,R 18 DE MAIO,,2205-076,ABRANTES,-8.18300269707188,39.44443547137175
pt.ine.add.PTCONT.4392553,R NOGUEIRAS,181,2205-031,ABRANTES,-8.173381241254381,39.43973751188287
pt.ine.add.PTCONT.4392554,R D JOÃO IV,16,2200-406,ABRANTES,-8.198725550324596,39.462414739751296
pt.ine.add.PTCONT.4392555,R EIRA,184,2230-802,SOUTO ABT,-8.253536864107875,39.57049029990234
pt.ine.add.PTCONT.4392556,R PEREIRO,36,2230-802,SOUTO ABT,-8.25411812937103,39.57012942154738
pt.ine.add.PTCONT.4392653,R 25 ABRIL,34,2205-408,SÃO FACUNDO,-8.106660531861317,39.37300770703769
pt.ine.add.PTCONT.4392654,R CASCALHO D,43,2205-401,SÃO FACUNDO,-8.063886011764467,39.4184581559144
pt.ine.add.PTCONT.4392655,R ESCOLA,1,2205-401,SÃO FACUNDO,-8.068336502388545,39.41533525349408
pt.ine.add.PTCONT.4392656,R COMBATENTES GRANDE GUERRA,,2205-408,SÃO FACUNDO,-8.104489844996149,39.3743582694219
pt.ine.add.PTCONT.4392657,R COMBATENTES GRANDE GUERRA,106,2205-408,SÃO FACUNDO,-8.103527132054088,39.37312404597388
pt.ine.add.PTCONT.4392658,LG BIOUCAS,,2230-802,SOUTO ABT,-8.258580119608293,39.572745686684776
pt.ine.add.PTCONT.4392659,R BOA VISTA,125,2230-801,SOUTO ABT,-8.226074181814209,39.58118863895069
pt.ine.add.PTCONT.4392660,PC LUIS DE CAMÕES,,2230-807,SOUTO ABT,-8.235716395117509,39.57640689360042
pt.ine.add.PTCONT.4392661,R AMENDOEIRAS,,2230-807,SOUTO ABT,-8.232815358912307,39.57433784164181
pt.ine.add.PTCONT.4392662,R CALADAS,227,2205-625,TRAMAGAL,-8.270450066694426,39.442275448742386
pt.ine.add.PTCONT.4392774,ESTR GAIO,,2200-073,ABRANTES,-8.160841404561992,39.48292091327455
pt.ine.add.PTCONT.4392775,R MANUEL LOPES VALENTE JUNIOR,23,2200-260,ABRANTES,-8.191597671239311,39.48429658884964
pt.ine.add.PTCONT.4392776,R TELHEIROS,,2200-257,ABRANTES,-8.191487517760946,39.477667487919874
pt.ine.add.PTCONT.4392777,R BREJO,,2200-048,ABRANTES,-8.183305007148986,39.47716691522641
pt.ine.add.PTCONT.4392778,R 25 ABRIL,21,2205-408,SÃO FACUNDO,-8.106962587765905,39.37213407932966
pt.ine.add.PTCONT.4392779,R MAESTRO HENRIQUE SANTOS SILVA,17,2200-422,ABRANTES,-8.196308218416256,39.461965726772256
pt.ine.add.PTCONT.4392780,AZ MOINHO DA ROCA,,2205-621,TRAMAGAL,-8.267416612538122,39.42331909450265
pt.ine.add.PTCONT.4392781,R MIRATEJO,,2205-675,TRAMAGAL,-8.240953272161212,39.455691018994614
pt.ine.add.PTCONT.4418221,R MONTE,2,2205-274,CONCAVADA,-8.071567312986131,39.451905749300145
pt.ine.add.PTCONT.4392887,AV CONDE DE ALFERRAREDE,46,2200-456,ABRANTES,-8.17642364662155,39.47561146872015
pt.ine.add.PTCONT.4392888,R OUTEIRO DA FORCA,S4,2200-100,ABRANTES,-8.201948356582431,39.45479292072093
pt.ine.add.PTCONT.4392889,R OUTEIRO FORCA,55,2200-100,ABRANTES,-8.201948356582431,39.45479292072093
pt.ine.add.PTCONT.4392890,R CAPELA,32,2200-107,ABRANTES,-8.194302553757135,39.45389649018938
pt.ine.add.PTCONT.4392891,R S JOÃO,19,2205-645,TRAMAGAL,-8.240226025061425,39.45119717489995
pt.ine.add.PTCONT.4392892,R ORIENTAL A PENHA,81,2205-706,TRAMAGAL,-8.240040661386592,39.45153961335707
pt.ine.add.PTCONT.4392893,PC BAIRRO AZUL,12,2205-685,TRAMAGAL,-8.241770918591566,39.451006593765186
pt.ine.add.PTCONT.4392894,R ORIENTAL A PENHA,92,2205-706,TRAMAGAL,-8.240226590933023,39.45156646341405
pt.ine.add.PTCONT.4392895,EN 118,473,2205-645,TRAMAGAL,-8.241259200608285,39.450664802804525
pt.ine.add.PTCONT.4392896,R CABEÇO DO MOINHO DE VENTO,33,2205-716,TRAMAGAL,-8.246241761892176,39.4497323367018
pt.ine.add.PTCONT.4392897,R D MARIA HELENA DUARTE FERREIRA,2,2205-648,TRAMAGAL,-8.251579997121373,39.45309565799444
pt.ine.add.PTCONT.4392957,R BAIRRO AZUL,108,2205-685,TRAMAGAL,-8.24214312752154,39.45128546397379
pt.ine.add.PTCONT.4392962,R PROF SILVA LEITÃO,22,2205-180,BEMPOSTA ABT,-8.140266340975442,39.3506816640621
pt.ine.add.PTCONT.4392992,R CABEÇO,74,2230-865,CARVALHAL ABT,-8.207907073991501,39.58339942344749
pt.ine.add.PTCONT.4393009,ESTR NACICNAL 118,364,2205-306,PEGO,-8.169508494368698,39.453222357061286
pt.ine.add.PTCONT.4393010,R MQ DE POMBAL,8,2200-425,ABRANTES,-8.198935895163464,39.46367560556312
pt.ine.add.PTCONT.4393032,AV AVELAR MACHADO,1 A,2205-020,ABRANTES,-8.18455154122449,39.44960484839505
pt.ine.add.PTCONT.4393044,AV DR SOLANO ABREU,10,2200-302,ABRANTES,-8.201426894703683,39.45619832723247
pt.ine.add.PTCONT.4393051,R MARMELEIROS,,2205-045,ABRANTES,-8.194234176207475,39.44213330978433
pt.ine.add.PTCONT.4393080,R PROF JOAQUIM LOPES RAPOSO,11,2205-118,ALVEGA,-8.041912073507394,39.46531577288604
pt.ine.add.PTCONT.4393118,URB CASALINHO,,2205-309,PEGO,-8.159088104671444,39.45653974483833
pt.ine.add.PTCONT.4393121,AV DR SOLANO ABREU,10,2200-302,ABRANTES,-8.201426894703683,39.45619832723247
pt.ine.add.PTCONT.4393141,R RODRIGO,,2200-015,ABRANTES,-8.228022899012299,39.473725356336885
pt.ine.add.PTCONT.4393170,R GASPAR CORREIA,85,2200-087,ABRANTES,-8.212462558908591,39.464495809368074
pt.ine.add.PTCONT.4393177,R BASÍLIO ANTÓNIO CERTA,11,2200-460,ABRANTES,-8.179483004138717,39.49727211833247
pt.ine.add.PTCONT.4393178,R BASÍLIO ANTÓNIO CERTA,,2200-460,ABRANTES,-8.178784640792014,39.496011417317014
pt.ine.add.PTCONT.4393186,BC SANTO ANTÓNIO,2,2205-131,ALVEGA,-8.011135942115846,39.45517266667251
pt.ine.add.PTCONT.4393195,R ESTAÇÃO,,2200-038,ABRANTES,-8.186591141487504,39.47328342687579
pt.ine.add.PTCONT.4393198,R ESTAÇÃO,,2200-038,ABRANTES,-8.186591141487504,39.47328342687579
pt.ine.add.PTCONT.4393199,R ESTAÇÃO,,2200-038,ABRANTES,-8.186591141487504,39.47328342687579
pt.ine.add.PTCONT.4393200,R ESTAÇÃO,,2200-038,ABRANTES,-8.186591141487504,39.47328342687579
pt.ine.add.PTCONT.4393201,R ESTAÇÃO,,2200-038,ABRANTES,-8.186591141487504,39.47328342687579
pt.ine.add.PTCONT.4393202,R ESTAÇÃO,,2200-038,ABRANTES,-8.186591141487504,39.47328342687579
pt.ine.add.PTCONT.4393203,R ESTAÇÃO,,2200-038,ABRANTES,-8.186591141487504,39.47328342687579
pt.ine.add.PTCONT.4393204,R ESTAÇÃO,,2200-038,ABRANTES,-8.186823775149376,39.47354452316706
pt.ine.add.PTCONT.4393206,R ESTAÇÃO,,2200-038,ABRANTES,-8.186591141487504,39.47328342687579
pt.ine.add.PTCONT.4393216,R CERÂMICA,366,2200-638,MARTINCHEL,-8.319828377050666,39.536635886698164
pt.ine.add.PTCONT.4393219,R CERÂMICA,,2205-566,SÃO MIGUEL DO RIO TORTO,-8.217819515303391,39.42618500380915
pt.ine.add.PTCONT.4393220,CSL COURELAS,,2205-209,BEMPOSTA ABT,-8.164451705284288,39.317170750271266
pt.ine.add.PTCONT.4393245,R DR MANUEL RODRIGUES,42,2205-179,BEMPOSTA ABT,-8.139280426240415,39.35291550793768
pt.ine.add.PTCONT.4393298,R LAGAR,,2230-832,FONTES ABT,-8.23565360282257,39.59697857089494
pt.ine.add.PTCONT.4393308,BC BRAS GIL,1,2200-303,ABRANTES,-8.197843594788987,39.46365820463774
pt.ine.add.PTCONT.4393309,R BARCA,245,2205-697,TRAMAGAL,-8.244455694606534,39.458948267123134
pt.ine.add.PTCONT.4393310,R CASAL DE BAIXO,3,2205-814,VALE DAS MÓS,-8.070618228037159,39.34378359721411
pt.ine.add.PTCONT.4393311,AV MIRA ZEZERE,9,2230-862,CARVALHAL ABT,-8.193073843590692,39.56542132394262
pt.ine.add.PTCONT.4393323,R ANGOLA,1,2200-390,ABRANTES,-8.19926130741851,39.46372946311084
pt.ine.add.PTCONT.4393324,R ANGOLA,1,2200-390,ABRANTES,-8.19926130741851,39.46372946311084
pt.ine.add.PTCONT.4393325,R PEREIRO,,2230-802,SOUTO ABT,-8.254257625866781,39.57003920756837
pt.ine.add.PTCONT.4393329,R CABEÇO,23,2230-802,SOUTO ABT,-8.25602104627605,39.56691197312541
pt.ine.add.PTCONT.4393330,R COMEND EDUARDO DUARTE FERREIRA,987,2205-697,TRAMAGAL,-8.246860768598534,39.451740305153734
pt.ine.add.PTCONT.4393331,R COMEND EDUARDO DUARTE FERREIRA,987,2205-697,TRAMAGAL,-8.246860768598534,39.451740305153734
pt.ine.add.PTCONT.4393332,R COMEND EDUARDO DUARTE FERREIRA,987,2205-697,TRAMAGAL,-8.246860768598534,39.451740305153734
pt.ine.add.PTCONT.4393333,R QUINTA,10,2205-291,CONCAVADA,-8.054985785489404,39.454156562795845
pt.ine.add.PTCONT.4393334,R PRINCIPAL,5,2205-291,CONCAVADA,-8.05629722563836,39.45547246498539
pt.ine.add.PTCONT.4393343,TV CASCALHOS,58,2205-642,TRAMAGAL,-8.248328219456042,39.45390955898701
pt.ine.add.PTCONT.4393344,R CASCALHOS,274,2205-694,TRAMAGAL,-8.248129669173169,39.45327926231294
pt.ine.add.PTCONT.4393345,R FERRUGENTA,206,2205-621,TRAMAGAL,-8.27013946121426,39.437898381386255
pt.ine.add.PTCONT.4393352,R FR ANTÓNIO BATISTA ABRANTES,224,2200-269,ABRANTES,-8.201627861853051,39.47156420566917
pt.ine.add.PTCONT.4393353,AV 25 DE ABRIL,612,2200-299,ABRANTES,-8.203315183549238,39.46221390490765
pt.ine.add.PTCONT.4393354,AV 25 DE ABRIL,612,2200-299,ABRANTES,-8.203315183549238,39.46221390490765
pt.ine.add.PTCONT.4393355,AV 25 DE ABRIL,612,2200-299,ABRANTES,-8.203315183549238,39.46221390490765
pt.ine.add.PTCONT.4393356,R ROSA,38,2205-668,TRAMAGAL,-8.239878779660744,39.45204415682285
pt.ine.add.PTCONT.4393357,R IGREJA,5,2205-808,VALE DAS MÓS,-8.062657298749652,39.34698561969265
pt.ine.add.PTCONT.4393369,R SENHORA DO AMPARO,130,2200-212,ABRANTES,-8.208366070890795,39.46954246748208
pt.ine.add.PTCONT.4393370,AV 25 DE ABRIL,612,2200-299,ABRANTES,-8.203315183549238,39.46221390490765
pt.ine.add.PTCONT.4393371,R ANGOLA,13,2200-390,ABRANTES,-8.200283178902954,39.46300831472636
pt.ine.add.PTCONT.4393372,R ANGOLA,13,2200-390,ABRANTES,-8.200283178902954,39.46300831472636
pt.ine.add.PTCONT.4393373,R ANGOLA,13,2200-390,ABRANTES,-8.200283178902954,39.46300831472636
pt.ine.add.PTCONT.4393374,R ANGOLA,13,2200-390,ABRANTES,-8.200283178902954,39.46300831472636
pt.ine.add.PTCONT.4393375,R LAGAR PARQUE PAZ DAS MERENDAS,,2230-806,SOUTO ABT,-8.237394099653857,39.56201242705954
pt.ine.add.PTCONT.4393376,R MERCADO,,2205-691,TRAMAGAL,-8.251574975125038,39.45013234412171
pt.ine.add.PTCONT.4393385,LG S JOSE,65,2230-801,SOUTO ABT,-8.218803704315295,39.584679877442
pt.ine.add.PTCONT.4393386,R EÇA DE QUEIRÓS,12,2205-696,TRAMAGAL,-8.244542487586939,39.455084163560194
pt.ine.add.PTCONT.4393387,R QUINTA DOS BICOS,,2205-714,TRAMAGAL,-8.244974033429344,39.45611955920875
pt.ine.add.PTCONT.4393388,R D MARIA I,,2230-862,CARVALHAL ABT,-8.1893751033973,39.567683898621816
pt.ine.add.PTCONT.4393398,R GEN HUMBERTO DELGADO,5,2200-117,ABRANTES,-8.206100791894142,39.45920383965431
pt.ine.add.PTCONT.4393399,R BOA VISTA,,2230-801,SOUTO ABT,-8.225840705001,39.580675435096126
pt.ine.add.PTCONT.4393400,R BELA VISTA,255,2205-660,TRAMAGAL,-8.242472911687914,39.45414939542886
pt.ine.add.PTCONT.4393401,R 9 DE JULHO,,2205-803,VALE DAS MÓS,-8.068008985565363,39.34292648125922
pt.ine.add.PTCONT.4393402,R HORTA NOVA,,2230-862,CARVALHAL ABT,-8.190912262450459,39.568917085452135
pt.ine.add.PTCONT.4393422,LG OUTEIRO,764,2230-862,CARVALHAL ABT,-8.2000954279899,39.57006503421128
pt.ine.add.PTCONT.4393423,R DR MANUEL DE ARRIAGA,32,2230-862,CARVALHAL ABT,-8.199979430917336,39.57046140315418
pt.ine.add.PTCONT.4393428,R CANICEIRA,79,2205-661,TRAMAGAL,-8.244148356781002,39.455651984241314
pt.ine.add.PTCONT.4393429,R MIRATEJO,,2205-675,TRAMAGAL,-8.24103504811059,39.45597916850353
pt.ine.add.PTCONT.4393430,R ZEZERE,822,2230-837,FONTES ABT,-8.241013983392742,39.615158464537146
pt.ine.add.PTCONT.4393431,R S BENTO,160,2230-862,CARVALHAL ABT,-8.197173665797225,39.56932811843696
pt.ine.add.PTCONT.4393435,R VALE DE RÃS,569,2200-287,ABRANTES,-8.198144752233226,39.475105963635954
pt.ine.add.PTCONT.4393436,R BAIRRO NOVO,82,2205-630,TRAMAGAL,-8.26831340485537,39.442674262754
pt.ine.add.PTCONT.4393437,R CENTRO AGRICOLA,87,2205-645,TRAMAGAL,-8.251386774496035,39.44876346376263
pt.ine.add.PTCONT.4393438,R NUNO ÁLVARES PEREIRA,346,2230-862,CARVALHAL ABT,-8.197603274381848,39.56826507025467
pt.ine.add.PTCONT.4393466,R FRANCISCO FERREIRA DA MATA,53,2200-223,ABRANTES,-8.198650463604912,39.46907998373587
pt.ine.add.PTCONT.4393467,R MAXIEIRA,183,2230-807,SOUTO ABT,-8.23879775722872,39.57447666466703
pt.ine.add.PTCONT.4393468,R D JOSE,93,2230-862,CARVALHAL ABT,-8.191363904924978,39.566259832916934
pt.ine.add.PTCONT.4393694,R JOSE DIAS SIMAO,122,2200-062,ABRANTES,-8.189836468358177,39.47683965999634
pt.ine.add.PTCONT.4393695,R STA ISABEL,6,2205-138,ALVEGA,-8.039584899554187,39.44158936249516
pt.ine.add.PTCONT.4393696,CSL ABEGOARIA,,2205-161,BEMPOSTA ABT,-8.188969221524964,39.27851128506669
pt.ine.add.PTCONT.4393697,R CALDEIRAS,35,2200-788,RIO DE MOINHOS ABT,-8.23742141139448,39.47919356819806
pt.ine.add.PTCONT.4393698,R DIREITA,31,2200-752,RIO DE MOINHOS ABT,-8.268087566476558,39.4881419926103
pt.ine.add.PTCONT.4393699,R DR ANTÓNIO DO ROSÁRIO BANDOS,12,2200-197,ABRANTES,-8.189659757072745,39.45954625664057
pt.ine.add.PTCONT.4393700,R LAMEIRAS,49,2205-030,SÃO MIGUEL DO RIO TORTO,-8.193197323877651,39.43865712149129
pt.ine.add.PTCONT.4393701,R MANUEL LOPES VALENTE JUNIOR,22,2200-260,ABRANTES,-8.19344581097121,39.48430465155666
pt.ine.add.PTCONT.4393702,AV CONDE DE ALFERRAREDE,9,2200-037,ABRANTES,-8.181989198805095,39.47360970492562
pt.ine.add.PTCONT.4393703,TV RIO DAS HORTAS,40,2200-071,ABRANTES,-8.188727070465315,39.47020202400373
pt.ine.add.PTCONT.4393704,EN 118,19,2205-134,ALVEGA,-8.010696194049137,39.46080160369267
pt.ine.add.PTCONT.4393705,R ENCARNAÇÃO,1,2205-138,ALVEGA,-8.036587878771506,39.44158691412496
pt.ine.add.PTCONT.4393706,R VIDEIRA,30,2205-346,PEGO,-8.150271139910851,39.46366594806953
pt.ine.add.PTCONT.4393707,R SERRADO,693,2205-306,PEGO,-8.173804839775254,39.44905066771176
pt.ine.add.PTCONT.4393708,TV ABELHO,1,2205-058,ABRANTES,-8.19217088937113,39.447394500022654
pt.ine.add.PTCONT.4393709,R VALE MANSO JC,JC,2200-601,ALDEIA DO MATO,-8.293216058161894,39.54769103287241
pt.ine.add.PTCONT.4393710,R VALE MANSO IF,IF,2200-601,ALDEIA DO MATO,-8.293216058161894,39.54769103287241
pt.ine.add.PTCONT.4393711,QTA BOM SUCESSO CASTELO DA MARQUESA DO FAIL,,2200-484,ABRANTES,-8.169291630937195,39.48316177997611
pt.ine.add.PTCONT.4393712,R HIDROGENIO,5,2200-095,ABRANTES,-8.189058182948877,39.47734442972796
pt.ine.add.PTCONT.4393713,R HIDROGENIO,7,2200-095,ABRANTES,-8.189058182948877,39.47734442972796
pt.ine.add.PTCONT.4393714,CSL VENDA N T,N T,2200-687,MOURISCAS,-8.097322658441223,39.50109481826221
pt.ine.add.PTCONT.4393715,R CORDEIROS,,2200-694,MOURISCAS,-8.08451925077407,39.471826437456635
pt.ine.add.PTCONT.4393716,CSL VARANDAS,,2200-698,MOURISCAS,-8.11215057743508,39.48638102012704
pt.ine.add.PTCONT.4393717,R JOAO JOSE SOARES MENDES,13,2205-051,ABRANTES,-8.192856158134136,39.44721400886299
pt.ine.add.PTCONT.4393718,R JOAO JOSE SOARES MENDES,11,2205-051,ABRANTES,-8.192856158134136,39.44721400886299
pt.ine.add.PTCONT.4393719,R MOINHO VENTO,13,2205-408,SÃO FACUNDO,-8.108935078053655,39.37310728067068
pt.ine.add.PTCONT.4393720,R VALE MANSO IE,IE,2200-601,ALDEIA DO MATO,-8.293216058161894,39.54769103287241
pt.ine.add.PTCONT.4393721,AV ANTÓNIO FARINHA PEREIRA,24,2200-024,ABRANTES,-8.180870105092085,39.485616511928406
pt.ine.add.PTCONT.4393722,R BAIRRO NOVO,19,2205-175,BEMPOSTA ABT,-8.143492546129416,39.35771604692535
pt.ine.add.PTCONT.4393723,R 3 BR DOS BENVINDOS,9,2205-201,BEMPOSTA ABT,-8.08237815204381,39.3313953702439
pt.ine.add.PTCONT.4393724,R CALDEIRAS,37,2200-788,RIO DE MOINHOS ABT,-8.236793777126003,39.479185122510955
pt.ine.add.PTCONT.4393725,AV AVELAR MACHADO,83,2205-020,ABRANTES,-8.190892275406599,39.446539471700625
pt.ine.add.PTCONT.4393726,BR PESO,,2205-210,BEMPOSTA ABT,-8.225913811889779,39.25912193382734
pt.ine.add.PTCONT.4393727,R DIREITA,35,2200-790,RIO DE MOINHOS ABT,-8.242611802355603,39.47605435732378
pt.ine.add.PTCONT.4393728,AV ANTERO DE QUENTAL,,2200-220,ABRANTES,-8.196970384450216,39.47450314446808
pt.ine.add.PTCONT.4393729,AV ANTERO DE QUENTAL,,2200-220,ABRANTES,-8.196970384450216,39.47450314446808
pt.ine.add.PTCONT.4393730,AV ANTERO DE QUENTAL,,2200-220,ABRANTES,-8.196970384450216,39.47450314446808
pt.ine.add.PTCONT.4393731,AV ANTERO DE QUENTAL,,2200-220,ABRANTES,-8.196970384450216,39.47450314446808
pt.ine.add.PTCONT.4393732,AV ANTERO DE QUENTAL,,2200-220,ABRANTES,-8.196970384450216,39.47450314446808
pt.ine.add.PTCONT.4393733,R OA ESCOLA,207,2200-631,MARTINCHEL,-8.334324317116796,39.521290924244774
pt.ine.add.PTCONT.4393734,BC VINHA,146,2205-316,PEGO,-8.148493804595914,39.4660800812732
pt.ine.add.PTCONT.4393735,TV AMENDOEIRAS,,2205-028,ABRANTES,-8.169638859191817,39.435892727070865
pt.ine.add.PTCONT.4393736,R LAGAR,206,2200-601,ALDEIA DO MATO,-8.272493066417436,39.56374998709042
pt.ine.add.PTCONT.4393737,R PRINCIPAL,44,2205-401,SÃO FACUNDO,-8.069520976529903,39.41528186429267
pt.ine.add.PTCONT.4393738,R MONTE D AVÁRZEA,6,2205-401,SÃO FACUNDO,-8.064795718542605,39.414432517410646
pt.ine.add.PTCONT.4393739,R IGREJA,20,2200-464,ABRANTES,-8.17842976850003,39.50450513477146
pt.ine.add.PTCONT.4393740,R BOAVISTA,29,2205-411,SÃO FACUNDO,-8.100680694001547,39.405134695486076
pt.ine.add.PTCONT.4393741,R S JOÃO,5,2205-411,SÃO FACUNDO,-8.104372015579369,39.406991133090514
pt.ine.add.PTCONT.4393742,R PRINCIPAL,17,2205-401,SÃO FACUNDO,-8.06648917267876,39.41640605599083
pt.ine.add.PTCONT.4393743,BC NSA SRA DAS GRAÇAS,,2200-139,ABRANTES,-8.196942014061145,39.48160969108324
pt.ine.add.PTCONT.4393744,AV CONDE DE ALFERRAREDE,75,2200-037,ABRANTES,-8.17284469702664,39.47672961644539
pt.ine.add.PTCONT.4393745,CSL VALE DAS CASAS,,2205-201,BEMPOSTA ABT,-8.115836290524031,39.34131309767104
pt.ine.add.PTCONT.4393746,R FLORES,1,2205-411,SÃO FACUNDO,-8.101829947082857,39.405513309338865
pt.ine.add.PTCONT.4393747,TV OUTEIRO,10,2205-580,SÃO MIGUEL DO RIO TORTO,-8.215964015661513,39.42847414061934
pt.ine.add.PTCONT.4393748,R FONTE,,2205-408,SÃO FACUNDO,-8.10379352019529,39.37438511760757
pt.ine.add.PTCONT.4393749,R FONTE,,2205-408,SÃO FACUNDO,-8.104095118223327,39.3747184585495
pt.ine.add.PTCONT.4393750,R LINHA DO LESTE,358,2205-044,SÃO MIGUEL DO RIO TORTO,-8.185213051654074,39.433076584924926
pt.ine.add.PTCONT.4393751,R 3 BR NOVO,12,2205-556,SÃO MIGUEL DO RIO TORTO,-8.20967832539997,39.426271711266146
pt.ine.add.PTCONT.4393752,R VALE DO ESTEIO,,2200-729,MOURISCAS,-8.104058103847798,39.51981316058961
pt.ine.add.PTCONT.4393753,R LAMEIRA REDONDA,,2200-714,MOURISCAS,-8.075877202125964,39.48079349058189
pt.ine.add.PTCONT.4393754,R BEATRIZ SOARES MENDES,97,2205-466,SÃO MIGUEL DO RIO TORTO,-8.174089500848094,39.41936323559744
pt.ine.add.PTCONT.4393755,R PAPA JOAO XXIII,37 A,2200-264,ABRANTES,-8.192805064567132,39.48260265890128
pt.ine.add.PTCONT.4393756,R PAPA JOAO XXIII,37,2200-264,ABRANTES,-8.192805064567132,39.48260265890128
pt.ine.add.PTCONT.4393757,R DOA MOINHOS,,2205-138,ALVEGA,-8.035129397526868,39.44617929621839
pt.ine.add.PTCONT.4393758,R FLORES,,2205-135,ALVEGA,-8.003698724575754,39.443320356433865
pt.ine.add.PTCONT.4393759,R LOMBA CIMEIRA,,2200-716,MOURISCAS,-8.093769926808333,39.513009886281566
pt.ine.add.PTCONT.4393760,R BARCA ABAIXO,467,2200-386,,-8.195073225855836,39.458246484591555
pt.ine.add.PTCONT.4393761,R BARCA,,2200-386,,-8.195073225855836,39.458246484591555
pt.ine.add.PTCONT.4393763,R PRINCIPAL,428 B,2200-022,ABRANTES,-8.217572560525584,39.490945798419936
pt.ine.add.PTCONT.4393764,R PRINCIPAL,300,2200-022,ABRANTES,-8.217954868662357,39.489873688249936
pt.ine.add.PTCONT.4393765,R ANTIGA,,2205-409,BEMPOSTA ABT,-8.220994192824024,39.364690920923636
pt.ine.add.PTCONT.4393766,R COTOVELO,,2200-702,MOURISCAS,-8.108263466397744,39.49973761747242
pt.ine.add.PTCONT.4393767,LG S JOÃO,9,2205-134,ALVEGA,-8.011553893776776,39.46203646685001
pt.ine.add.PTCONT.4393768,EN 358,,2200-709,MOURISCAS,-8.09730865695808,39.50572439732498
pt.ine.add.PTCONT.4393769,EN 118,,2205-571,SÃO MIGUEL DO RIO TORTO,-8.201357377259754,39.444498206111476
pt.ine.add.PTCONT.4393770,R NOVA,48,2200-505,ABRANTES,-8.191514789673846,39.524152471484555
pt.ine.add.PTCONT.4393771,R CABEÇO DAS AMARELINHAS,26,2200-022,ABRANTES,-8.218560351447298,39.49070188796944
pt.ine.add.PTCONT.4393772,R TIAGO DE ABREU,,2200-286,ABRANTES,-8.20265816381193,39.4792195560539
pt.ine.add.PTCONT.4393773,R TIAGO DE ABREU,,2200-286,ABRANTES,-8.20265816381193,39.4792195560539
pt.ine.add.PTCONT.4393774,AV ESCOLA NOVA,137,2200-135,ABRANTES,-8.199786756367114,39.47857273334043
pt.ine.add.PTCONT.4393775,R PESCADORES,404,2200-601,ALDEIA DO MATO,-8.284306949144577,39.55423296019926
pt.ine.add.PTCONT.4393776,AV CONDE DE ALFERRAREDE,52,2200-456,ABRANTES,-8.176109862931268,39.475629599204325
pt.ine.add.PTCONT.4393777,CSL CHOUPOS,,2200-693,MOURISCAS,-8.086034903813848,39.48184285884059
pt.ine.add.PTCONT.4393778,R ROSEIRA,272,2205-343,PEGO,-8.153592999285234,39.4586394835207
pt.ine.add.PTCONT.4393779,R PROF VITORINO NEMESIO,75,2200-167,ABRANTES,-8.205965717368864,39.48566654497082
pt.ine.add.PTCONT.4393780,R VALE DE MORENAS,466,2200-173,ABRANTES,-8.196159147378053,39.48991457058125
pt.ine.add.PTCONT.4393781,R MARIA JOSE G BOBELA,50,2200-168,ABRANTES,-8.192870417712236,39.47747763821227
pt.ine.add.PTCONT.4393782,BC VALE DE RÃS,1,2200-270,ABRANTES,-8.198108159744327,39.47325053876356
pt.ine.add.PTCONT.4393783,R VISCONDESSA,332,2200-011,ABRANTES,-8.227342431702027,39.47758991815557
pt.ine.add.PTCONT.4398000,EN 118,14,2205-325,PEGO,-8.138290441375611,39.457839545345095
pt.ine.add.PTCONT.4395005,R BAIRRO AZUL,69,2205-685,TRAMAGAL,-8.24210883539641,39.45164577809261
pt.ine.add.PTCONT.4395024,AV ANTERO DE QUENTAL,,2200-220,ABRANTES,-8.196970384450216,39.47450314446808
pt.ine.add.PTCONT.4395032,AV CONDE DE ALFERRAREDE,198,2200-456,ABRANTES,-8.165709013678255,39.477497431885574
pt.ine.add.PTCONT.4395036,R COVAS DA RAPOSA,,2200-075,ABRANTES,-8.165707458189035,39.47416483697636
pt.ine.add.PTCONT.4395059,R ALEXANDRE HERCULANO,24,2200-373,ABRANTES,-8.197505526320498,39.46247847094443
pt.ine.add.PTCONT.4395070,R CAMPO DA BOLA,72,2205-564,SÃO MIGUEL DO RIO TORTO,-8.208567721385078,39.430280590740374
pt.ine.add.PTCONT.4395072,R COVAS DA RAPOSA,43,2200-075,ABRANTES,-8.16704458102187,39.475434443717795
pt.ine.add.PTCONT.4395087,R BOAVISTA,6,2205-134,ALVEGA,-8.012229771144721,39.460920299197134
pt.ine.add.PTCONT.4395090,AV 25 DE ABRIL,612,2200-299,ABRANTES,-8.203315183549238,39.46221390490765
pt.ine.add.PTCONT.4395094,R VALE FETO,15,2205-365,PEGO,-8.141613751488595,39.45992898330708
pt.ine.add.PTCONT.4395107,R LAGOA,35,2205-342,PEGO,-8.150339747424113,39.459153412360905
pt.ine.add.PTCONT.4395115,EN 118,215,2205-645,TRAMAGAL,-8.240437692754844,39.45285427671223
pt.ine.add.PTCONT.4395144,R MONTES,43,2205-634,TRAMAGAL,-8.269188723892364,39.4388002043377
pt.ine.add.PTCONT.4395147,AV ESCOLA NOVA,317,2200-135,ABRANTES,-8.199786756367114,39.47857273334043
pt.ine.add.PTCONT.4395157,AV ANTÓNIO FARINHA PEREIRA,44,2200-024,ABRANTES,-8.179603722305052,39.48651772501777
pt.ine.add.PTCONT.4395159,TV CASAL DO MORGADO,,2205-815,VALE DAS MÓS,-8.063889708480676,39.34421213672576
pt.ine.add.PTCONT.4395171,CSL ABEGOARIA,,2205-161,BEMPOSTA ABT,-8.180182720367045,39.275912052420544
pt.ine.add.PTCONT.4395184,R CABEÇO DO MOINHO DE VENTO,130,2205-716,TRAMAGAL,-8.246217200367145,39.44891271881398
pt.ine.add.PTCONT.4395187,TV CHÃO CALDEIROS,196,2205-368,PEGO,-8.146425234691904,39.465395802231505
pt.ine.add.PTCONT.4395188,R CHÃO DAS CALDEIRAS,126,2205-336,PEGO,-8.144879411814873,39.463504492168816
pt.ine.add.PTCONT.4395189,R CHÃO DAS CALDEIRAS,126,2205-336,PEGO,-8.144879411814873,39.463504492168816
pt.ine.add.PTCONT.4395190,CSL CHÃO DE LUCAS FONTE DO VAL,,2205-566,SÃO MIGUEL DO RIO TORTO,-8.228386463332884,39.44204729871541
pt.ine.add.PTCONT.4395220,R SANTO ANTÓNIO,12,2205-268,CONCAVADA,-8.069136438217136,39.454849742525596
pt.ine.add.PTCONT.4395221,R FONTE DE SANTO ANTÓNIO,4,2205-117,ALVEGA,-8.046825026930689,39.46729206073029
pt.ine.add.PTCONT.4395262,R CALDEIRÃO,179,2205-687,TRAMAGAL,-8.239782522476268,39.44987354601976
pt.ine.add.PTCONT.4395263,R BARROCO,,2205-209,BEMPOSTA ABT,-8.169720204010279,39.3248794226098
pt.ine.add.PTCONT.4395264,R NOVA,,2205-209,BEMPOSTA ABT,-8.162993478107204,39.323845510189855
pt.ine.add.PTCONT.4395265,R ESCOLA,,2205-209,BEMPOSTA ABT,-8.163550452081296,39.32459296760812
pt.ine.add.PTCONT.4395266,R MEIO,,2205-209,BEMPOSTA ABT,-8.164373734530786,39.324358560912366
pt.ine.add.PTCONT.4395290,R VALE DOS FERREIROS,180,2205-366,PEGO,-8.153675746649903,39.46344021995424
pt.ine.add.PTCONT.4395291,ESTR BAIRROS,956,2200-601,ALDEIA DO MATO,-8.279365378716113,39.55583350238467
pt.ine.add.PTCONT.4395328,R BELA VISTA,984,2230-832,FONTES ABT,-8.233686488955026,39.59727751545163
pt.ine.add.PTCONT.4395352,R INF D LUIS,,2200-090,ABRANTES,-8.211116308319879,39.466009901138065
pt.ine.add.PTCONT.4395353,R INF D LUIS,,2200-090,ABRANTES,-8.211116308319879,39.466009901138065
pt.ine.add.PTCONT.4395354,R INF D LUIS,,2200-090,ABRANTES,-8.211116308319879,39.466009901138065
pt.ine.add.PTCONT.4395355,R INF D LUIS,,2200-090,ABRANTES,-8.211116308319879,39.466009901138065
pt.ine.add.PTCONT.4395356,R INF D LUIS,,2200-090,ABRANTES,-8.211116308319879,39.466009901138065
pt.ine.add.PTCONT.4395357,R CONTRASTE,54,2230-807,SOUTO ABT,-8.2401549721309,39.57912295951159
pt.ine.add.PTCONT.4395358,R PRINCIPAL,,2230-806,SOUTO ABT,-8.234686164054242,39.56431157880122
pt.ine.add.PTCONT.4395359,R TAPADA MOURA,250,2205-624,TRAMAGAL,-8.271863306752083,39.440274203391596
pt.ine.add.PTCONT.4395360,R BELA VISTA,,2230-832,FONTES ABT,-8.233616687099106,39.59731360314433
pt.ine.add.PTCONT.4395361,R AZENHAS,,2230-865,CARVALHAL ABT,-8.208817415291978,39.585623524468026
pt.ine.add.PTCONT.4395372,R CONDES DE ABRANTES,16,2200-384,ABRANTES,-8.197808509500073,39.46341503427884
pt.ine.add.PTCONT.4395373,R INF D LUIS,,2200-090,ABRANTES,-8.211116308319879,39.466009901138065
pt.ine.add.PTCONT.4395374,R BARCA,,2205-697,TRAMAGAL,-8.244315876764974,39.458705210879195
pt.ine.add.PTCONT.4395375,R NSA SRA DE OLIVEIRA,15,2205-679,TRAMAGAL,-8.243725608041723,39.4528241749566
pt.ine.add.PTCONT.4395376,R COMBATENTES DO ULTRAMAR,,2230-865,CARVALHAL ABT,-8.20702365827283,39.58455286491362
pt.ine.add.PTCONT.4395385,R SENHORA DO AMPARO,,2200-212,ABRANTES,-8.211860711101593,39.476934914509414
pt.ine.add.PTCONT.4395386,R JOSE ESTEVÃO,30,2200-420,ABRANTES,-8.198296305645956,39.4631535579207
pt.ine.add.PTCONT.4395387,R MQ POMBAL,41,2200-427,ABRANTES,-8.200342067190242,39.46382792068253
pt.ine.add.PTCONT.4395388,R MQ DE POMBAL,43,2200-427,ABRANTES,-8.200342067190242,39.46382792068253
pt.ine.add.PTCONT.4395389,R COMEND EDUARDO DUARTE FERREIRA,431,2205-697,TRAMAGAL,-8.245893006178754,39.456794199780155
pt.ine.add.PTCONT.4395402,R BELA VISTA,504,2205-660,TRAMAGAL,-8.24186537534048,39.45197926681135
pt.ine.add.PTCONT.4395403,R ALEGRIA,37,2205-659,TRAMAGAL,-8.246896766314455,39.452442819696486
pt.ine.add.PTCONT.4395404,R FERNANDO,3,2205-291,CONCAVADA,-8.056972040708029,39.454617239377335
pt.ine.add.PTCONT.4395405,R CURVAS,2,2205-291,CONCAVADA,-8.05660041533888,39.45446387572203
pt.ine.add.PTCONT.4395406,R GLÓRIA,76,2230-862,CARVALHAL ABT,-8.199063361057085,39.573965596679
pt.ine.add.PTCONT.4395430,URB VALE DE RÃS,,2200-291,ABRANTES,-8.199885356659756,39.47229478789191
pt.ine.add.PTCONT.4395431,URB VALE DE RÃS,,2200-291,ABRANTES,-8.199885356659756,39.47229478789191
pt.ine.add.PTCONT.4395432,URB VALE DE RÃS,,2200-291,ABRANTES,-8.199885356659756,39.47229478789191
pt.ine.add.PTCONT.4395433,R TERRA NOVA,,2205-669,TRAMAGAL,-8.262261939748875,39.44937338265389
pt.ine.add.PTCONT.4395446,R SENHORA DO AMPARO,186,2200-212,ABRANTES,-8.208425865632952,39.47110965055935
pt.ine.add.PTCONT.4395447,URB VALE DE RÃS,,2200-291,ABRANTES,-8.199885356659756,39.47229478789191
pt.ine.add.PTCONT.4395448,URB VALE DE RÃS,,2200-291,ABRANTES,-8.199885356659756,39.47229478789191
pt.ine.add.PTCONT.4395449,URB VALE DE RÃS,,2200-291,ABRANTES,-8.199885356659756,39.47229478789191
pt.ine.add.PTCONT.4395450,URB VALE DE RÃS,,2200-291,ABRANTES,-8.199885356659756,39.47229478789191
pt.ine.add.PTCONT.4395451,URB VALE DE RÃS,,2200-291,ABRANTES,-8.199885356659756,39.47229478789191
pt.ine.add.PTCONT.4395452,URB VALE DE RÃS,,2200-291,ABRANTES,-8.199885356659756,39.47229478789191
pt.ine.add.PTCONT.4395453,URB VALE DE RÃS,,2200-291,ABRANTES,-8.199885356659756,39.47229478789191
pt.ine.add.PTCONT.4395454,R INF D LUIS,81,2200-090,ABRANTES,-8.212928384433582,39.46538718654891
pt.ine.add.PTCONT.4395455,R INF D LUIS,81,2200-090,ABRANTES,-8.212928384433582,39.46538718654891
pt.ine.add.PTCONT.4395456,R INF D LUIS,81,2200-090,ABRANTES,-8.212928384433582,39.46538718654891
pt.ine.add.PTCONT.4395457,R INF D LUIS,81,2200-090,ABRANTES,-8.212928384433582,39.46538718654891
pt.ine.add.PTCONT.4395458,R ENG MANUEL,131,2205-699,TRAMAGAL,-8.25047609576276,39.45299769969983
pt.ine.add.PTCONT.4395459,,,2205-808,VALE DAS MÓS,-8.072810384628252,39.357601810680656
pt.ine.add.PTCONT.4395471,R ESCOLA,,2230-806,SOUTO ABT,-8.23691887294053,39.563264808412875
pt.ine.add.PTCONT.4395472,R DIREITA,,2205-629,TRAMAGAL,-8.268617643522706,39.437819100624594
pt.ine.add.PTCONT.4395481,R D MIGUEL ALMEIDA,56,2200-407,ABRANTES,-8.198632591689242,39.4624147921625
pt.ine.add.PTCONT.4395482,R CANICEIRA,220,2205-661,TRAMAGAL,-8.244843707177948,39.454543451922106
pt.ine.add.PTCONT.4395483,R NSA SRA DE OLIVEIRA,183,2205-679,TRAMAGAL,-8.24311922089501,39.45140163646432
pt.ine.add.PTCONT.4395484,R LARANJEIRAS,,2205-671,TRAMAGAL,-8.247474785871509,39.45067687116431
pt.ine.add.PTCONT.4395491,R CABEÇO,482,2205-686,TRAMAGAL,-8.245748136312674,39.453416698851306
pt.ine.add.PTCONT.4395492,R NSA SRA CONCEIÇÃO,15,2205-677,TRAMAGAL,-8.244618113284458,39.4515082936513
pt.ine.add.PTCONT.4395497,R BOA VISTA,32,2230-801,SOUTO ABT,-8.22556105673764,39.58045048667241
pt.ine.add.PTCONT.4395511,LG S JOSE,130,2230-801,SOUTO ABT,-8.225420570137018,39.57983813252908
pt.ine.add.PTCONT.4395512,R CANICEIRA,177,2205-661,TRAMAGAL,-8.24443746114266,39.45479603873719
pt.ine.add.PTCONT.4395513,R ZEZERE,,2230-837,FONTES ABT,-8.235790467210423,39.618702868079545
pt.ine.add.PTCONT.4395514,ESCNH MIRADOURO,18,2230-836,FONTES ABT,-8.228493131985372,39.60512683280727
pt.ine.add.PTCONT.4395515,R FUNDO DA VINHA,,2230-862,CARVALHAL ABT,-8.191786888536438,39.57106028160579
pt.ine.add.PTCONT.4395523,R BOA VIAGEM,,2230-807,SOUTO ABT,-8.23394592292726,39.57546272341454
pt.ine.add.PTCONT.4395524,R CANICEIRA,57,2205-661,TRAMAGAL,-8.244102168084394,39.455832169183125
pt.ine.add.PTCONT.4395527,R LÍRIOS,200,2200-282,ABRANTES,-8.201093612832185,39.47190678597796
pt.ine.add.PTCONT.4395528,BC MOREIRA,2,2200-119,ABRANTES,-8.210112127623882,39.461633152920456
pt.ine.add.PTCONT.4395529,R CABEÇO,184,2205-686,TRAMAGAL,-8.242576814684456,39.45372596653984
pt.ine.add.PTCONT.4395530,R FORTUNATAS,14,2205-810,VALE DAS MÓS,-8.062662145616015,39.34215775420789
pt.ine.add.PTCONT.4395537,R ACTOR TABORDA,42,2200-372,ABRANTES,-8.198959831297799,39.46441416862655
pt.ine.add.PTCONT.4395538,R MOÇAMBIQUE,,2205-676,TRAMAGAL,-8.244099908227936,39.4544090584494
pt.ine.add.PTCONT.4395539,R CABEÇO,111,2205-686,TRAMAGAL,-8.241681948250502,39.453564678528885
pt.ine.add.PTCONT.4395540,R ZEZERE,360,2230-838,FONTES ABT,-8.24926278672327,39.61053002295223
pt.ine.add.PTCONT.4395547,R FR ANTÓNIO BATISTA ABRANTES,28,2200-269,ABRANTES,-8.20082434722056,39.469871356293886
pt.ine.add.PTCONT.4395548,R FR ANTÓNIO BATISTA ABRANTES,28,2200-269,ABRANTES,-8.20082434722056,39.469871356293886
pt.ine.add.PTCONT.4395549,R FR ANTÓNIO BATISTA ABRANTES,28,2200-269,ABRANTES,-8.20082434722056,39.469871356293886
pt.ine.add.PTCONT.4395550,R FR ANTÓNIO BATISTA ABRANTES,28,2200-269,ABRANTES,-8.20082434722056,39.469871356293886
pt.ine.add.PTCONT.4395551,R FR ANTÓNIO BATISTA ABRANTES,28,2200-269,ABRANTES,-8.20082434722056,39.469871356293886
pt.ine.add.PTCONT.4395552,R FR ANTÓNIO BATISTA ABRANTES,28,2200-269,ABRANTES,-8.20082434722056,39.469871356293886
pt.ine.add.PTCONT.4395553,R FR ANTÓNIO BATISTA ABRANTES,28,2200-269,ABRANTES,-8.20082434722056,39.469871356293886
pt.ine.add.PTCONT.4395554,R FR ANTÓNIO BATISTA ABRANTES,28,2200-269,ABRANTES,-8.20082434722056,39.469871356293886
pt.ine.add.PTCONT.4395555,R FR ANTÓNIO BATISTA ABRANTES,28,2200-269,ABRANTES,-8.20082434722056,39.469871356293886
pt.ine.add.PTCONT.4395556,R FR ANTÓNIO BATISTA ABRANTES,28,2200-269,ABRANTES,-8.20082434722056,39.469871356293886
pt.ine.add.PTCONT.4395557,R FR ANTÓNIO BATISTA ABRANTES,28,2200-269,ABRANTES,-8.20082434722056,39.469871356293886
pt.ine.add.PTCONT.4395558,R FR ANTÓNIO BATISTA ABRANTES,28,2200-269,ABRANTES,-8.20082434722056,39.469871356293886
pt.ine.add.PTCONT.4395559,R BELA VISTA,,2230-807,SOUTO ABT,-8.24068039663539,39.58019428951683
pt.ine.add.PTCONT.4395560,R AMENDOEIRAS,138,2230-807,SOUTO ABT,-8.235796644257144,39.575578191935556
pt.ine.add.PTCONT.4395561,R 6 DE OUTUBRO,20,2205-651,TRAMAGAL,-8.252065925535083,39.451897224726416
pt.ine.add.PTCONT.4395568,R FR ANTÓNIO BATISTA ABRANTES,28,2200-269,ABRANTES,-8.20082434722056,39.469871356293886
pt.ine.add.PTCONT.4395569,R FR ANTÓNIO BATISTA ABRANTES,28,2200-269,ABRANTES,-8.20082434722056,39.469871356293886
pt.ine.add.PTCONT.4395570,R FR ANTÓNIO BATISTA ABRANTES,28,2200-269,ABRANTES,-8.20082434722056,39.469871356293886
pt.ine.add.PTCONT.4395571,R FR ANTÓNIO BATISTA ABRANTES,28,2200-269,ABRANTES,-8.20082434722056,39.469871356293886
pt.ine.add.PTCONT.4395572,R FR ANTÓNIO BATISTA ABRANTES,28,2200-269,ABRANTES,-8.20082434722056,39.469871356293886
pt.ine.add.PTCONT.4395573,R FR ANTÓNIO BATISTA ABRANTES,28,2200-269,ABRANTES,-8.20082434722056,39.469871356293886
pt.ine.add.PTCONT.4395574,R FR ANTÓNIO BATISTA ABRANTES,28,2200-269,ABRANTES,-8.20082434722056,39.469871356293886
pt.ine.add.PTCONT.4395575,R CASAL DA RAINHA,,2230-833,FONTES ABT,-8.256092501993374,39.60734359249764
pt.ine.add.PTCONT.4395576,R CASAL DE BAIXO,,2230-833,FONTES ABT,-8.258708918919478,39.60541333670548
pt.ine.add.PTCONT.4395577,R VALE CARVALHO,20,2230-862,CARVALHAL ABT,-8.190514274569185,39.56611614572023
pt.ine.add.PTCONT.4395780,R GONCALINHA,34,2200-151,ABRANTES,-8.19236728187631,39.48719645267424
pt.ine.add.PTCONT.4395781,R ANTÓNIO CORREIA PIRES,393,2200-251,ABRANTES,-8.187949499815108,39.48633394845507
pt.ine.add.PTCONT.4395782,R JOSE DIAS SIMAO,110,2200-062,ABRANTES,-8.189708441335952,39.476614547068614
pt.ine.add.PTCONT.4395783,CSL ABEGOARIA,,2205-161,BEMPOSTA ABT,-8.183834601457988,39.27779304935916
pt.ine.add.PTCONT.4395784,R NSA SRA DO CARMO,54,2200-793,RIO DE MOINHOS ABT,-8.237793874948627,39.47955351373917
pt.ine.add.PTCONT.4395785,R CALDEIRAS,36,2200-788,RIO DE MOINHOS ABT,-8.236049571741901,39.47894259450915
pt.ine.add.PTCONT.4395786,R 25 ABRIL,36,2205-408,SÃO FACUNDO,-8.106741756709756,39.373034746992296
pt.ine.add.PTCONT.4395788,TV CHOUPOS,104,2200-037,ABRANTES,-8.180002070340855,39.473880733729025
pt.ine.add.PTCONT.4395789,R 13 DE MAIO,32,2205-138,ALVEGA,-8.038376127015557,39.44208377288116
pt.ine.add.PTCONT.4395790,LG CRUZEIRO,108,2205-331,PEGO,-8.150933071177745,39.462053589272266
pt.ine.add.PTCONT.4395791,R ACUDE,,2200-754,RIO DE MOINHOS ABT,-8.237301595049829,39.500152942142144
pt.ine.add.PTCONT.4395792,R CALDEIRAS,8,2200-788,RIO DE MOINHOS ABT,-8.237605904114355,39.47821163875164
pt.ine.add.PTCONT.4395793,R NOGUEIRAS,275,2205-031,ABRANTES,-8.17410182800083,39.44040378332588
pt.ine.add.PTCONT.4395794,R CONFERENCIA,310,2200-108,ABRANTES,-8.19345571593716,39.45541011650797
pt.ine.add.PTCONT.4395795,R GIL VICENTE,,2200-198,ABRANTES,-8.193503537049555,39.45696831034321
pt.ine.add.PTCONT.4395796,TV RIO DAS HORTAS,5,2200-071,ABRANTES,-8.188576038727009,39.470256138274415
pt.ine.add.PTCONT.4395797,CSL FREIRAS,,2200-723,MOURISCAS,-8.11963627335541,39.48662531730746
pt.ine.add.PTCONT.4395798,R ESCOLA,,2200-755,RIO DE MOINHOS ABT,-8.238666344771326,39.50312401178714
pt.ine.add.PTCONT.4395799,R LAGAR,6,2200-794,RIO DE MOINHOS ABT,-8.237361281497428,39.47784257097192
pt.ine.add.PTCONT.4395800,R ROSEIRAL,501,2205-043,ABRANTES,-8.17648341216944,39.44083525890754
pt.ine.add.PTCONT.4395801,R FOSFOREIRA,89,2200-110,ABRANTES,-8.193942923809848,39.45451816511851
pt.ine.add.PTCONT.4395802,R FOSFOREIRA,73,2200-110,ABRANTES,-8.193803329532061,39.45432008301679
pt.ine.add.PTCONT.4395803,R FOSFOREIRA,73,2200-110,ABRANTES,-8.193803329532061,39.45432008301679
pt.ine.add.PTCONT.4395804,AV CRUZEIRO,178,2200-601,ALDEIA DO MATO,-8.273396628860288,39.54438409073878
pt.ine.add.PTCONT.4395805,R CHAO CALDEIRAS,217,2205-336,PEGO,-8.144670384134463,39.46430613909421
pt.ine.add.PTCONT.4395806,R ESTALAGEM,13,2205-349,PEGO,-8.146703293760869,39.461135442882494
pt.ine.add.PTCONT.4395807,R ALÉM DA BARROCA,94,2205-334,PEGO,-8.147040422676692,39.461937029267666
pt.ine.add.PTCONT.4395808,R ESTACAL,265,2205-010,ABRANTES,-8.180007351515066,39.44712082182985
pt.ine.add.PTCONT.4395809,MTE CAMELO DO MEIO,,2205-408,SÃO FACUNDO,-8.150944483630143,39.41569418768444
pt.ine.add.PTCONT.4395810,R VALE DE RÃS,,2200-287,ABRANTES,-8.197529686589542,39.47607906350559
pt.ine.add.PTCONT.4395811,R ANTÓNIO CORREIA PIRES,,2200-251,ABRANTES,-8.18704242503627,39.485793952836204
pt.ine.add.PTCONT.4395812,R 24 DE JULHO,,2205-132,ALVEGA,-8.012122494712107,39.45576816192008
pt.ine.add.PTCONT.4395813,R ROSEIRA,44,2205-343,PEGO,-8.151501987396747,39.46033315654598
pt.ine.add.PTCONT.4395814,CSL SURDO,,2200-726,MOURISCAS,-8.089610611046414,39.488581487103254
pt.ine.add.PTCONT.4395815,R SOBRAL,46,2205-361,PEGO,-8.150050243319793,39.463188607660946
pt.ine.add.PTCONT.4395816,R CONSOLADO,4,2205-041,ABRANTES,-8.191903917921897,39.4476648470173
pt.ine.add.PTCONT.4395817,TV S JOSE,,2205-132,ALVEGA,-8.011880610852328,39.45455195925436
pt.ine.add.PTCONT.4395818,TV BARROCA,101,2205-371,PEGO,-8.149503599872956,39.461036004412584
pt.ine.add.PTCONT.4395819,R AVELAR MACHADO,17,2200-785,RIO DE MOINHOS ABT,-8.243029247659,39.475450493705246
pt.ine.add.PTCONT.4395820,R LAGOA,19,2205-025,ABRANTES,-8.193390693901751,39.44737586009413
pt.ine.add.PTCONT.4395821,R PALMEIRA,,2200-154,ABRANTES,-8.201653714809169,39.48606547467297
pt.ine.add.PTCONT.4395822,R VALE,,2200-601,ALDEIA DO MATO,-8.251395150598878,39.55658588488361
pt.ine.add.PTCONT.4395823,R CAP ANTÓNIO CORREIA PIRES,15,2200-253,ABRANTES,-8.189261389588749,39.48434277552356
pt.ine.add.PTCONT.4395824,R NOVA LISBOA,,2205-141,ALVEGA,-8.02305491576154,39.4488976359443
pt.ine.add.PTCONT.4395825,R PRINCIPAL,3C,2205-411,SÃO FACUNDO,-8.1062889222017,39.40398321142429
pt.ine.add.PTCONT.4395826,R VALONGO,101,2205-570,SÃO MIGUEL DO RIO TORTO,-8.214689417089033,39.43101503933661
pt.ine.add.PTCONT.4395827,TV GONCALINHA,,2200-175,ABRANTES,-8.195307179289028,39.48611407763991
pt.ine.add.PTCONT.4395828,R STA MADALENA,,2200-149,ABRANTES,-8.198374617667282,39.48478836759552
pt.ine.add.PTCONT.4395829,R INDUSTRIA,,2200-153,ABRANTES,-8.194445287180898,39.48414200263101
pt.ine.add.PTCONT.4395830,R INDUSTRIA,333,2200-153,ABRANTES,-8.194141377061475,39.48219665003646
pt.ine.add.PTCONT.4395831,R D DINIS,7,2205-115,ALVEGA,-8.03937006652871,39.46319709960448
pt.ine.add.PTCONT.4395832,R PRINCIPAL,1196,2205-217,BEMPOSTA ABT,-8.089701381082147,39.32360706494775
pt.ine.add.PTCONT.4395833,R PERO FARINHA,565,2200-621,MARTINCHEL,-8.328010264516724,39.52158990332518
pt.ine.add.PTCONT.4395834,ESTR PRINCIPAL,1128,2200-633,MARTINCHEL,-8.324442143426282,39.53086395829839
pt.ine.add.PTCONT.4395835,R CASALINHO,,2200-650,MARTINCHEL,-8.300973405215974,39.517651020518734
pt.ine.add.PTCONT.4395836,R CASAL DA NETA,,2200-685,MOURISCAS,-8.107435909486059,39.50546587249744
pt.ine.add.PTCONT.4395837,R JOÃO JOSE LUIS DAMAS,34,2205-046,ABRANTES,-8.18930245746763,39.44870194451196
pt.ine.add.PTCONT.4395838,ESTR CABRITO,758,2205-009,ABRANTES,-8.18843848181625,39.44329812257721
pt.ine.add.PTCONT.4395839,BC FERRADOR,128,2200-141,ABRANTES,-8.193838032245042,39.4808817861429
pt.ine.add.PTCONT.4395840,R NSA SRA DAS GRAÇAS,153,2200-156,ABRANTES,-8.1979066079648,39.481483059505955
pt.ine.add.PTCONT.4395841,R JOSE DOMINGOS CATROGA,31,2205-042,SÃO MIGUEL DO RIO TORTO,-8.186948470985133,39.439299683815506
pt.ine.add.PTCONT.4395842,R MEIO,25,2205-042,SÃO MIGUEL DO RIO TORTO,-8.188515694856378,39.43811902145489
pt.ine.add.PTCONT.4395843,R ESCOLAS,122,2200-467,ABRANTES,-8.182419308549402,39.506674190423894
pt.ine.add.PTCONT.4395844,R PROF SILVA LEITÃO,3,2205-180,BEMPOSTA ABT,-8.139500653766653,39.3506727014254
pt.ine.add.PTCONT.4395845,LG ESCOLAS NOVAS,118,2205-330,PEGO,-8.152535453504377,39.457928108672604
pt.ine.add.PTCONT.4395846,R NOVA LISBOA,72,2205-066,SÃO MIGUEL DO RIO TORTO,-8.190269098156298,39.43740661425069
pt.ine.add.PTCONT.4395847,R LINHA DO LESTE,,2205-044,SÃO MIGUEL DO RIO TORTO,-8.184085632813336,39.43202325596458
pt.ine.add.PTCONT.4395848,,,2205-204,BEMPOSTA ABT,-8.07494753538418,39.326834230432546
pt.ine.add.PTCONT.4395869,R CANAVERDE,37,2200-049,ABRANTES,-8.177273381781813,39.47770978311639
pt.ine.add.PTCONT.4395849,R GEN AVELAR MACHADO,3,2205-563,SÃO MIGUEL DO RIO TORTO,-8.207345036567236,39.42730003189858
pt.ine.add.PTCONT.4395850,R COMÉRCIO,69,2200-050,ABRANTES,-8.189193557050933,39.472246393742324
pt.ine.add.PTCONT.4395851,R 1 DE MAIO,9,2205-136,ALVEGA,-8.033296791279714,39.452284520219585
pt.ine.add.PTCONT.4395852,R VALE DO ESTEIO,,2200-729,MOURISCAS,-8.10316222279182,39.52078568337382
pt.ine.add.PTCONT.4395853,R CEMITÉRIO,125,2205-352,PEGO,-8.1431821737222,39.45854177379381
pt.ine.add.PTCONT.4395854,BR MUNICIPAL,19,2200-097,ABRANTES,-8.201912605415664,39.45388323014423
pt.ine.add.PTCONT.4395855,R PRINCIPAL,,2205-465,SÃO MIGUEL DO RIO TORTO,-8.171161723654684,39.416824226806156
pt.ine.add.PTCONT.4395856,R 4 BR NOVO,24,2205-557,SÃO MIGUEL DO RIO TORTO,-8.210188638979398,39.425640877901486
pt.ine.add.PTCONT.4395857,R NOVA DO PINHAL,1 A,2205-463,SÃO MIGUEL DO RIO TORTO,-8.166854308250322,39.41834775675498
pt.ine.add.PTCONT.4395858,R PRINCIPAL,,2200-601,ALDEIA DO MATO,-8.252400111946363,39.55230658556184
pt.ine.add.PTCONT.4395859,R ESTACAL,41,2200-471,ABRANTES,-8.177882330242799,39.50298316880759
pt.ine.add.PTCONT.4395860,R COMÉRCIO,69,2200-050,ABRANTES,-8.189193557050933,39.472246393742324
pt.ine.add.PTCONT.4395861,R COMÉRCIO,69,2200-050,ABRANTES,-8.189193557050933,39.472246393742324
pt.ine.add.PTCONT.4395862,R COMÉRCIO,69,2200-050,ABRANTES,-8.189193557050933,39.472246393742324
pt.ine.add.PTCONT.4395863,R COMÉRCIO,69,2200-050,ABRANTES,-8.189193557050933,39.472246393742324
pt.ine.add.PTCONT.4395864,R 1 DE MAIO,11,2205-136,ALVEGA,-8.033610968102575,39.45194252155457
pt.ine.add.PTCONT.4395865,R PRINCIPAL,,2205-504,SÃO MIGUEL DO RIO TORTO,-8.232236202264522,39.37975989563898
pt.ine.add.PTCONT.4395866,R VALE DA VILA,503,2205-505,SÃO MIGUEL DO RIO TORTO,-8.236702581265396,39.37842294513017
pt.ine.add.PTCONT.4395867,LG 25 DE ABRIL,131,2205-456,SÃO MIGUEL DO RIO TORTO,-8.174681902834378,39.419624231351804
pt.ine.add.PTCONT.4395868,LG 25 DE ABRIL,131,2205-456,SÃO MIGUEL DO RIO TORTO,-8.174681902834378,39.419624231351804
pt.ine.add.PTCONT.4395870,R CANAVERDE,16,2200-049,ABRANTES,-8.17711051527074,39.47746665554784
pt.ine.add.PTCONT.4395871,TV LAMEIRA,,2205-374,PEGO,-8.149329107148233,39.46018036024139
pt.ine.add.PTCONT.4395872,TV LAMEIRA,,2205-374,PEGO,-8.14913156798159,39.46014435946893
pt.ine.add.PTCONT.4395873,R DR ANTÓNIO DO ROSÁRIO BANDOS,103,2200-197,ABRANTES,-8.190425600254398,39.45828489610997
pt.ine.add.PTCONT.4395874,R PRINCIPAL,465,2205-504,SÃO MIGUEL DO RIO TORTO,-8.230317297353233,39.37695127946178
pt.ine.add.PTCONT.4395875,R FONTE,,2205-134,ALVEGA,-8.009456186119412,39.45894484260655
pt.ine.add.PTCONT.4395876,R BARCA,485,2205-338,PEGO,-8.153258312132873,39.46651169076471
pt.ine.add.PTCONT.4395877,R VALE DA CEREJEIRA,509,2200-482,ABRANTES,-8.216825271542326,39.50756421045897
pt.ine.add.PTCONT.4395878,R TIAGO DE ABREU,65,2200-286,ABRANTES,-8.201902648875722,39.47917497042701
pt.ine.add.PTCONT.4395879,AV CONDE DE ALFERRAREDE,28,2200-456,ABRANTES,-8.176760640424174,39.47553928659117
pt.ine.add.PTCONT.4395880,R FONTE S JOSE,29,2200-059,ABRANTES,-8.190378806335833,39.47207468270613
pt.ine.add.PTCONT.4395881,R FONTE DE S JOSE,33,2200-059,ABRANTES,-8.190378806335833,39.47207468270613
pt.ine.add.PTCONT.4395882,CSL VENDA,,2200-687,MOURISCAS,-8.099077847936291,39.501869945045755
pt.ine.add.PTCONT.4395883,R VALE DE RÃS,,2200-287,ABRANTES,-8.197529686589542,39.47607906350559
pt.ine.add.PTCONT.4395884,R VALE DE RÃS,,2200-287,ABRANTES,-8.197529686589542,39.47607906350559
pt.ine.add.PTCONT.4395885,R VALE DE RÃS,,2200-287,ABRANTES,-8.197529686589542,39.47607906350559
pt.ine.add.PTCONT.4395886,R VALE DE RÃS,,2200-287,ABRANTES,-8.197529686589542,39.47607906350559
pt.ine.add.PTCONT.4422607,R PRINCIPAL,,2205-504,SÃO MIGUEL DO RIO TORTO,-8.241741260650358,39.38702018445979
pt.ine.add.PTCONT.4397217,R JOÃO AUGUSTO DA SILVA MARTINS,40,2205-574,SÃO MIGUEL DO RIO TORTO,-8.212931202393579,39.4271522194009
pt.ine.add.PTCONT.4397225,R NOVA LISBOA,72,2205-066,SÃO MIGUEL DO RIO TORTO,-8.190269098156298,39.43740661425069
pt.ine.add.PTCONT.4397244,R VALE DE RÃS,,2200-287,ABRANTES,-8.197529686589542,39.47607906350559
pt.ine.add.PTCONT.4397250,LG SOBRAL,3,2205-134,ALVEGA,-8.013232220911306,39.45907489451607
pt.ine.add.PTCONT.4397256,R PALMEIRAS,13,2205-563,SÃO MIGUEL DO RIO TORTO,-8.209516922084605,39.42736167519901
pt.ine.add.PTCONT.4397263,R STA MADALENA,,2200-149,ABRANTES,-8.198374617667282,39.48478836759552
pt.ine.add.PTCONT.4397266,R COMÉRCIO,69,2200-050,ABRANTES,-8.189193557050933,39.472246393742324
pt.ine.add.PTCONT.4397286,URB VALE DE RÃS,,2200-291,ABRANTES,-8.199885356659756,39.47229478789191
pt.ine.add.PTCONT.4397292,AV CONDE DE ALFERRAREDE,26,2200-456,ABRANTES,-8.176853599634972,39.47551223061504
pt.ine.add.PTCONT.4397341,R CABEÇO,711,2200-160,ABRANTES,-8.203088412303622,39.491027473607815
pt.ine.add.PTCONT.4397342,TV GONCALINHA,,2200-175,ABRANTES,-8.195307179289028,39.48611407763991
pt.ine.add.PTCONT.4397354,AV ALJUBARROTA,,2200-001,ABRANTES,-8.231705732436875,39.472839604558374
pt.ine.add.PTCONT.4397370,R PROF SILVA LEITÃO,20,2205-180,BEMPOSTA ABT,-8.140185129996024,39.350663654610244
pt.ine.add.PTCONT.4397372,R INF D LUIS,,2200-090,ABRANTES,-8.211116308319879,39.466009901138065
pt.ine.add.PTCONT.4397378,R OLEIROS,197,2200-167,ABRANTES,-8.204411828166593,39.477894463631266
pt.ine.add.PTCONT.4397379,R OLEIROS,181,2200-167,ABRANTES,-8.204481295646648,39.47763321771445
pt.ine.add.PTCONT.4397401,R BASÍLIO ANTÓNIO CERTA,,2200-460,ABRANTES,-8.179320054408752,39.49698395981586
pt.ine.add.PTCONT.4397411,R SANTO ANTÓNIO,3,2205-110,ALVEGA,-8.047394294397863,39.467409573033116
pt.ine.add.PTCONT.4397412,R ESTAÇÃO,25 A,2205-408,SÃO FACUNDO,-8.136704736819041,39.35063679256619
pt.ine.add.PTCONT.4397413,R FONTE DE SANTO ANTÓNIO,2,2205-117,ALVEGA,-8.04692959042547,39.467310152314475
pt.ine.add.PTCONT.4397462,CSL CASAL DOS ENGRENAIS CIMEIROS,,2200-705,MOURISCAS,-8.086597396114225,39.492408292206655
pt.ine.add.PTCONT.4397480,R FR ANTÓNIO BATISTA ABRANTES,28,2200-269,ABRANTES,-8.20082434722056,39.469871356293886
pt.ine.add.PTCONT.4397484,R FR ANTÓNIO BATISTA ABRANTES,28,2200-269,ABRANTES,-8.20082434722056,39.469871356293886
pt.ine.add.PTCONT.4397562,R ANGOLA,72,2205-674,TRAMAGAL,-8.24336559946663,39.45292359431679
pt.ine.add.PTCONT.4397571,R CONDES DE ABRANTES,3B,2200-384,ABRANTES,-8.197704187658331,39.46369431028273
pt.ine.add.PTCONT.4397572,R VASCO SANTANA,138,2200-085,ABRANTES,-8.208139080884044,39.46377811657012
pt.ine.add.PTCONT.4397573,R VASCO SANTANA,138,2200-085,ABRANTES,-8.208139080884044,39.46377811657012
pt.ine.add.PTCONT.4397574,R VASCO SANTANA,138,2200-085,ABRANTES,-8.208139080884044,39.46377811657012
pt.ine.add.PTCONT.4397575,R VASCO SANTANA,138,2200-085,ABRANTES,-8.208139080884044,39.46377811657012
pt.ine.add.PTCONT.4397576,R VASCO SANTANA,138,2200-085,ABRANTES,-8.208139080884044,39.46377811657012
pt.ine.add.PTCONT.4397577,R VASCO SANTANA,138,2200-085,ABRANTES,-8.208139080884044,39.46377811657012
pt.ine.add.PTCONT.4397578,R VASCO SANTANA,138,2200-085,ABRANTES,-8.208139080884044,39.46377811657012
pt.ine.add.PTCONT.4397579,R VASCO SANTANA,138,2200-085,ABRANTES,-8.208139080884044,39.46377811657012
pt.ine.add.PTCONT.4397580,R VASCO SANTANA,138,2200-085,ABRANTES,-8.208139080884044,39.46377811657012
pt.ine.add.PTCONT.4397581,R VASCO SANTANA ABRANTES,ABRANTES,2200-085,ABRANTES,-8.208139080884044,39.46377811657012
pt.ine.add.PTCONT.4397582,R VASCO SANTANA,138,2200-085,ABRANTES,-8.208139080884044,39.46377811657012
pt.ine.add.PTCONT.4397583,R VASCO SANTANA,138,2200-085,ABRANTES,-8.208139080884044,39.46377811657012
pt.ine.add.PTCONT.4397584,R VASCO SANTANA,138,2200-085,ABRANTES,-8.208139080884044,39.46377811657012
pt.ine.add.PTCONT.4397585,R ESTALAGEM,73,2205-620,TRAMAGAL,-8.269784971149269,39.440763045583296
pt.ine.add.PTCONT.4397586,R VALE BAIRRADA,51,2230-832,FONTES ABT,-8.228475837306913,39.59251729730172
pt.ine.add.PTCONT.4397587,R NSA SRA DA BOA VIAGEM,343,2230-862,CARVALHAL ABT,-8.193048840379895,39.563412803464075
pt.ine.add.PTCONT.4397592,R CONVENTOS,17,2205-819,VALE DAS MÓS,-8.066360660553858,39.34410549335819
pt.ine.add.PTCONT.4397593,R 9 JULHO,2,2205-803,VALE DAS MÓS,-8.07259154496255,39.342289441431426
pt.ine.add.PTCONT.4397609,R HELENA VIEIRA DA SILVA,3,2200-210,ABRANTES,-8.205530665108688,39.46966135911086
pt.ine.add.PTCONT.4397610,R HELENA VIEIRA DA SILVA,3,2200-210,ABRANTES,-8.205530665108688,39.46966135911086
pt.ine.add.PTCONT.4397611,R HELENA VIEIRA DA SILVA,3,2200-210,ABRANTES,-8.205530665108688,39.46966135911086
pt.ine.add.PTCONT.4397612,R HELENA VIEIRA DA SILVA,3,2200-210,ABRANTES,-8.205530665108688,39.46966135911086
pt.ine.add.PTCONT.4397613,R HELENA VIEIRA DA SILVA,3,2200-210,ABRANTES,-8.205530665108688,39.46966135911086
pt.ine.add.PTCONT.4397614,R BELA VISTA,594,2205-660,TRAMAGAL,-8.241480819680293,39.45123204068272
pt.ine.add.PTCONT.4397615,R VALE CABEIRO,,2230-836,FONTES ABT,-8.233398977065438,39.599736626222864
pt.ine.add.PTCONT.4397627,R ANTÓNIO LEAL MOREIRA,203,2200-378,ABRANTES,-8.203048227753522,39.474121353242744
pt.ine.add.PTCONT.4397628,R CURVAS,16,2205-291,CONCAVADA,-8.055334278958098,39.45421083863783
pt.ine.add.PTCONT.4397629,R SERAFINA,,2230-862,CARVALHAL ABT,-8.1995626956209,39.5727944201578
pt.ine.add.PTCONT.4397635,R ESPERANÇA,241,2200-210,ABRANTES,-8.203800470974317,39.47098645595548
pt.ine.add.PTCONT.4397636,R FONTE DO TELHEIRO,6,2205-807,VALE DAS MÓS,-8.068358340771354,39.34145849909143
pt.ine.add.PTCONT.4397642,R FR JOÃO PINTO DA PIEDADE,256,2200-134,ABRANTES,-8.222290728047609,39.462534162049636
pt.ine.add.PTCONT.4397643,R BAIRRO DOS PASSARINHOS,13,2205-658,TRAMAGAL,-8.250630449392395,39.45497008668479
pt.ine.add.PTCONT.4397644,CSL CARVALHAL,,2205-814,VALE DAS MÓS,-8.090700648996338,39.33959528105605
pt.ine.add.PTCONT.4397645,LG CHAO EIRA,27 A,2205-292,CONCAVADA,-8.067837092655855,39.452777399588
pt.ine.add.PTCONT.4397646,LG CHAO EIRA,27 A,2205-292,CONCAVADA,-8.067837092655855,39.452777399588
pt.ine.add.PTCONT.4397652,R BARRO VERMELHO,251,2200-122,ABRANTES,-8.208835415341344,39.462976039341676
pt.ine.add.PTCONT.4397653,R BARRO VERMELHO,251,2200-122,ABRANTES,-8.208835415341344,39.462976039341676
pt.ine.add.PTCONT.4397654,AV 25 DE ABRIL,41,2200-299,ABRANTES,-8.204906318043989,39.4614563425473
pt.ine.add.PTCONT.4397655,AV 25 DE ABRIL,41,2200-299,ABRANTES,-8.204906318043989,39.4614563425473
pt.ine.add.PTCONT.4397656,TV CASAL DO MORGADO,2,2205-815,VALE DAS MÓS,-8.063820124882763,39.3441940808879
pt.ine.add.PTCONT.4397661,EN 118,601,2205-645,TRAMAGAL,-8.242908540976424,39.45041106002311
pt.ine.add.PTCONT.4397684,R MILHEIRICA,,2230-807,SOUTO ABT,-8.233596632756685,39.57537295739788
pt.ine.add.PTCONT.4397685,BC SOARES,32,2230-836,FONTES ABT,-8.229348278064883,39.60044258382509
pt.ine.add.PTCONT.4397686,R COVOES,87,2230-862,CARVALHAL ABT,-8.194868027485844,39.56777117812165
pt.ine.add.PTCONT.4397697,R ALEGRIA,40,2205-659,TRAMAGAL,-8.247013050614218,39.45250575520463
pt.ine.add.PTCONT.4397698,EN 118,2107,2205-645,TRAMAGAL,-8.259084708337216,39.44626042668262
pt.ine.add.PTCONT.4397699,R CAPELA,114,2205-662,TRAMAGAL,-8.246972034334611,39.448722834184245
pt.ine.add.PTCONT.4397700,R SEPRO,,2230-837,FONTES ABT,-8.240931488055969,39.61452806543112
pt.ine.add.PTCONT.4397707,R ANTÓNIO LEAL MOREIRA,,2200-378,ABRANTES,-8.203653178664439,39.474733464895
pt.ine.add.PTCONT.4397708,R DR EDUARDO,116,2205-644,TRAMAGAL,-8.252659940969917,39.452770299255924
pt.ine.add.PTCONT.4397719,EN 118,164,2205-645,TRAMAGAL,-8.240601068177986,39.45332249227451
pt.ine.add.PTCONT.4397720,EN 118,182,2205-645,TRAMAGAL,-8.24062415239448,39.45322339342374
pt.ine.add.PTCONT.4397721,R ANTÓNIO BOTTO,7,2205-264,CONCAVADA,-8.069879937210901,39.45494922660836
pt.ine.add.PTCONT.4397722,R FONTE,,2230-835,FONTES ABT,-8.24577635532117,39.60762425836141
pt.ine.add.PTCONT.4397735,R D MARIANA DE ABREU,,2200-166,ABRANTES,-8.202992065406468,39.476066902154834
pt.ine.add.PTCONT.4397736,R D MARIANA DE ABREU,,2200-166,ABRANTES,-8.202992065406468,39.476066902154834
pt.ine.add.PTCONT.4397737,R CALADAS,,2205-625,TRAMAGAL,-8.269973298371339,39.4420238129861
pt.ine.add.PTCONT.4397738,R CALADAS,187,2205-625,TRAMAGAL,-8.269833531570098,39.4418348290525
pt.ine.add.PTCONT.4397739,R 1 DE MAIO,12,2205-262,CONCAVADA,-8.069624917260935,39.45430058033394
pt.ine.add.PTCONT.4397920,ESTR NECESSIDADES,,2200-808,ABRANTES,-8.146931392140775,39.49815422197199
pt.ine.add.PTCONT.4397916,ESTR FERRARIAS,,2200-709,MOURISCAS,-8.097738533410517,39.50636402358454
pt.ine.add.PTCONT.4397917,R AREEIRO,361,2205-306,PEGO,-8.165790206656807,39.45230474220302
pt.ine.add.PTCONT.4397918,R DIREITA,39,2200-752,RIO DE MOINHOS ABT,-8.268239080567339,39.488348977413985
pt.ine.add.PTCONT.4397919,BC CANTO,65,2200-752,RIO DE MOINHOS ABT,-8.268984181222498,39.48894257045821
pt.ine.add.PTCONT.4397921,R SERRADO,541,2205-306,PEGO,-8.172841125662723,39.45001475582325
pt.ine.add.PTCONT.4397922,R SERRADO,541,2205-306,PEGO,-8.172841125662723,39.45001475582325
pt.ine.add.PTCONT.4397923,R IGREJA,29,2205-408,SÃO FACUNDO,-8.104454156691748,39.37649296003253
pt.ine.add.PTCONT.4397924,R PRINCIPAL,,2205-210,BEMPOSTA ABT,-8.217296240062739,39.26126322353589
pt.ine.add.PTCONT.4397925,TV ESTALAGEM,45,2205-372,PEGO,-8.14644781677468,39.46194610578532
pt.ine.add.PTCONT.4397926,R ESTALAGEM,90,2205-349,PEGO,-8.146110796842743,39.461693946932435
pt.ine.add.PTCONT.4397927,R MORGADOS,,2200-803,RIO DE MOINHOS ABT,-8.238359734179339,39.47713011782977
pt.ine.add.PTCONT.4397928,R CASAL FAZENDA,,2205-411,SÃO FACUNDO,-8.107254083029387,39.39986717180092
pt.ine.add.PTCONT.4397929,R CASAL FAZENDA,,2205-411,SÃO FACUNDO,-8.107254083029387,39.39986717180092
pt.ine.add.PTCONT.4397930,R ALDEIA,66,2200-462,ABRANTES,-8.169184671428754,39.47861327491238
pt.ine.add.PTCONT.4397931,R BAIRRO NOVO,13,2205-175,BEMPOSTA ABT,-8.143329998631444,39.35694144222522
pt.ine.add.PTCONT.4397932,R PRINCIPAL,116A,2200-752,RIO DE MOINHOS ABT,-8.269446708237906,39.49364367563044
pt.ine.add.PTCONT.4397933,R NOGUEIRAS,504,2205-031,ABRANTES,-8.175717546591125,39.442159580916666
pt.ine.add.PTCONT.4397934,R JOSE DIAS SIMAO,195,2200-062,ABRANTES,-8.189579796123574,39.4756238381345
pt.ine.add.PTCONT.4397935,AV ANTÓNIO FARINHA PEREIRA,30 A,2200-024,ABRANTES,-8.190277545435555,39.47614590400311
pt.ine.add.PTCONT.4397936,R NOVA,46,2200-431,ABRANTES,-8.19613493757305,39.463091700099966
pt.ine.add.PTCONT.4397937,R NOVA,48,2200-431,ABRANTES,-8.19613493757305,39.463091700099966
pt.ine.add.PTCONT.4397938,R NOVA,48,2200-431,ABRANTES,-8.19613493757305,39.463091700099966
pt.ine.add.PTCONT.4397939,R EIRA,76,2200-109,ABRANTES,-8.193523458280255,39.45313129838524
pt.ine.add.PTCONT.4397940,R CALDEIREIROS,57,2200-017,ABRANTES,-8.231067355377125,39.47341659310346
pt.ine.add.PTCONT.4397941,R ESCOLA,63,2200-010,ABRANTES,-8.23007050663404,39.47529989457585
pt.ine.add.PTCONT.4397942,EN 3,215,2200-456,ABRANTES,-8.158608310273188,39.4790033765526
pt.ine.add.PTCONT.4397943,EN 3,197,2200-456,ABRANTES,-8.160049317526655,39.47849865907061
pt.ine.add.PTCONT.4397944,R 5 DE OUTUBRO,33B,2205-104,ALVEGA,-8.045978607651481,39.4657782491022
pt.ine.add.PTCONT.4397945,R 5 DE OUTUBRO,9,2205-104,ALVEGA,-8.047326151885924,39.466121517949766
pt.ine.add.PTCONT.4397946,BC PAZ,2,2205-132,ALVEGA,-8.009416197143173,39.45527893491635
pt.ine.add.PTCONT.4397947,CSL TAMAZIM,,2205-409,BEMPOSTA ABT,-8.276565584018309,39.33145313325574
pt.ine.add.PTCONT.4397948,R CASAL DO REI,1080,2200-631,MARTINCHEL,-8.331746621099267,39.51455816696974
pt.ine.add.PTCONT.4397949,R SURDO,,2200-726,MOURISCAS,-8.091040679237008,39.48809563555117
pt.ine.add.PTCONT.4397950,R FRADE,24,2205-355,PEGO,-8.14762108505711,39.460369733737096
pt.ine.add.PTCONT.4397951,R MIGUEL BOMBARDA,,2205-053,ABRANTES,-8.18947595823715,39.44775611959768
pt.ine.add.PTCONT.4397952,AV EGAS MONIZ,,2205-076,ABRANTES,-8.187661676804058,39.44523500804379
pt.ine.add.PTCONT.4397953,AV EGAS MONIZ,,2205-076,ABRANTES,-8.187661676804058,39.44523500804379
pt.ine.add.PTCONT.4397954,AV EGAS MONIZ,,2205-076,ABRANTES,-8.187661676804058,39.44523500804379
pt.ine.add.PTCONT.4397955,AV EGAS MONIZ,,2205-076,ABRANTES,-8.187661676804058,39.44523500804379
pt.ine.add.PTCONT.4397956,R ESTALEIRO,140,2200-111,ABRANTES,-8.194928888647482,39.45269822147805
pt.ine.add.PTCONT.4397957,R ESTALEIRO,140,2200-111,ABRANTES,-8.194928888647482,39.45269822147805
pt.ine.add.PTCONT.4397958,R CALDEIREIROS,30,2200-017,ABRANTES,-8.231008830536908,39.47311941085483
pt.ine.add.PTCONT.4397959,BC VINHA,41,2205-316,PEGO,-8.148761072839969,39.46607103857785
pt.ine.add.PTCONT.4397960,PC BARÃO DA BATALHA,45,2200-365,ABRANTES,-8.198515491311435,39.46145110531524
pt.ine.add.PTCONT.4398002,R VALE DA VILA,771,2205-505,SÃO MIGUEL DO RIO TORTO,-8.238666755986392,39.38026764806131
pt.ine.add.PTCONT.4397961,R GONCALINHA,1234,2200-151,ABRANTES,-8.196097563369642,39.48607762418364
pt.ine.add.PTCONT.4397962,R COR VIRGILIO PINTO DA SILVA,5,2200-254,ABRANTES,-8.188482409284871,39.484081946061536
pt.ine.add.PTCONT.4397963,R VELHA DA LAGOA,394,2200-633,MARTINCHEL,-8.326197552379305,39.53053680662799
pt.ine.add.PTCONT.4397964,EN 118,1084,2205-325,PEGO,-8.152211157936998,39.461729133055755
pt.ine.add.PTCONT.4397965,EN 118,1084,2205-325,PEGO,-8.152211157936998,39.461729133055755
pt.ine.add.PTCONT.4397966,ESTR CABRITO,,2205-009,ABRANTES,-8.18710034112681,39.440416490078086
pt.ine.add.PTCONT.4397967,R VAZ,4,2205-401,SÃO FACUNDO,-8.06560546505042,39.417630512840084
pt.ine.add.PTCONT.4397968,R CABECO,85,2200-628,MARTINCHEL,-8.309952163106479,39.522690601089494
pt.ine.add.PTCONT.4397969,BC PAZ,,2200-705,MOURISCAS,-8.085285204048345,39.4903451592145
pt.ine.add.PTCONT.4397970,R PROF RAIMUNDO MOTA,5,2200-171,ABRANTES,-8.195498151898471,39.478692204459634
pt.ine.add.PTCONT.4397971,R PROF RAIMUNDO MOTA,5,2200-171,ABRANTES,-8.195498151898471,39.478692204459634
pt.ine.add.PTCONT.4397972,R HENRIQUE AUGUSTO SILVA MARTINS,,2205-002,SÃO MIGUEL DO RIO TORTO,-8.192349913789997,39.439306065285585
pt.ine.add.PTCONT.4397973,R OUTEIRO,,2200-601,ALDEIA DO MATO,-8.252252988663692,39.55472058306671
pt.ine.add.PTCONT.4397974,R ESCOLAS,108,2200-467,ABRANTES,-8.182372278234817,39.505935639088484
pt.ine.add.PTCONT.4397975,R CIRCULAR DA IGREJA,,2200-715,MOURISCAS,-8.083111867238618,39.53839634564165
pt.ine.add.PTCONT.4397976,BC CORREIOS DA EIRA,,2200-715,MOURISCAS,-8.082717345946842,39.53703613067981
pt.ine.add.PTCONT.4397977,R CARRIL,,2200-679,MOURISCAS,-8.106704533127234,39.50249340833485
pt.ine.add.PTCONT.4397978,R BARCA,23,2200-386,,-8.195982978725718,39.462092001552236
pt.ine.add.PTCONT.4397979,AV DR SOLANO DE ABREU,28,2200-302,ABRANTES,-8.200660933464013,39.45710848602038
pt.ine.add.PTCONT.4397980,BR MUNICIPAL,24,2200-097,ABRANTES,-8.200660933464013,39.45710848602038
pt.ine.add.PTCONT.4397981,AV DR SOLANO DE ABREU,28,2200-302,ABRANTES,-8.200660933464013,39.45710848602038
pt.ine.add.PTCONT.4397982,BC LAGAR,,2205-459,SÃO MIGUEL DO RIO TORTO,-8.171057330503334,39.4170404314463
pt.ine.add.PTCONT.4397983,R OUTEIRO,,2205-176,BEMPOSTA ABT,-8.13834039270953,39.348925360543625
pt.ine.add.PTCONT.4397984,,,2205-204,BEMPOSTA ABT,-8.076790793533682,39.327735861248335
pt.ine.add.PTCONT.4397985,R CIRCULAR DA IGREJA,,2200-715,MOURISCAS,-8.083322268736156,39.536973342909036
pt.ine.add.PTCONT.4397986,CSL FUNDEIRO,,2200-696,,-8.112413759979908,39.50043196746873
pt.ine.add.PTCONT.4397987,R PRINCIPAL,20,2205-411,SÃO FACUNDO,-8.10410540756809,39.40593723363155
pt.ine.add.PTCONT.4397988,R ESCOLA,7,2205-403,SÃO FACUNDO,-8.031843662064754,39.38867513841871
pt.ine.add.PTCONT.4397989,AV DR SOLANO DE ABREU,28,2200-302,ABRANTES,-8.200660933464013,39.45710848602038
pt.ine.add.PTCONT.4397990,R PRINCIPAL,55,2205-465,SÃO MIGUEL DO RIO TORTO,-8.17012789409082,39.4161850558187
pt.ine.add.PTCONT.4397991,R CANTO DAS FROIAS,34,2205-557,SÃO MIGUEL DO RIO TORTO,-8.210688807787522,39.42634309846889
pt.ine.add.PTCONT.4397992,R ALDEIA,5,2200-462,ABRANTES,-8.167417856658501,39.47822650817456
pt.ine.add.PTCONT.4397993,AV SA DA BANDEIRA,9,2205-136,ALVEGA,-8.031761251714844,39.4536252424031
pt.ine.add.PTCONT.4397994,R SECADOR,23,2205-177,BEMPOSTA ABT,-8.140672307156239,39.3499430471973
pt.ine.add.PTCONT.4397995,R IGREJA,387,2200-638,MARTINCHEL,-8.31023364334351,39.537353441993716
pt.ine.add.PTCONT.4397996,R ROSEIRA,204,2205-343,PEGO,-8.153093533008533,39.45919800695639
pt.ine.add.PTCONT.4397997,R PRINCIPAL,,2200-601,ALDEIA DO MATO,-8.250211180742136,39.55136308778968
pt.ine.add.PTCONT.4397998,R FUNDO,5,2200-472,ABRANTES,-8.177277987213746,39.50336169277917
pt.ine.add.PTCONT.4397999,R AZINHEIRA,,2200-725,MOURISCAS,-8.099385552790956,39.51471396535733
pt.ine.add.PTCONT.4398001,R SOSSEGO,18,2205-573,SÃO MIGUEL DO RIO TORTO,-8.213769048698445,39.428574761279954
pt.ine.add.PTCONT.4398003,TV C DO CANTO DOS NETOS,23,2205-508,SÃO MIGUEL DO RIO TORTO,-8.225579154159036,39.37464930616004
pt.ine.add.PTCONT.4398004,R PAI NETO,7,2205-464,SÃO MIGUEL DO RIO TORTO,-8.166515752538427,39.4145918910062
pt.ine.add.PTCONT.4398005,R CHARAIS,,2200-601,ALDEIA DO MATO,-8.243360529100896,39.50860489681115
pt.ine.add.PTCONT.4398006,R AZINHEIRA,,2200-725,MOURISCAS,-8.097245868471688,39.51477637369186
pt.ine.add.PTCONT.4398007,CANTO DOS CHATOS,8,2205-455,,-8.171592085549605,39.41811210124992
pt.ine.add.PTCONT.4398008,R PINHAL,,2200-022,ABRANTES,-8.219167170023566,39.49260191494152
pt.ine.add.PTCONT.4398009,R SANTO ALFREDO,51,2200-157,ABRANTES,-8.198896531824943,39.48357212840306
pt.ine.add.PTCONT.4398010,AV CONDE DE ALFERRAREDE,31,2200-456,ABRANTES,-8.177550937562689,39.475538987245166
pt.ine.add.PTCONT.4398011,R BAIRRO NOVO,194,2205-409,BEMPOSTA ABT,-8.22340917086907,39.365796955765
pt.ine.add.PTCONT.4398012,R BAIRRO NOVO,224,2205-409,BEMPOSTA ABT,-8.223316676553946,39.366058235811444
pt.ine.add.PTCONT.4398013,R COVAS,5,2205-348,PEGO,-8.152572774357633,39.46677301136195
pt.ine.add.PTCONT.4398014,TV ARCO,,2200-509,ABRANTES,-8.191387716689048,39.52517932618565
pt.ine.add.PTCONT.4398015,R CENTRAL,3,2205-134,ALVEGA,-8.010217828730884,39.46191797131789
pt.ine.add.PTCONT.4398016,R CIMO VALE,185,2205-161,BEMPOSTA ABT,-8.201715853643018,39.27676605964814
pt.ine.add.PTCONT.4398017,R VINHA,281,2205-347,PEGO,-8.149469989567706,39.46636817297782
pt.ine.add.PTCONT.4398018,R MOINHO DE VENTO,321,2205-357,PEGO,-8.154753974466342,39.45558588543132
pt.ine.add.PTCONT.4398019,R MOINHO DE VENTO,297,2205-357,PEGO,-8.154544879287364,39.45572102984773
pt.ine.add.PTCONT.4398020,R MOINHO DE VENTO,193,2205-357,PEGO,-8.153545795494338,39.45615354788705
pt.ine.add.PTCONT.4399440,R COVOES,,2205-116,ALVEGA,-8.034024672275658,39.46334578782573
pt.ine.add.PTCONT.4399283,R NSA SRA DA ASSUNÇAO,1140,2230-836,FONTES ABT,-8.226874751418531,39.60519119781823
pt.ine.add.PTCONT.4399293,QTA ÁLVARO GIL,,2200-000,,-8.187564415751483,39.51421072006311
pt.ine.add.PTCONT.4399313,R FONTE,145,2200-601,ALDEIA DO MATO,-8.278564024264032,39.55654605189066
pt.ine.add.PTCONT.4399320,ESTR GAIO,,2200-073,ABRANTES,-8.163385985723062,39.480821646371375
pt.ine.add.PTCONT.4399321,R 4 BR NOVO,8,2205-557,SÃO MIGUEL DO RIO TORTO,-8.209758211156501,39.42498364462405
pt.ine.add.PTCONT.4399361,HRD HERDADE CANICEIRA TRAMAGAL,,2200-697,MOURISCAS,-8.254685673079388,39.408381303907014
pt.ine.add.PTCONT.4399383,R VASCO SANTANA,138,2200-085,ABRANTES,-8.208139080884044,39.46377811657012
pt.ine.add.PTCONT.4399384,R S JOSE,1,2205-270,CONCAVADA,-8.07020950466556,39.450229711226505
pt.ine.add.PTCONT.4399389,R ESCOLAS,56,2200-467,ABRANTES,-8.180463872473142,39.50363064795355
pt.ine.add.PTCONT.4399415,R COVAS DA RAPOSA,15,2200-075,ABRANTES,-8.168079430645683,39.47641590167017
pt.ine.add.PTCONT.4399420,R DR MANUEL DE ARRIAGA,79,2230-862,CARVALHAL ABT,-8.199572871760665,39.57126324744438
pt.ine.add.PTCONT.4399426,R 10 DE JUNHO,,2205-201,BEMPOSTA ABT,-8.086797991304259,39.3299470470051
pt.ine.add.PTCONT.4399433,URB NOVA DO PINHAL,,2205-456,SÃO MIGUEL DO RIO TORTO,-8.167516465168813,39.418842953474496
pt.ine.add.PTCONT.4399439,R BARCA,23,2200-386,,-8.195982978725718,39.462092001552236
pt.ine.add.PTCONT.4399442,R PROF D LEONOR TELES,46,2205-712,TRAMAGAL,-8.249333044807472,39.45031474706273
pt.ine.add.PTCONT.4399446,R STA CATARINA,423,2200-228,ABRANTES,-8.207794737133591,39.478630914907356
pt.ine.add.PTCONT.4399448,R HELENA VIEIRA DA SILVA,3,2200-210,ABRANTES,-8.205530665108688,39.46966135911086
pt.ine.add.PTCONT.4399449,R HELENA VIEIRA DA SILVA,3,2200-210,ABRANTES,-8.205530665108688,39.46966135911086
pt.ine.add.PTCONT.4399450,R HELENA VIEIRA DA SILVA,3,2200-210,ABRANTES,-8.205530665108688,39.46966135911086
pt.ine.add.PTCONT.4399451,R 10 DE JUNHO,10,2205-201,BEMPOSTA ABT,-8.086704952291251,39.33033432128853
pt.ine.add.PTCONT.4399452,TV S LOURENÇO,107,2200-177,ABRANTES,-8.205287250646318,39.481514740499726
pt.ine.add.PTCONT.4399469,R BASÍLIO ANTÓNIO CERTA,30,2200-460,ABRANTES,-8.178179432367584,39.49494882941803
pt.ine.add.PTCONT.4399470,R BASÍLIO ANTÓNIO CERTA,,2200-460,ABRANTES,-8.17999531265703,39.498433813282574
pt.ine.add.PTCONT.4399471,R BASÍLIO ANTÓNIO CERTA,,2200-460,ABRANTES,-8.17837782102888,39.49611966021225
pt.ine.add.PTCONT.4399480,BC SANTO ANTÓNIO,6,2205-131,ALVEGA,-8.01071775114111,39.45512719213569
pt.ine.add.PTCONT.4399481,R SANTO ANTÓNIO,8,2205-110,ALVEGA,-8.047243458349806,39.46722031421729
pt.ine.add.PTCONT.4399482,R SANTO ANTÓNIO,136,2205-136,ALVEGA,-8.030193144813184,39.45337166810303
pt.ine.add.PTCONT.4399554,R ROSEIRA GRANDE,100,2205-344,PEGO,-8.154115758080836,39.458288115648514
pt.ine.add.PTCONT.4399564,R VALE DE FERREIROS,24,2205-366,PEGO,-8.15188626316518,39.46343151562418
pt.ine.add.PTCONT.4399583,R NSA SRA DE OLIVEIRA,36,2205-679,TRAMAGAL,-8.243864612827037,39.45256283829379
pt.ine.add.PTCONT.4399584,R OUTEIRINHO,36,2230-832,FONTES ABT,-8.234405124879146,39.59508823270056
pt.ine.add.PTCONT.4399585,ESTR SOBREIRA GRANDE,95,2230-865,CARVALHAL ABT,-8.208756774857884,39.583380859716655
pt.ine.add.PTCONT.4410122,R FONTE,,2230-835,FONTES ABT,-8.245823544874424,39.60800249845619
pt.ine.add.PTCONT.4399599,R COMEND EDUARDO DUARTE FERREIRA,317,2205-697,TRAMAGAL,-8.246452202311897,39.45771237425356
pt.ine.add.PTCONT.4399600,R FLORES,52,2205-670,TRAMAGAL,-8.247849514245454,39.45247791186497
pt.ine.add.PTCONT.4399601,BC GOUVEIA,1,2205-257,CONCAVADA,-8.072278743539888,39.44877166899781
pt.ine.add.PTCONT.4399619,URB SEIXO,2,2200-216,ABRANTES,-8.204059303917006,39.47410272672633
pt.ine.add.PTCONT.4399620,R CASCALHOS,66,2205-694,TRAMAGAL,-8.247619910235855,39.454162455790055
pt.ine.add.PTCONT.4399632,R 5 DE OUTUBRO,99,2205-650,TRAMAGAL,-8.24008724369328,39.45161162691503
pt.ine.add.PTCONT.4399633,R MERCADO,177,2205-691,TRAMAGAL,-8.250878151667566,39.450277164600955
pt.ine.add.PTCONT.4399634,R GLÓRIA,15,2230-862,CARVALHAL ABT,-8.198388213802511,39.573839881831816
pt.ine.add.PTCONT.4399659,R BOA VISTA,95,2230-801,SOUTO ABT,-8.225945965616663,39.58105363872022
pt.ine.add.PTCONT.4399660,R CONVENTOS,26,2205-819,VALE DAS MÓS,-8.066059321785511,39.343826096392924
pt.ine.add.PTCONT.4399669,R D DIOGO FERNANDES DE ALMEIDA,,2200-405,ABRANTES,-8.200767088043397,39.470745070763776
pt.ine.add.PTCONT.4399670,R QUINTA NOVA,,2230-801,SOUTO ABT,-8.224419439425711,39.579730841272
pt.ine.add.PTCONT.4399685,R TUNA,34,2205-694,TRAMAGAL,-8.247282269231823,39.453730449562016
pt.ine.add.PTCONT.4399686,R CANICEIRA,209,2205-661,TRAMAGAL,-8.24465778232836,39.45452561630433
pt.ine.add.PTCONT.4399687,R CABEÇO DO MOINHO DE VENTO,119,2205-716,TRAMAGAL,-8.24601978895979,39.44896695294409
pt.ine.add.PTCONT.4399688,R CABEÇO DO MOINHO DE VENTO,138,2205-716,TRAMAGAL,-8.246182187411158,39.44881367527297
pt.ine.add.PTCONT.4399697,R FONTE NOVA,82,2205-663,TRAMAGAL,-8.247536841236604,39.45309970615378
pt.ine.add.PTCONT.4399698,AV MIRA ZEZERE,833,2230-862,CARVALHAL ABT,-8.200817162974053,39.57026276703268
pt.ine.add.PTCONT.4399717,EN 118,1627,2205-645,TRAMAGAL,-8.254057749597642,39.44814823727709
pt.ine.add.PTCONT.4399725,R ANTÓNIO BOTTO,17,2205-264,CONCAVADA,-8.07005399665781,39.455192511344165
pt.ine.add.PTCONT.4399731,R FRANCISCO FERREIRA DA MATA,,2200-223,ABRANTES,-8.198638910256438,39.46915204643879
pt.ine.add.PTCONT.4399732,R LUIS DE CAMÕES,46,2205-704,TRAMAGAL,-8.245865520960276,39.44695852942306
pt.ine.add.PTCONT.4399895,AV ANTÓNIO FARINHA PEREIRA,34,2200-024,ABRANTES,-8.18886257380081,39.479812444317595
pt.ine.add.PTCONT.4399896,AV ANTÓNIO FARINHA PEREIRA,34,2200-024,ABRANTES,-8.18886257380081,39.479812444317595
pt.ine.add.PTCONT.4399897,R CONCAVADA,31,2200-077,ABRANTES,-8.170938438997137,39.476333943619316
pt.ine.add.PTCONT.4399898,R PADARIA,28,2205-161,BEMPOSTA ABT,-8.200924929223493,39.27379410576995
pt.ine.add.PTCONT.4399899,ESTR SERRA,230,2200-630,MARTINCHEL,-8.317217591631728,39.51265459670818
pt.ine.add.PTCONT.4399900,R AZINHAGA DO VALANCHO,,2200-650,MARTINCHEL,-8.298994260127776,39.526498672187714
pt.ine.add.PTCONT.4399901,CSL IGREJA,,2200-684,MOURISCAS,-8.093684474696529,39.49960749049026
pt.ine.add.PTCONT.4399902,R COVAS,85,2205-348,PEGO,-8.150178351184119,39.464368510300226
pt.ine.add.PTCONT.4399903,R SERRADO,509,2205-306,PEGO,-8.17265522091489,39.44997879096476
pt.ine.add.PTCONT.4399904,R CALDEIRAS,18,2200-788,RIO DE MOINHOS ABT,-8.237083443853722,39.478581394394354
pt.ine.add.PTCONT.4399905,AV EGAS MONIZ,1-2,2205-076,ABRANTES,-8.187790125684844,39.44608161144228
pt.ine.add.PTCONT.4399906,AV EGAS MONIZ,1-2,2205-076,ABRANTES,-8.187790125684844,39.44608161144228
pt.ine.add.PTCONT.4399907,R RIO DAS HORTAS,3,2200-065,ABRANTES,-8.18872754376217,39.47079648724182
pt.ine.add.PTCONT.4399908,R JOSE BARATA,42,2205-161,BEMPOSTA ABT,-8.200214458416953,39.27005647539609
pt.ine.add.PTCONT.4399910,R FONTE DO RIBEIRO,43,2205-364,PEGO,-8.14822586005223,39.46296368325845
pt.ine.add.PTCONT.4399911,R PRINCIPAL DO BRACAL,,2200-754,RIO DE MOINHOS ABT,-8.237614380182611,39.49940508252933
pt.ine.add.PTCONT.4399912,TV CABEÇO DO VALE DO PISAO,,2200-751,RIO DE MOINHOS ABT,-8.228545501705861,39.4904599394154
pt.ine.add.PTCONT.4399913,R FONTE,8,2200-752,RIO DE MOINHOS ABT,-8.26728569497161,39.48824199757561
pt.ine.add.PTCONT.4399914,R DIREITA,2,2200-752,RIO DE MOINHOS ABT,-8.267643941964021,39.487151737662074
pt.ine.add.PTCONT.4399915,R BARTOLOMEU DIAS,56,2200-151,ABRANTES,-8.19122736955888,39.48627831433128
pt.ine.add.PTCONT.4399916,R BARTOLOMEU DIAS,56,2200-151,ABRANTES,-8.19122736955888,39.48627831433128
pt.ine.add.PTCONT.4399917,R BARTOLOMEU DIAS,56 B 10,2200-151,ABRANTES,-8.19122736955888,39.48627831433128
pt.ine.add.PTCONT.4399918,R BARTOLOMEU DIAS,56,2200-151,ABRANTES,-8.19122736955888,39.48627831433128
pt.ine.add.PTCONT.4399919,R BARTOLOMEU DIAS,56,2200-151,ABRANTES,-8.19122736955888,39.48627831433128
pt.ine.add.PTCONT.4399920,QTA BOM SUCESSO,,2200-484,ABRANTES,-8.170546772013127,39.48283713052867
pt.ine.add.PTCONT.4399921,R 5 DE OUTUBRO,79,2205-104,ALVEGA,-8.040228949259506,39.46394537231817
pt.ine.add.PTCONT.4399922,CSL IGREJA,,2200-684,MOURISCAS,-8.094380046687156,39.50319250015197
pt.ine.add.PTCONT.4399923,CSL ALDEIAS,,2200-687,MOURISCAS,-8.100034004788768,39.49597965699244
pt.ine.add.PTCONT.4399924,R PRINCIPAL DO ARCO,,2200-753,RIO DE MOINHOS ABT,-8.23509623292476,39.494660640675974
pt.ine.add.PTCONT.4399925,R FONTE DO ARNEIRO,1,2205-408,SÃO FACUNDO,-8.109527564190252,39.37123390972242
pt.ine.add.PTCONT.4399926,R BARCA,257,2200-386,,-8.194842203630103,39.459786811260145
pt.ine.add.PTCONT.4399927,R NOVA,,2205-210,BEMPOSTA ABT,-8.221811585936527,39.25855766755219
pt.ine.add.PTCONT.4399928,CASAL DO POCARRAO,,2200-721,MOURISCAS,-8.088585114752876,39.49260722405831
pt.ine.add.PTCONT.4399929,R 18 DE MAIO,793,2205-076,ABRANTES,-8.185828286301644,39.44801002778047
pt.ine.add.PTCONT.4399930,ESTR CABRITO,991,2205-009,ABRANTES,-8.18947386696715,39.44516208747387
pt.ine.add.PTCONT.4399931,AV ANTERO DE QUENTAL,,2200-220,ABRANTES,-8.196273489420832,39.47496288287369
pt.ine.add.PTCONT.4399932,AV ANTERO DE QUENTAL,,2200-220,ABRANTES,-8.196273489420832,39.47496288287369
pt.ine.add.PTCONT.4399933,CSL MANSAS,,2200-477,ABRANTES,-8.132689849500737,39.49074229358758
pt.ine.add.PTCONT.4399934,R DR DAVID SERRAS PEREIRA,34,2200-256,ABRANTES,-8.191245022572426,39.479559081402726
pt.ine.add.PTCONT.4399935,CSL VARES,,2200-695,MOURISCAS,-8.107876071002423,39.51006852794145
pt.ine.add.PTCONT.4399936,ESTR CABRITO,955,2205-009,ABRANTES,-8.18947386696715,39.44516208747387
pt.ine.add.PTCONT.4399937,TV VALE DE RÃS,45,2200-290,ABRANTES,-8.198187119605723,39.47068349401544
pt.ine.add.PTCONT.4399938,R LAGAR,,2200-601,ALDEIA DO MATO,-8.272191357941226,39.56417367155924
pt.ine.add.PTCONT.4399939,CSL SURDO,,2200-726,MOURISCAS,-8.090110245864645,39.48891493171846
pt.ine.add.PTCONT.4399940,R PINHEIRAS PIRES,187,2205-064,ABRANTES,-8.180917376449056,39.43579856747159
pt.ine.add.PTCONT.4399941,R ESCOLA,279,2200-010,ABRANTES,-8.229720589403803,39.474390477420535
pt.ine.add.PTCONT.4399942,R FONTES,,2200-601,ALDEIA DO MATO,-8.288611428311233,39.52793611939735
pt.ine.add.PTCONT.4399943,R PRINCIPAL,1027,2205-217,BEMPOSTA ABT,-8.089992219868897,39.32211196924467
pt.ine.add.PTCONT.4399944,R PRINCIPAL,198,2200-630,MARTINCHEL,-8.318673050138145,39.51338184550178
pt.ine.add.PTCONT.4399945,TV BARROCA,21,2205-371,PEGO,-8.148678585676398,39.4609370403767
pt.ine.add.PTCONT.4399946,R AVELAR MACHADO,40,2200-785,RIO DE MOINHOS ABT,-8.242831461687963,39.475315575309224
pt.ine.add.PTCONT.4399947,R CASCALHO,18,2205-401,SÃO FACUNDO,-8.065349748306273,39.41788256308292
pt.ine.add.PTCONT.4399948,R VALONGO,38,2205-570,SÃO MIGUEL DO RIO TORTO,-8.2133987896762,39.42979097396686
pt.ine.add.PTCONT.4399949,R VALE MORENAS,145,2200-173,ABRANTES,-8.196668062713554,39.48710411139558
pt.ine.add.PTCONT.4399950,TV OLEIROS,30,2200-180,ABRANTES,-8.203440898260801,39.483209188508916
pt.ine.add.PTCONT.4399951,R OLEIROS,1008,2200-167,ABRANTES,-8.205837284393555,39.48511719846464
pt.ine.add.PTCONT.4399952,R 5 DE OUTUBRO,52,2205-104,ALVEGA,-8.043342354618215,39.46455128816495
pt.ine.add.PTCONT.4399953,LG CRUZEIRO,35,2205-331,PEGO,-8.151676741653553,39.46207148698717
pt.ine.add.PTCONT.4399954,R CIMO DA ALDEIA,178,2205-337,PEGO,-8.14836451654545,39.45937886425065
pt.ine.add.PTCONT.4399955,R LUIS DE CAMÕES,9,2200-421,ABRANTES,-8.199328620624621,39.46118944112052
pt.ine.add.PTCONT.4399956,R LUIS DE CAMÕES,9,2200-421,ABRANTES,-8.199328620624621,39.46118944112052
pt.ine.add.PTCONT.4399957,R LUIS DE CAMÕES,9,2200-421,ABRANTES,-8.199328620624621,39.46118944112052
pt.ine.add.PTCONT.4399958,R LUIS DE CAMÕES,9,2200-421,ABRANTES,-8.199328620624621,39.46118944112052
pt.ine.add.PTCONT.4399959,R LUIS DE CAMÕES,9,2200-421,ABRANTES,-8.199328620624621,39.46118944112052
pt.ine.add.PTCONT.4399960,R LUIS DE CAMÕES,9,2200-421,ABRANTES,-8.199328620624621,39.46118944112052
pt.ine.add.PTCONT.4399961,R LUIS DE CAMÕES,9,2200-421,ABRANTES,-8.199328620624621,39.46118944112052
pt.ine.add.PTCONT.4399962,R LUIS DE CAMÕES,9,2200-421,ABRANTES,-8.199328620624621,39.46118944112052
pt.ine.add.PTCONT.4399963,R LUIS DE CAMÕES,9,2200-421,ABRANTES,-8.199328620624621,39.46118944112052
pt.ine.add.PTCONT.4399964,R IGREJA,6,2200-464,ABRANTES,-8.177720588852083,39.50459547874783
pt.ine.add.PTCONT.4399965,R DIU,13,2200-045,ABRANTES,-8.191739792212422,39.473596190613655
pt.ine.add.PTCONT.4399966,TV TAPADA,5 A,2205-182,BEMPOSTA ABT,-8.139709551881458,39.35146532410858
pt.ine.add.PTCONT.4399967,R PRINCIPAL,576,2205-217,BEMPOSTA ABT,-8.08932206636452,39.318184555517675
pt.ine.add.PTCONT.4399968,BC PAZ,,2200-705,MOURISCAS,-8.085099076080647,39.49054323632496
pt.ine.add.PTCONT.4399969,R CIMO DA ALDEIA,7,2205-337,PEGO,-8.146842651358945,39.46073911684483
pt.ine.add.PTCONT.4399970,R D DINIS,10,2205-115,ALVEGA,-8.03868526834612,39.46262009555502
pt.ine.add.PTCONT.4399971,EN 118,,2205-325,PEGO,-8.158461725310055,39.45940412252307
pt.ine.add.PTCONT.4399972,R 25 DE ABRIL,18,2205-136,ALVEGA,-8.029970429903866,39.454704513586535
pt.ine.add.PTCONT.4399973,R VALE PEREIRO,140,2205-362,PEGO,-8.144309721947595,39.461577042871326
pt.ine.add.PTCONT.4399974,AV JOÃO AUGUSTO DA SILVA MARTINS,157,2205-471,SÃO MIGUEL DO RIO TORTO,-8.18906739435426,39.43079600280776
pt.ine.add.PTCONT.4399975,R MUROS BRANCOS,,2205-065,SÃO MIGUEL DO RIO TORTO,-8.173374137427345,39.42739781482205
pt.ine.add.PTCONT.4399976,R ESTRADA VELHA,,2205-341,PEGO,-8.147829905849694,39.458802482547775
pt.ine.add.PTCONT.4399977,R COMBATENTES GRANDE GUERRA,70,2205-408,SÃO FACUNDO,-8.104733332313982,39.37490776651983
pt.ine.add.PTCONT.4399978,R COMBATENTES GKANDE GUERRA,82,2205-408,SÃO FACUNDO,-8.104559421320893,39.37449339409185
pt.ine.add.PTCONT.4399979,R PRINCIPAL,61,2205-465,SÃO MIGUEL DO RIO TORTO,-8.170801631967255,39.41661718059409
pt.ine.add.PTCONT.4399980,R CABEÇO MAIA,20,2205-571,SÃO MIGUEL DO RIO TORTO,-8.212826235402277,39.42676498655732
pt.ine.add.PTCONT.4399981,R PRINCIPAL,,2205-504,SÃO MIGUEL DO RIO TORTO,-8.230213383182505,39.37733867433591
pt.ine.add.PTCONT.4399982,R DOA MOINHOS,,2205-138,ALVEGA,-8.036610583535488,39.45038682921212
pt.ine.add.PTCONT.4399983,BR MUNICIPAL,12,2200-097,ABRANTES,-8.201564326560378,39.4541626541261
pt.ine.add.PTCONT.4399984,R PADRE,,2205-573,SÃO MIGUEL DO RIO TORTO,-8.2136640230698,39.4281424938951
pt.ine.add.PTCONT.4399985,R PADRE,,2205-573,SÃO MIGUEL DO RIO TORTO,-8.21372220788715,39.42824153154432
pt.ine.add.PTCONT.4399986,R VALE DA VILA,869,2205-505,SÃO MIGUEL DO RIO TORTO,-8.2395264206243,39.38079828746712
pt.ine.add.PTCONT.4399987,R NOVA DO PINHAL,232,2205-463,SÃO MIGUEL DO RIO TORTO,-8.16775967862946,39.417527844108925
pt.ine.add.PTCONT.4399988,AV D MANUEL I,,2200-200,ABRANTES,-8.194411642710525,39.47229780219859
pt.ine.add.PTCONT.4399989,AV D MANUEL I,,2200-200,ABRANTES,-8.194411642710525,39.47229780219859
pt.ine.add.PTCONT.4399990,AV D MANUEL I,,2200-200,ABRANTES,-8.194411642710525,39.47229780219859
pt.ine.add.PTCONT.4399991,AV D MANUEL I,,2200-200,ABRANTES,-8.194411642710525,39.47229780219859
pt.ine.add.PTCONT.4399992,AV D MANUEL I,,2200-200,ABRANTES,-8.194411642710525,39.47229780219859
pt.ine.add.PTCONT.4399993,AV D MANUEL I,,2200-200,ABRANTES,-8.194411642710525,39.47229780219859
pt.ine.add.PTCONT.4399994,R CIMA,72,2205-500,SÃO MIGUEL DO RIO TORTO,-8.23260933673055,39.38098455097637
pt.ine.add.PTCONT.4399995,R NSA SRA DE FÁTIMA,7,2205-504,SÃO MIGUEL DO RIO TORTO,-8.227797839254642,39.37618774772065
pt.ine.add.PTCONT.4399996,R PRINCIPAL,,2200-507,ABRANTES,-8.192689738946406,39.524512152770285
pt.ine.add.PTCONT.4399997,R VALE DA CEREJEIRA,,2200-482,ABRANTES,-8.216564470902703,39.503385165349776
pt.ine.add.PTCONT.4399998,TV OLEIROS,63,2200-180,ABRANTES,-8.204033201058994,39.482731457629484
pt.ine.add.PTCONT.4399999,AV ESCOLA NOVA,705,2200-135,ABRANTES,-8.202451353477427,39.481633557253424
pt.ine.add.PTCONT.4400000,R CABEÇO,1030,2200-160,ABRANTES,-8.206390069820165,39.49128664235513
pt.ine.add.PTCONT.4400001,AV D MANUEL I,,2200-200,ABRANTES,-8.194411642710525,39.47229780219859
pt.ine.add.PTCONT.4400002,AV D MANUEL I,,2200-200,ABRANTES,-8.194411642710525,39.47229780219859
pt.ine.add.PTCONT.4400003,AV D MANUEL I,,2200-200,ABRANTES,-8.194411642710525,39.47229780219859
pt.ine.add.PTCONT.4400004,AV D MANUEL I,,2200-200,ABRANTES,-8.194411642710525,39.47229780219859
pt.ine.add.PTCONT.4400005,AV D MANUEL I,,2200-200,ABRANTES,-8.194411642710525,39.47229780219859
pt.ine.add.PTCONT.4400006,AV D MANUEL I,,2200-200,ABRANTES,-8.194411642710525,39.47229780219859
pt.ine.add.PTCONT.4400007,AV D MANUEL I,,2200-200,ABRANTES,-8.194411642710525,39.47229780219859
pt.ine.add.PTCONT.4400008,AV D MANUEL I,,2200-200,ABRANTES,-8.194411642710525,39.47229780219859
pt.ine.add.PTCONT.4400009,AV D MANUEL I,,2200-200,ABRANTES,-8.194411642710525,39.47229780219859
pt.ine.add.PTCONT.4400010,R PRINCIPAL,1331,2205-161,BEMPOSTA ABT,-8.198120002475376,39.27327328049591
pt.ine.add.PTCONT.4400011,R CUMEADA,,2200-704,MOURISCAS,-8.090057511855534,39.48017812152992
pt.ine.add.PTCONT.4400012,R ROSEIRA,229,2205-343,PEGO,-8.153116681356678,39.458882756551596
pt.ine.add.PTCONT.4400013,R FONTE DE S JOSE,27,2200-059,ABRANTES,-8.1905529871724,39.47190346341965
pt.ine.add.PTCONT.4400014,R FONTE DE S JOSE,27,2200-059,ABRANTES,-8.1905529871724,39.47190346341965
pt.ine.add.PTCONT.4400015,R FONTE DE S JOSE,27,2200-059,ABRANTES,-8.1905529871724,39.47190346341965
pt.ine.add.PTCONT.4400016,R FONTE DE S JOSE,27,2200-059,ABRANTES,-8.1905529871724,39.47190346341965
pt.ine.add.PTCONT.4400017,TV PRATA,8,2205-138,ALVEGA,-8.039377217559538,39.44053536855586
pt.ine.add.PTCONT.4400018,CSL VALE ZEBRO,,2205-162,BEMPOSTA ABT,-8.118315321305406,39.30200578246957
pt.ine.add.PTCONT.4400019,R BICA DA FIGUEIRA,160,2200-627,MARTINCHEL,-8.30770992679233,39.5329078444013
pt.ine.add.PTCONT.4400020,R COVAS,368,2205-348,PEGO,-8.152107890675785,39.46654791251853
pt.ine.add.PTCONT.4400021,AV ANTERO DE QUENTAL,,2200-220,ABRANTES,-8.196273489420832,39.47496288287369
pt.ine.add.PTCONT.4400022,AV ANTERO DE QUENTAL,,2200-220,ABRANTES,-8.196273489420832,39.47496288287369
pt.ine.add.PTCONT.4400023,AV ANTERO DE QUENTAL,,2200-220,ABRANTES,-8.196273489420832,39.47496288287369
pt.ine.add.PTCONT.4400024,AV ANTERO DE QUENTAL,,2200-220,ABRANTES,-8.196273489420832,39.47496288287369
pt.ine.add.PTCONT.4400025,AV ANTERO DE QUENTAL,,2200-220,ABRANTES,-8.196273489420832,39.47496288287369
pt.ine.add.PTCONT.4400026,AV ANTERO DE QUENTAL,,2200-220,ABRANTES,-8.196273489420832,39.47496288287369
pt.ine.add.PTCONT.4400027,AV ANTERO DE QUENTAL,,2200-220,ABRANTES,-8.196273489420832,39.47496288287369
pt.ine.add.PTCONT.4400028,R GONCALINHA,16A,2200-151,ABRANTES,-8.189996105223537,39.48733274184855
pt.ine.add.PTCONT.4401251,R FLORES,23,2230-861,CARVALHAL ABT,-8.211047121240297,39.58093849037581
pt.ine.add.PTCONT.4401266,R MANUEL LOPES VALENTE JUNIOR,2,2200-260,ABRANTES,-8.188645918293933,39.48506363111873
pt.ine.add.PTCONT.4401306,R PRINCIPAL,1683,2205-161,BEMPOSTA ABT,-8.197949005582837,39.27634487387954
pt.ine.add.PTCONT.4401321,R CALDEIRO,6,2205-175,BEMPOSTA ABT,-8.141253901871497,39.363165577448584
pt.ine.add.PTCONT.4401327,R BARTOLOMEU DIAS,56,2200-151,ABRANTES,-8.19122736955888,39.48627831433128
pt.ine.add.PTCONT.4401341,R ALEXANDRE HERCULANO,29,2205-652,TRAMAGAL,-8.242724830854902,39.45179831899727
pt.ine.add.PTCONT.4401362,BR MUNICIPAL,12,2200-097,ABRANTES,-8.201564326560378,39.4541626541261
pt.ine.add.PTCONT.4401363,R CIRCUNVALAÇÃO DO PARQUE DESPORTIVO,8,2205-460,SÃO MIGUEL DO RIO TORTO,-8.169071275810975,39.416356522282335
pt.ine.add.PTCONT.4401368,R COMEND EDUARDO DUARTE FERREIRA,938,2205-697,TRAMAGAL,-8.246664154447508,39.452289927227845
pt.ine.add.PTCONT.4401369,AV D MANUEL I,,2200-200,ABRANTES,-8.194411642710525,39.47229780219859
pt.ine.add.PTCONT.4401373,R VALE DA CEREJEIRA,40A,2200-482,ABRANTES,-8.216517565953195,39.503051941106094
pt.ine.add.PTCONT.4401389,R ESCOLAS,97,2200-467,ABRANTES,-8.182698598242624,39.507007329372385
pt.ine.add.PTCONT.4401393,TV D MARIA I,60,2230-862,CARVALHAL ABT,-8.190771753409056,39.567881365202595
pt.ine.add.PTCONT.4401394,TV D MARIA I,60,2230-862,CARVALHAL ABT,-8.190771753409056,39.567881365202595
pt.ine.add.PTCONT.4401397,BR MUNICIPAL,12,2200-097,ABRANTES,-8.201564326560378,39.4541626541261
pt.ine.add.PTCONT.4401399,R ACTOR TABORDA,94,2200-372,ABRANTES,-8.200342361858432,39.464134159597876
pt.ine.add.PTCONT.4401411,R LARANJEIRAS,43,2205-671,TRAMAGAL,-8.247521345769597,39.45073086767391
pt.ine.add.PTCONT.4401442,R SANTO ANTÓNIO,,2205-136,ALVEGA,-8.030867810707853,39.45282283325281
pt.ine.add.PTCONT.4401552,TV TEM TE BEM,3,2200-449,ABRANTES,-8.19744870430359,39.46386558552083
pt.ine.add.PTCONT.4401553,R BOA VIAGEM,,2230-801,SOUTO ABT,-8.223938732910327,39.577056182597936
pt.ine.add.PTCONT.4401554,TV AZENHAS,,2230-865,CARVALHAL ABT,-8.209550383051889,39.58528078458545
pt.ine.add.PTCONT.4401563,R JOSE JOAQUIM BAIRRAO OLIVEIRA,107,2205-695,TRAMAGAL,-8.245853025631073,39.46082038443234
pt.ine.add.PTCONT.4401564,R CASAL DE BAIXO,3 A,2205-814,VALE DAS MÓS,-8.070467739503886,39.34343223478091
pt.ine.add.PTCONT.4401565,AV MIRA ZEZERE,5,2230-862,CARVALHAL ABT,-8.193341892083932,39.56588053591321
pt.ine.add.PTCONT.4401576,R JOSE ESTEVÃO,34,2200-420,ABRANTES,-8.198342819090326,39.46318955997258
pt.ine.add.PTCONT.4401577,BC CORTICO,39,2205-614,TRAMAGAL,-8.26807627632297,39.44018858868665
pt.ine.add.PTCONT.4401578,R MESTRA,61,2205-666,TRAMAGAL,-8.248081684890973,39.45236059096922
pt.ine.add.PTCONT.4401579,R MESTRA,41,2205-666,TRAMAGAL,-8.248291197325432,39.45259456690398
pt.ine.add.PTCONT.4401589,R ZEZERE,16,2230-802,SOUTO ABT,-8.256455517740248,39.5691091884846
pt.ine.add.PTCONT.4401590,R COMEND EDUARDO DUARTE FERREIRA,,2205-697,TRAMAGAL,-8.247231545224125,39.458243027425766
pt.ine.add.PTCONT.4401591,R CASALINHO,,2205-694,TRAMAGAL,-8.24753911198025,39.454486788921095
pt.ine.add.PTCONT.4401592,R FLORES,43,2230-861,CARVALHAL ABT,-8.210825858299572,39.58083956321457
pt.ine.add.PTCONT.4401612,R PINTOR MANUEL DA COSTA,160,2200-246,ABRANTES,-8.203327068874247,39.474040122060536
pt.ine.add.PTCONT.4401613,R PINTOR MANUEL DA COSTA,160,2200-246,ABRANTES,-8.203327068874247,39.474040122060536
pt.ine.add.PTCONT.4401614,R INF D LUIS,101,2200-090,ABRANTES,-8.212835555482773,39.46550434160406
pt.ine.add.PTCONT.4401615,R INF D LUIS,101,2200-090,ABRANTES,-8.212835555482773,39.46550434160406
pt.ine.add.PTCONT.4401616,R ANGOLA,33,2200-390,ABRANTES,-8.20144433486024,39.46215197000127
pt.ine.add.PTCONT.4401617,R BAIRRO DOS PASSARINHOS,263,2205-658,TRAMAGAL,-8.251047578242597,39.45429413614581
pt.ine.add.PTCONT.4401618,R S LUCAS,67,2230-862,CARVALHAL ABT,-8.197804895166936,39.572336061996666
pt.ine.add.PTCONT.4401619,R CABEÇO DO MOINHO,,2230-862,CARVALHAL ABT,-8.201064845696232,39.57363118966007
pt.ine.add.PTCONT.4401620,R GLÓRIA,,2230-862,CARVALHAL ABT,-8.199982693220319,39.57385698895416
pt.ine.add.PTCONT.4401626,TV SENHORA DO AMPARO,149,2200-212,ABRANTES,-8.209344880025935,39.471964718607175
pt.ine.add.PTCONT.4401635,R FR JOÃO PINTO DA PIEDADE,207,2200-134,ABRANTES,-8.221628351360188,39.4624986399658
pt.ine.add.PTCONT.4401636,R D JOÃO IV,14,2200-406,ABRANTES,-8.198713879757165,39.46236070412859
pt.ine.add.PTCONT.4401637,R BOA VISTA,233,2230-801,SOUTO ABT,-8.226692148261657,39.58198074556639
pt.ine.add.PTCONT.4401638,R NSA SRA DE OLIVEIRA,127,2205-679,TRAMAGAL,-8.243340686961988,39.45186078627978
