id,street,house,postcode,city,lon,lat
pt.ine.add.PTCONT.872383,,,5350-055,ALFÂNDEGA DA FÉ,-6.92692751850525,41.36519762030049
pt.ine.add.PTCONT.849542,R DO FERREIRO,,5350-390,VALVERDE AFE,-6.988498060096796,41.32993717852783
pt.ine.add.PTCONT.849535,R DR MANUEL SUSANO,69,5350-070,ALFÂNDEGA DA FÉ,-6.957785840141565,41.346626911937946
pt.ine.add.PTCONT.849536,R MANUEL FERREIRA,49,5350-042,ALFÂNDEGA DA FÉ,-6.966177491663921,41.3417151741222
pt.ine.add.PTCONT.849537,BR DE TRÁS DO CASTELO,31,5350-052,ALFÂNDEGA DA FÉ,-6.9666579588173665,41.3388928329739
pt.ine.add.PTCONT.849538,R DA GRICHA,,5350-360,SOEIMA,-6.965332399947928,41.43440060029265
pt.ine.add.PTCONT.849539,R DA IGREJA,,5350-360,SOEIMA,-6.966526280667829,41.43320621551787
pt.ine.add.PTCONT.849540,R DA BARREIRA,,5350-360,SOEIMA,-6.965485763323004,41.433186654972
pt.ine.add.PTCONT.849541,R DA CAPELA,,5350-360,SOEIMA,-6.96596598207162,41.43242621203313
pt.ine.add.PTCONT.849543,R DO TRONCO,,5350-390,VALVERDE AFE,-6.987408451850872,41.329404111079924
pt.ine.add.PTCONT.849544,R DO ADRO,,5350-040,ALFÂNDEGA DA FÉ,-6.966133349517426,41.342849212525614
pt.ine.add.PTCONT.849545,R DO SANTUÁRIO,31,5350-220,CEREJAIS,-6.923454482316429,41.292617066247956
pt.ine.add.PTCONT.849546,BR DA PORTELA,,5350-231,EUCISIA,-7.007140956563105,41.312095265759254
pt.ine.add.PTCONT.849547,R DE CIMA,,5350-250,GEBELIM,-6.932258992985285,41.443072797077825
pt.ine.add.PTCONT.849548,R DO PEREIRO,14,5350-402,VILAR CHÃO AFE,-6.864064925057233,41.338014300693615
pt.ine.add.PTCONT.849549,R DO ALTO,9,5350-402,VILAR CHÃO AFE,-6.86443724849412,41.33421879280676
pt.ine.add.PTCONT.849550,AV ENG CAMILO DE MENDONÇA,3,5350-420,VILARELHOS,-7.040991198015476,41.34814893853812
pt.ine.add.PTCONT.849551,R DE CIMA,,5350-432,VILARES DE VILARIÇA,-7.038662989721663,41.390832057847035
pt.ine.add.PTCONT.849552,R DE S JOÃO,,5350-432,VILARES DE VILARIÇA,-7.039397000737666,41.38983961424586
pt.ine.add.PTCONT.849566,R DE TRÁS,45,5350-031,ALFÂNDEGA DA FÉ,-6.965142415223952,41.343478433247334
pt.ine.add.PTCONT.849567,R BRANCO RODRIGUES,67,5350-067,ALFÂNDEGA DA FÉ,-6.957983386603428,41.344278924756
pt.ine.add.PTCONT.849568,,,5350-290,POMBAL AFE,-7.001947375276741,41.37553962887809
pt.ine.add.PTCONT.849569,,,5350-290,POMBAL AFE,-7.003112177605216,41.37661352483357
pt.ine.add.PTCONT.849570,,,5350-290,POMBAL AFE,-7.003185959029898,41.3758039054851
pt.ine.add.PTCONT.849571,R DA PRACINHA,,5350-313,SAMBADE,-6.985010240939019,41.42983570659654
pt.ine.add.PTCONT.849572,R DA PRACINHA,,5350-313,SAMBADE,-6.986028059902302,41.429782834150835
pt.ine.add.PTCONT.849573,R DO MÁRTIR S SEBASTIÃO,7,5350-312,SAMBADE,-6.973894135088642,41.415831456964625
pt.ine.add.PTCONT.849574,R DO SANTO CRISTO,,5350-312,SAMBADE,-6.97676033103274,41.41321577124193
pt.ine.add.PTCONT.849575,BC 13 DE MAIO,4,5350-312,SAMBADE,-6.971900312754547,41.41495599289594
pt.ine.add.PTCONT.849576,R 5 DE AGOSTO,3,5350-312,SAMBADE,-6.9719084903195565,41.41449688415488
pt.ine.add.PTCONT.849577,PC DA REPÚBLICA,,5350-312,SAMBADE,-6.976406997870783,41.412399308860536
pt.ine.add.PTCONT.850064,R DO ADRO,,5350-040,ALFÂNDEGA DA FÉ,-6.966133349517426,41.342849212525614
pt.ine.add.PTCONT.850162,R 25 DE ABRIL,418,5350-062,ALFÂNDEGA DA FÉ,-6.959174071053221,41.34916215902424
pt.ine.add.PTCONT.850163,R DA CALÇADA,,5350-262,GOUVEIA AFE,-6.997249192764387,41.290991897811814
pt.ine.add.PTCONT.850164,R DA ACÁCIA,22,5350-312,SAMBADE,-6.971107352037932,41.41381351364308
pt.ine.add.PTCONT.850165,R DE S BRAZ,41,5350-232,EUCISIA,-7.0362794930254635,41.32560339642376
pt.ine.add.PTCONT.850166,R DOS OLMOS,,5350-041,ALFÂNDEGA DA FÉ,-6.969151505159681,41.349812745524105
pt.ine.add.PTCONT.850167,R DR GAMA PIMENTEL,,5350-231,EUCISIA,-7.013884283003917,41.313016410236926
pt.ine.add.PTCONT.850168,LG DO CANTINHO,73,5350-231,EUCISIA,-7.013803166944699,41.31287155867046
pt.ine.add.PTCONT.850169,R 25 DE DEZEMBRO,19,5350-312,SAMBADE,-6.971119179260925,41.40778111642369
pt.ine.add.PTCONT.850170,R 25 DE ABRIL,83,5350-062,ALFÂNDEGA DA FÉ,-6.956972706950644,41.34666362343032
pt.ine.add.PTCONT.850171,R 15 DE AGOSTO,,5350-312,SAMBADE,-6.9763521588368045,41.41211964103253
pt.ine.add.PTCONT.850172,R CONS EDUARDO COELHO,12,5350-055,ALFÂNDEGA DA FÉ,-6.965254623202371,41.34121060009511
pt.ine.add.PTCONT.850173,R DO CARRIL,,5350-353,SENDIM DA SERRA,-6.977431748499037,41.29439620803718
pt.ine.add.PTCONT.850174,R DE S PEDRO,137,5350-030,ALFÂNDEGA DA FÉ,-6.961861584782767,41.33921327543872
pt.ine.add.PTCONT.850175,EN 315,,5350-311,SAMBADE,-6.992237215402446,41.42430728094877
pt.ine.add.PTCONT.850176,R DA ESCOLA,,5350-311,SAMBADE,-6.990225546252408,41.421009949515486
pt.ine.add.PTCONT.850177,R DO MÁRTIR S SEBASTIÃO,41,5350-220,CEREJAIS,-6.924329474015306,41.295660576835616
pt.ine.add.PTCONT.850178,EN 315,108,5350-312,SAMBADE,-6.97833112744757,41.41450750995029
pt.ine.add.PTCONT.850189,R DO BAIRRINHO,,5350-431,VILARES DE VILARIÇA,-7.027872755038285,41.410222126923045
pt.ine.add.PTCONT.850213,R DE S TOMÉ,5,5350-420,VILARELHOS,-7.0364418867171,41.35152714666481
pt.ine.add.PTCONT.850214,R DO CANTO,,5350-420,VILARELHOS,-7.038601888839119,41.34812623858101
pt.ine.add.PTCONT.850226,R DO RIBEIRO DO OLMO,4,5350-420,VILARELHOS,-7.041745184118094,41.34807505667718
pt.ine.add.PTCONT.850227,R DOS MORGADOS,,5350-420,VILARELHOS,-7.040995650665764,41.347167557962926
pt.ine.add.PTCONT.850791,R CAROLINO DOS SANTOS OUTOR,13,5350-312,SAMBADE,-6.9726698232082684,41.414729660015496
pt.ine.add.PTCONT.850802,R DA CAPELA,,5350-101,AGROBOM,-6.916225584666153,41.39754355819912
pt.ine.add.PTCONT.850815,R 1 DE MAIO,8,5350-061,ALFÂNDEGA DA FÉ,-6.9592914327842585,41.349280406198574
pt.ine.add.PTCONT.850923,R DA ESCOLA,,5350-352,SENDIM DA RIBEIRA,-6.890793230524952,41.289378930117095
pt.ine.add.PTCONT.850908,R 1 DE MAIO,49,5350-061,ALFÂNDEGA DA FÉ,-6.95991230942885,41.349971029865294
pt.ine.add.PTCONT.850909,R DA ACÁCIA,,5350-312,SAMBADE,-6.972255605031341,41.414482379771755
pt.ine.add.PTCONT.850910,R DE S BRAZ,47,5350-232,EUCISIA,-7.036119258458987,41.325898998278284
pt.ine.add.PTCONT.850911,R DOS BALCÕES,,5350-280,PARADA AFE,-6.8809368772161426,41.302895013361905
pt.ine.add.PTCONT.850912,R DE CIMA,,5350-280,PARADA AFE,-6.880460184894412,41.30222353915552
pt.ine.add.PTCONT.850913,R 25 DE DEZEMBRO,49,5350-312,SAMBADE,-6.971104555971136,41.40591718995378
pt.ine.add.PTCONT.850914,,,5350-055,ALFÂNDEGA DA FÉ,-6.927143933855623,41.36512785821765
pt.ine.add.PTCONT.850915,R DE S JOÃO DE DEUS,191,5350-029,ALFÂNDEGA DA FÉ,-6.965604495754584,41.34235764010869
pt.ine.add.PTCONT.850916,R DA FONTE DA TOUTELA,31,5350-312,SAMBADE,-6.978286326831182,41.41163486217372
pt.ine.add.PTCONT.850917,R DA FONTE DA TOUTELA,31,5350-312,SAMBADE,-6.978286326831182,41.41163486217372
pt.ine.add.PTCONT.850918,R DO RIBEIRO,1,5350-352,SENDIM DA RIBEIRA,-6.905410753941925,41.31007365411039
pt.ine.add.PTCONT.850919,R MANUEL JOSÉ VILARES,78,5350-043,ALFÂNDEGA DA FÉ,-6.958208247308502,41.34439827078536
pt.ine.add.PTCONT.850920,R DOS CAVALEIROS DAS ESPORAS DOURADAS,,5350-033,ALFÂNDEGA DA FÉ,-6.96638345032911,41.341555192960364
pt.ine.add.PTCONT.850921,R DA ROSEIRA,1,5350-026,ALFÂNDEGA DA FÉ,-6.964878214928802,41.34154892620228
pt.ine.add.PTCONT.850922,R DE BAIXO,,5350-300,SALDONHA,-6.875305975948561,41.40505376628868
pt.ine.add.PTCONT.850924,R DA PRACINHA,1,5350-300,SALDONHA,-6.875191572805122,41.40602491760603
pt.ine.add.PTCONT.850925,R ETELVINA ALMEIDA,,5350-001,ALFÂNDEGA DA FÉ,-6.961720116813353,41.35043963858594
pt.ine.add.PTCONT.850926,R ETELVINA ALMEIDA,,5350-001,ALFÂNDEGA DA FÉ,-6.961720116813353,41.35043963858594
pt.ine.add.PTCONT.850927,AV DR FRANCISCO SÁ CARNEIRO,640,5350-005,ALFÂNDEGA DA FÉ,-6.964252754457587,41.33577109956197
pt.ine.add.PTCONT.850928,R DA JUNTA,,5350-360,SOEIMA,-6.96515540945376,41.434930022765606
pt.ine.add.PTCONT.850929,BR DE TRÁS DO CASTELO,38,5350-052,ALFÂNDEGA DA FÉ,-6.967377200906415,41.33875605912353
pt.ine.add.PTCONT.850930,R DA RUECA,100,5350-250,GEBELIM,-6.930629805019401,41.44187629375142
pt.ine.add.PTCONT.850931,LOTEAM DO VALE DO ABADE,21,5350-433,ALFÂNDEGA DA FÉ,-6.964312693485575,41.33375484192164
pt.ine.add.PTCONT.850932,R DA ROSEIRA,,5350-312,SAMBADE,-6.973997373091928,41.41473403960797
pt.ine.add.PTCONT.850933,R DO ABEXEIRO,13,5350-420,VILARELHOS,-7.0402140630069,41.346034652844
pt.ine.add.PTCONT.850942,BR DE BAIXO,,5350-380,VALES AFE,-6.998452635637424,41.38954215925299
pt.ine.add.PTCONT.850945,R 25 DE MARÇO,,5350-390,VALVERDE AFE,-6.989363286580571,41.3303239437644
pt.ine.add.PTCONT.850946,R DA PORTELA,,5350-390,VALVERDE AFE,-6.989628553350975,41.33018251757959
pt.ine.add.PTCONT.850969,R DA ROSEIRA,3,5350-402,VILAR CHÃO AFE,-6.863755201852,41.33366203836095
pt.ine.add.PTCONT.850974,R DO CANTO,3,5350-420,VILARELHOS,-7.038578900474561,41.348071996670384
pt.ine.add.PTCONT.850976,R DA FONTE,,5350-420,VILARELHOS,-7.039122331473545,41.347014706398134
pt.ine.add.PTCONT.851640,R DOS CAVALEIROS DAS ESPORAS DOURADAS,32,5350-033,ALFÂNDEGA DA FÉ,-6.966237056294015,41.341724781965716
pt.ine.add.PTCONT.851665,R JOÃO BERNARDINO FERREIRA,65,5350-066,ALFÂNDEGA DA FÉ,-6.960098169534475,41.34760491332696
pt.ine.add.PTCONT.851666,R JOÃO BERNARDINO FERREIRA,73,5350-066,ALFÂNDEGA DA FÉ,-6.960098169534475,41.34760491332696
pt.ine.add.PTCONT.851712,R 1 DE MAIO,49,5350-061,ALFÂNDEGA DA FÉ,-6.960045660854264,41.349864343196856
pt.ine.add.PTCONT.851713,R DA CAPELA,,5350-262,GOUVEIA AFE,-6.998685322964159,41.29009666174378
pt.ine.add.PTCONT.851714,R TEN COR ÁLVARO CEPEDA,,5350-312,SAMBADE,-6.97324238807169,41.41481646781627
pt.ine.add.PTCONT.851715,R DA ROSEIRA,,5350-312,SAMBADE,-6.973832515776925,41.41458831845149
pt.ine.add.PTCONT.851716,R DO BAIRRINHO,,5350-312,SAMBADE,-6.970391543076173,41.41304096243001
pt.ine.add.PTCONT.851717,LG DO POMBALZINHO,,5350-015,ALFÂNDEGA DA FÉ,-6.964114699013974,41.34148714965764
pt.ine.add.PTCONT.851718,R ÁLVARO DA PONTE,57,5350-064,ALFÂNDEGA DA FÉ,-6.957081558582051,41.345926420397056
pt.ine.add.PTCONT.851719,R DA COSTA,,5350-101,AGROBOM,-6.915278086715153,41.397056333673405
pt.ine.add.PTCONT.851720,LG DE S SEBASTIÃO,89,5350-013,ALFÂNDEGA DA FÉ,-6.962106152664157,41.34089948594356
pt.ine.add.PTCONT.851721,R CAP MENDONÇA,27,5350-020,ALFÂNDEGA DA FÉ,-6.960348505380826,41.33831548757676
pt.ine.add.PTCONT.851722,R DE S PEDRO,,5350-030,ALFÂNDEGA DA FÉ,-6.961836251691962,41.339960337952064
pt.ine.add.PTCONT.851723,R DE S PEDRO,,5350-030,ALFÂNDEGA DA FÉ,-6.961836251691962,41.339960337952064
pt.ine.add.PTCONT.851724,R DE S PEDRO,,5350-030,ALFÂNDEGA DA FÉ,-6.961836251691962,41.339960337952064
pt.ine.add.PTCONT.851725,R DE S PEDRO,,5350-030,ALFÂNDEGA DA FÉ,-6.961836251691962,41.339960337952064
pt.ine.add.PTCONT.851726,R CONS EDUARDO COELHO,22,5350-055,ALFÂNDEGA DA FÉ,-6.9652533364273514,41.341282617904845
pt.ine.add.PTCONT.888626,,,5350-055,ALFÂNDEGA DA FÉ,-6.927312385866809,41.36506659692738
pt.ine.add.PTCONT.851727,R DO MOREIRA,12,5350-242,FERRADOSA,-6.949618300907562,41.257206396812265
pt.ine.add.PTCONT.851728,R DAS EIRAS,,5350-353,SENDIM DA SERRA,-6.980659611309057,41.29753492853254
pt.ine.add.PTCONT.851729,R DAS CARVALHEIRAS,,5350-250,GEBELIM,-6.93143017149033,41.440651151697566
pt.ine.add.PTCONT.851754,R DE CIMA,,5350-432,VILARES DE VILARIÇA,-7.038543748217881,41.39081291590464
pt.ine.add.PTCONT.851756,R DO ALTO,31,5350-402,VILAR CHÃO AFE,-6.8639492081206726,41.33474463715133
pt.ine.add.PTCONT.851759,R DE VALE DE NABAIS,8,5350-402,VILAR CHÃO AFE,-6.867554358133817,41.33487437844444
pt.ine.add.PTCONT.851760,R DA SOALHEIRA,20,5350-402,VILAR CHÃO AFE,-6.866288545265422,41.33361792305545
pt.ine.add.PTCONT.851765,R DAS AMOREIRAS,34,5350-402,VILAR CHÃO AFE,-6.86537981906807,41.333661939037604
pt.ine.add.PTCONT.851770,R DE S TOMÉ,1,5350-420,VILARELHOS,-7.03814357546082,41.3490942973189
pt.ine.add.PTCONT.851775,R DO CRUZEIRO,9,5350-420,VILARELHOS,-7.038790584538323,41.34756078879721
pt.ine.add.PTCONT.852550,EM 589,,5350-390,VALVERDE AFE,-6.979809193119071,41.33088587959622
pt.ine.add.PTCONT.852381,R DO CANTO,,5350-262,GOUVEIA AFE,-6.980910219353794,41.27379402475088
pt.ine.add.PTCONT.852389,R DA IGREJA,,5350-262,GOUVEIA AFE,-6.997346622500658,41.29156911181312
pt.ine.add.PTCONT.852394,LG DO POMBALZINHO,14,5350-015,ALFÂNDEGA DA FÉ,-6.9639234177004,41.34149421028669
pt.ine.add.PTCONT.852470,SIT DO VALE DO MENDO,,5350-420,VILARELHOS,-7.036772649330558,41.34534463526506
pt.ine.add.PTCONT.852510,R DA IGREJA,,5350-370,VALE PEREIRO,-6.897718755099618,41.384110801576895
pt.ine.add.PTCONT.852511,R DAS FLORES,,5350-068,ALFÂNDEGA DA FÉ,-6.960578239571508,41.35081517453369
pt.ine.add.PTCONT.852512,R DA CARVALHEIRA,35,5350-312,SAMBADE,-6.969042008580283,41.4142698327663
pt.ine.add.PTCONT.852513,R DO SANTUÁRIO,55,5350-220,CEREJAIS,-6.924405925426602,41.29151957980702
pt.ine.add.PTCONT.852514,R DO BAIRRINHO,,5350-312,SAMBADE,-6.969394932628355,41.41258970175306
pt.ine.add.PTCONT.852515,EM 592,,5350-280,PARADA AFE,-6.881991319141824,41.305823736627325
pt.ine.add.PTCONT.852516,R DE BAIXO,,5350-280,PARADA AFE,-6.880968964505312,41.301841908429935
pt.ine.add.PTCONT.852517,R DA ROSEIRA,28,5350-026,ALFÂNDEGA DA FÉ,-6.964720837520731,41.34166437862199
pt.ine.add.PTCONT.852518,R DA ROSEIRA,42,5350-026,ALFÂNDEGA DA FÉ,-6.964707283220906,41.34175427958162
pt.ine.add.PTCONT.852519,R DE S JOÃO DE DEUS,41,5350-029,ALFÂNDEGA DA FÉ,-6.9636499708421296,41.34141940092481
pt.ine.add.PTCONT.852520,R BRANCO RODRIGUES,51,5350-067,ALFÂNDEGA DA FÉ,-6.958129322155319,41.34413635328049
pt.ine.add.PTCONT.852521,TV DO FORNO,21,5350-047,ALFÂNDEGA DA FÉ,-6.966499044475569,41.341772457451036
pt.ine.add.PTCONT.852522,R DO VALE DA CORTINHA DE CIMA,5,5350-300,SALDONHA,-6.876965114434538,41.40583721051352
pt.ine.add.PTCONT.852523,R EMA DA COSTA PESSOA,4,5350-001,ALFÂNDEGA DA FÉ,-6.961253875416369,41.349786614853926
pt.ine.add.PTCONT.852524,R MARIA DO CARMO PAULA,162,5350-002,ALFÂNDEGA DA FÉ,-6.962046720918478,41.338882016703764
pt.ine.add.PTCONT.852525,EN 315,,5350-312,SAMBADE,-6.975749091054176,41.413752259068765
pt.ine.add.PTCONT.852526,R DA IGREJA,,5350-360,SOEIMA,-6.9659832936632045,41.43279554025047
pt.ine.add.PTCONT.852536,BR DE CIMA,,5350-380,VALES AFE,-6.996884516897382,41.3930831835435
pt.ine.add.PTCONT.852540,R DE TOMBORÃO,,5350-431,VILARES DE VILARIÇA,-7.028465858473687,41.40980464558925
pt.ine.add.PTCONT.852568,R DO RIBEIRO,5,5350-402,VILAR CHÃO AFE,-6.865800097809308,41.333549518328994
pt.ine.add.PTCONT.852571,R DA IGREJA,5,5350-420,VILARELHOS,-7.039070366115407,41.34797762740036
pt.ine.add.PTCONT.852577,R DO OUTÃO,15,5350-420,VILARELHOS,-7.039302364855536,41.34839401114072
pt.ine.add.PTCONT.852578,AV ENG CAMILO DE MENDONÇA,7,5350-420,VILARELHOS,-7.040714621420319,41.34825435996304
pt.ine.add.PTCONT.856228,EN 315,,5350-311,SAMBADE,-6.995725795261198,41.42250506086641
pt.ine.add.PTCONT.853170,R MARIA DO CARMO PAULA,162,5350-002,ALFÂNDEGA DA FÉ,-6.962046720918478,41.338882016703764
pt.ine.add.PTCONT.853238,R CAMILO DE MENDONÇA,,5350-045,ALFÂNDEGA DA FÉ,-6.963720862121354,41.3421314260263
pt.ine.add.PTCONT.853239,R DA IGREJA,,5350-262,GOUVEIA AFE,-6.9970463469741935,41.29167419591111
pt.ine.add.PTCONT.853240,R DA PORTELA,157,5350-025,ALFÂNDEGA DA FÉ,-6.965015520950922,41.343225037337675
pt.ine.add.PTCONT.853241,R DA ACÁCIA,7,5350-312,SAMBADE,-6.972004798974413,41.414461841213054
pt.ine.add.PTCONT.853242,R DR MÁRIO MIRANDA,128,5350-069,ALFÂNDEGA DA FÉ,-6.959113272747705,41.34722571198685
pt.ine.add.PTCONT.853243,R DAS EIRAS,,5350-280,PARADA AFE,-6.882151547144793,41.304312826914256
pt.ine.add.PTCONT.853244,R 25 DE DEZEMBRO,,5350-312,SAMBADE,-6.970919984597888,41.40553716751188
pt.ine.add.PTCONT.853245,R DO CASTELO,,5350-280,PARADA AFE,-6.880335199213358,41.30126776741165
pt.ine.add.PTCONT.853246,R DA BARREIRA,7,5350-241,FERRADOSA,-6.955012087128084,41.27443228671001
pt.ine.add.PTCONT.853247,R ÁLVARO DA PONTE,67,5350-064,ALFÂNDEGA DA FÉ,-6.957188260858151,41.34597253003294
pt.ine.add.PTCONT.853248,R DA IGREJA,7,5350-241,FERRADOSA,-6.955134372851422,41.27360517425476
pt.ine.add.PTCONT.853249,R DA PENA DO GATO,10,5350-242,FERRADOSA,-6.949921321181652,41.25760568660653
pt.ine.add.PTCONT.853250,R DA BARREIRA,3,5350-242,FERRADOSA,-6.950305759089686,41.256799279043356
pt.ine.add.PTCONT.853251,R DO MOREIRA,14,5350-242,FERRADOSA,-6.949056309558552,41.25727264979441
pt.ine.add.PTCONT.853252,R MARIA DO CARMO PAULA,127,5350-002,ALFÂNDEGA DA FÉ,-6.962077060801228,41.338522170997834
pt.ine.add.PTCONT.853253,R DA COSTINHA,161,5350-250,GEBELIM,-6.927181864874712,41.445207577846645
pt.ine.add.PTCONT.853254,,,5350-353,SENDIM DA SERRA,-6.978150319567831,41.294268361479034
pt.ine.add.PTCONT.853255,R DE S PEDRO,164,5350-030,ALFÂNDEGA DA FÉ,-6.961736653968241,41.33951813510418
pt.ine.add.PTCONT.853256,R DE CIMA,31,5350-250,GEBELIM,-6.93334783678214,41.44307515536418
pt.ine.add.PTCONT.853257,R DA ESCOLA,,5350-311,SAMBADE,-6.99097758707103,41.421098452043566
pt.ine.add.PTCONT.853258,R DO SOUTO,,5350-360,SOEIMA,-6.9648189686828,41.43300881421091
pt.ine.add.PTCONT.853259,BR DO CEMITÉRIO,,5350-262,GOUVEIA AFE,-6.996456127574504,41.293352106739256
pt.ine.add.PTCONT.853288,R DO VALE DE NABAIS,3,5350-402,VILAR CHÃO AFE,-6.866346240471053,41.33557238834903
pt.ine.add.PTCONT.853289,R DA SOALHEIRA,12,5350-402,VILAR CHÃO AFE,-6.865918813563478,41.33482036510357
pt.ine.add.PTCONT.853308,AV ENG CAMILO DE MENDONÇA,25,5350-420,VILARELHOS,-7.039980911134272,41.34854452072399
pt.ine.add.PTCONT.853309,AV ENG CAMILO DE MENDONÇA,11,5350-420,VILARELHOS,-7.04052242266401,41.34831556247127
pt.ine.add.PTCONT.854121,R DO REBALDINHO,,5350-420,VILARELHOS,-7.042371663593002,41.347765860536306
pt.ine.add.PTCONT.853988,R DE S PEDRO,,5350-030,ALFÂNDEGA DA FÉ,-6.962136805177048,41.339855350256094
pt.ine.add.PTCONT.854074,R DAS EIRAS,,5350-353,SENDIM DA SERRA,-6.980768418949512,41.29677968767906
pt.ine.add.PTCONT.854075,,,5350-353,SENDIM DA SERRA,-6.978460191248012,41.29429848214825
pt.ine.add.PTCONT.854076,R DO LOUREIRO,,5350-370,VALE PEREIRO,-6.898203470099078,41.38313459453489
pt.ine.add.PTCONT.854077,BR DE CIMA,,5350-380,VALES AFE,-6.996851514370249,41.39360507760663
pt.ine.add.PTCONT.854122,R DA TERRINXA,1,5350-420,VILARELHOS,-7.040995589576003,41.3464562508259
pt.ine.add.PTCONT.854118,R DA SOALHEIRA,23,5350-402,VILAR CHÃO AFE,-6.865439085154511,41.33430186356557
pt.ine.add.PTCONT.854119,R DO ALTO,17,5350-402,VILAR CHÃO AFE,-6.86418084919185,41.33450408831142
pt.ine.add.PTCONT.854120,EM 592,5,5350-402,VILAR CHÃO AFE,-6.869123575222148,41.33526978544459
pt.ine.add.PTCONT.854123,R DA ESCOLA,,5350-431,VILARES DE VILARIÇA,-7.028077716954813,41.410125054203185
pt.ine.add.PTCONT.854124,R DO SALGUEIRO,,5350-432,VILARES DE VILARIÇA,-7.032130163599266,41.39323677406633
pt.ine.add.PTCONT.854503,R DO TERREIRO,,5350-101,AGROBOM,-6.916641385115718,41.39576521190335
pt.ine.add.PTCONT.854504,R DA PORTELA,193,5350-025,ALFÂNDEGA DA FÉ,-6.965323687075608,41.343363222774144
pt.ine.add.PTCONT.854505,R MOUZINHO DE ALBUQUERQUE,40,5350-056,ALFÂNDEGA DA FÉ,-6.964687327955113,41.34287055520334
pt.ine.add.PTCONT.854506,R DE S JOÃO DE DEUS,18,5350-029,ALFÂNDEGA DA FÉ,-6.963812208450728,41.34170016908508
pt.ine.add.PTCONT.854542,,,5350-055,ALFÂNDEGA DA FÉ,-6.927439854811861,41.36463574987714
pt.ine.add.PTCONT.854543,R PROF JOÃO BAPTISTA VILARES,132,5350-075,ALFÂNDEGA DA FÉ,-6.958992240484738,41.34598194615667
pt.ine.add.PTCONT.854544,R DAS FLORES,26,5350-068,ALFÂNDEGA DA FÉ,-6.959928203135656,41.34642367663068
pt.ine.add.PTCONT.854545,R DAS FLORES,26,5350-068,ALFÂNDEGA DA FÉ,-6.959928203135656,41.34642367663068
pt.ine.add.PTCONT.854546,R DAS BARREIRINHAS,61,5350-055,ALFÂNDEGA DA FÉ,-6.9661880418682385,41.342462601288574
pt.ine.add.PTCONT.854547,TV DO RELÓGIO,5,5350-046,ALFÂNDEGA DA FÉ,-6.96571328872856,41.34228671293417
pt.ine.add.PTCONT.854593,R DO PINHEIRO,137,5350-231,EUCISIA,-7.008892400245058,41.31232848077001
pt.ine.add.PTCONT.854630,R DE STA BÁRBARA,5,5350-242,FERRADOSA,-6.948882848462073,41.25828831498948
pt.ine.add.PTCONT.854631,BR DO CANTO SALGUEIRO,14,5350-242,FERRADOSA,-6.952808852325061,41.25694202125208
pt.ine.add.PTCONT.854632,R DA BARREIRA,1,5350-242,FERRADOSA,-6.950316551658115,41.25686241778374
pt.ine.add.PTCONT.854633,R DA RUECA,87,5350-250,GEBELIM,-6.930835008416184,41.441779398089714
pt.ine.add.PTCONT.854634,R DO GAIVÃO,39,5350-250,GEBELIM,-6.934772180439748,41.43784985118047
pt.ine.add.PTCONT.854635,R DAS EIRINHAS,,5350-262,GOUVEIA AFE,-6.997923454753622,41.29134970338952
pt.ine.add.PTCONT.854636,BR DA FONTE,,5350-262,GOUVEIA AFE,-6.9985350679933065,41.28912275421325
pt.ine.add.PTCONT.854672,,,5350-290,POMBAL AFE,-7.0017786238672866,41.37768988278924
pt.ine.add.PTCONT.854673,,,5350-290,POMBAL AFE,-7.002672098861342,41.37717644276555
pt.ine.add.PTCONT.854674,,,5350-290,POMBAL AFE,-7.002646896390447,41.375870641180846
pt.ine.add.PTCONT.854675,R DA CAPELA,14,5350-300,SALDONHA,-6.875696366889064,41.40527412321411
pt.ine.add.PTCONT.854676,R DA ROSEIRA,8,5350-312,SAMBADE,-6.972972893584197,41.41517390047504
pt.ine.add.PTCONT.854677,TV 6 DE JANEIRO,7,5350-312,SAMBADE,-6.970243228418906,41.41330957592536
pt.ine.add.PTCONT.854678,R 25 DE DEZEMBRO,,5350-312,SAMBADE,-6.9713051292934605,41.408755400497085
pt.ine.add.PTCONT.854679,R 25 DE DEZEMBRO,18,5350-312,SAMBADE,-6.971231357584056,41.40685486195445
pt.ine.add.PTCONT.854747,R 25 DE DEZEMBRO,59,5350-312,SAMBADE,-6.9704072880523995,41.405450953323346
pt.ine.add.PTCONT.854836,R DA PORTELA,180,5350-025,ALFÂNDEGA DA FÉ,-6.965025374724108,41.34334218747706
pt.ine.add.PTCONT.854837,R 25 DE ABRIL,114,5350-062,ALFÂNDEGA DA FÉ,-6.9569772000487,41.34707784629702
pt.ine.add.PTCONT.854838,R 25 DE ABRIL,325,5350-062,ALFÂNDEGA DA FÉ,-6.959058835012891,41.34826059891698
pt.ine.add.PTCONT.854839,R DA GRICHA,10,5350-312,SAMBADE,-6.973628150951858,41.4139740037712
pt.ine.add.PTCONT.854840,R DA PORTELA,129,5350-231,EUCISIA,-7.010345049775024,41.312576762606554
pt.ine.add.PTCONT.854841,R DO PEREIRO,,5350-280,PARADA AFE,-6.88137546971725,41.30306185396141
pt.ine.add.PTCONT.854842,,,5350-055,ALFÂNDEGA DA FÉ,-6.928029388737698,41.36183273683511
pt.ine.add.PTCONT.854843,R DO OLMO,10,5350-241,FERRADOSA,-6.954539098747506,41.27485063089315
pt.ine.add.PTCONT.854844,R ENG ADELINO AMARO DA COSTA,,5350-071,ALFÂNDEGA DA FÉ,-6.957614011202602,41.344887414073895
pt.ine.add.PTCONT.854845,R DAS PEREIRAS,8,5350-242,FERRADOSA,-6.951466005618646,41.25664011837138
pt.ine.add.PTCONT.854846,AV ENG CAMILO LEMOS DE MENDONÇA,,5350-001,ALFÂNDEGA DA FÉ,-6.961457457261359,41.353759381765755
pt.ine.add.PTCONT.854847,R DO GAIVÃO,45,5350-250,GEBELIM,-6.932318935831662,41.441119621400276
pt.ine.add.PTCONT.854848,R DO CANTO,,5350-313,SAMBADE,-6.983670157446855,41.42848977170731
pt.ine.add.PTCONT.854849,BR DO VALE DO ABADE,1,5350-433,ALFÂNDEGA DA FÉ,-6.962076856019604,41.33586602923738
pt.ine.add.PTCONT.854850,R DO VALE,,5350-311,SAMBADE,-6.992892252479333,41.42037013384202
pt.ine.add.PTCONT.854851,R DA FONTE,,5350-420,VILARELHOS,-7.0398935235595586,41.34662586439123
pt.ine.add.PTCONT.854853,R DA TERRINXA,8,5350-420,VILARELHOS,-7.040723685138489,41.346282596352474
pt.ine.add.PTCONT.854870,LG DO PRADO,,5350-390,VALVERDE AFE,-6.987458633294632,41.32858525699858
pt.ine.add.PTCONT.854895,LG DO POCINHO,12,5350-402,VILAR CHÃO AFE,-6.86689215342534,41.33329142445288
pt.ine.add.PTCONT.854902,LG DA PRAÇA,12,5350-402,VILAR CHÃO AFE,-6.864758426098756,41.33367309971884
pt.ine.add.PTCONT.854903,BR DO CABEÇO DE STO ANTÓNIO,11,5350-402,VILAR CHÃO AFE,-6.866348444383751,41.3323760541331
pt.ine.add.PTCONT.854910,AV ENG CAMILO DE MENDONÇA,8,5350-420,VILARELHOS,-7.03938448423033,41.348484830425164
pt.ine.add.PTCONT.855481,R 25 DE DEZEMBRO,,5350-312,SAMBADE,-6.970866297294576,41.40519448211563
pt.ine.add.PTCONT.855497,LOTEAM VALE DO ABADE,,5350-999,ALFÂNDEGA DA FÉ,-6.962403534997619,41.33563525243556
pt.ine.add.PTCONT.855536,R 1 DE MAIO,,5350-061,ALFÂNDEGA DA FÉ,-6.960768244550233,41.352212705790244
pt.ine.add.PTCONT.855537,EM 592,,5350-280,PARADA AFE,-6.881408301853992,41.30633962232179
pt.ine.add.PTCONT.855538,R CAROLINO ABÍLIO URZE,,5350-046,ALFÂNDEGA DA FÉ,-6.963525204956307,41.341715260251554
pt.ine.add.PTCONT.855539,R CAROLINO ABÍLIO URZE,,5350-046,ALFÂNDEGA DA FÉ,-6.963525204956307,41.341715260251554
pt.ine.add.PTCONT.855540,LG DA PRAÇA,,5350-360,SOEIMA,-6.966145568542347,41.43241903026665
pt.ine.add.PTCONT.855748,R DA CAPELA,,5350-102,AGROBOM,-6.915639037066347,41.41807487859659
pt.ine.add.PTCONT.855749,R DO PINHAL,68,5350-038,ALFÂNDEGA DA FÉ,-6.961772600905302,41.35284419849684
pt.ine.add.PTCONT.855750,R DO RELÓGIO,15,5350-046,ALFÂNDEGA DA FÉ,-6.965535719307807,41.34219487290492
pt.ine.add.PTCONT.855751,R DE TRÁS DO CASTELO,,5350-024,ALFÂNDEGA DA FÉ,-6.966810843522842,41.341037301447805
pt.ine.add.PTCONT.855776,BC DAS AGRADINHAS,26,5350-007,ALFÂNDEGA DA FÉ,-6.963841385046993,41.34073705273464
pt.ine.add.PTCONT.855804,R DA EIRA DO PEREIRO,26,5350-241,FERRADOSA,-6.952787245375865,41.2747066260336
pt.ine.add.PTCONT.855805,LG DR JOÃO PESSOA TRIGO,14,5350-242,FERRADOSA,-6.950566909393662,41.256873993733834
pt.ine.add.PTCONT.855806,R DA RUECA,,5350-250,GEBELIM,-6.930421442627723,41.442144226173085
pt.ine.add.PTCONT.855833,LG DO CABECINHO,,5350-280,PARADA AFE,-6.88133552466691,41.303277512637116
pt.ine.add.PTCONT.855834,R DA PRACINHA,,5350-313,SAMBADE,-6.984556029466993,41.4298131650427
pt.ine.add.PTCONT.855835,R DO MÁRTIR S SEBASTIÃO,16,5350-312,SAMBADE,-6.9731092929922305,41.416246722106685
pt.ine.add.PTCONT.855836,R TEN COR ÁLVARO CEPEDA,,5350-312,SAMBADE,-6.973087088003478,41.414805898220045
pt.ine.add.PTCONT.855837,R DA FONTE DA TOUTELA,1,5350-312,SAMBADE,-6.977662274585267,41.412429930594236
pt.ine.add.PTCONT.855867,EN 315,25,5350-312,SAMBADE,-6.971849302716013,41.408418751733
pt.ine.add.PTCONT.855868,R DAS RODEIRAS,15,5350-352,SENDIM DA RIBEIRA,-6.906425108242953,41.30947220584939
pt.ine.add.PTCONT.855869,R DAS EIRAS,,5350-353,SENDIM DA SERRA,-6.980639806899766,41.29662533317
pt.ine.add.PTCONT.855893,BR DE CIMA,,5350-380,VALES AFE,-6.998781855300708,41.393299988621216
pt.ine.add.PTCONT.855894,R DA CORTINHA GRANDE,1,5350-402,VILAR CHÃO AFE,-6.864787258301123,41.33711287820674
pt.ine.add.PTCONT.855895,R DA IGREJA,1,5350-402,VILAR CHÃO AFE,-6.865378698199238,41.33310368940741
pt.ine.add.PTCONT.856215,SIT DO VALE DA MOUTA,,5350-420,VILARELHOS,-7.038210757647091,41.353641892153554
pt.ine.add.PTCONT.856229,R DO CALVÁRIO,4,5350-352,SENDIM DA RIBEIRA,-6.904666803540963,41.31217262343201
pt.ine.add.PTCONT.856251,,,5350-290,POMBAL AFE,-7.006331784496855,41.378454866518474
pt.ine.add.PTCONT.856252,R DO CANTO DA FONTE,2,5350-280,PARADA AFE,-6.880817222835373,41.30166017990287
pt.ine.add.PTCONT.856254,R DO CALVÁRIO,6,5350-352,SENDIM DA RIBEIRA,-6.904765360855696,41.31201160556878
pt.ine.add.PTCONT.856333,R DA CARVALHEIRA,5,5350-312,SAMBADE,-6.970057110678485,41.4136858520616
pt.ine.add.PTCONT.856334,R DA CAPELA,,5350-261,GOUVEIA AFE,-6.980181898554861,41.27448904186423
pt.ine.add.PTCONT.856335,R PROF JOÃO BAPTISTA VILARES,,5350-075,ALFÂNDEGA DA FÉ,-6.958856516975843,41.3448910955044
pt.ine.add.PTCONT.856336,R DA PORTELA,,5350-231,EUCISIA,-7.010873340637075,41.312410840439874
pt.ine.add.PTCONT.856337,TV DO PADRE,,5350-280,PARADA AFE,-6.88082766330761,41.30236259621233
pt.ine.add.PTCONT.856338,,,5350-290,POMBAL AFE,-7.002605636607498,41.37756295401173
pt.ine.add.PTCONT.856339,LG DAS ALMINHAS,3,5350-312,SAMBADE,-6.9720976172938345,41.40924960380199
pt.ine.add.PTCONT.856340,R 25 DE DEZEMBRO,20,5350-312,SAMBADE,-6.97122164608905,41.406728711203584
pt.ine.add.PTCONT.856341,R DE TRÁS DO CASTELO,6,5350-024,ALFÂNDEGA DA FÉ,-6.966120556999843,41.34021995613028
pt.ine.add.PTCONT.856342,R DO MOREIRA,,5350-242,FERRADOSA,-6.949937150304719,41.25738975382111
pt.ine.add.PTCONT.856343,R DA PENA DO GATO,4,5350-242,FERRADOSA,-6.950092235412469,41.25739134761804
pt.ine.add.PTCONT.856344,R DO QUEBRA COSTAS,,5350-010,ALFÂNDEGA DA FÉ,-6.964885616266818,41.34113482385818
pt.ine.add.PTCONT.856345,LG DO TERREIRO,,5350-300,SALDONHA,-6.874597021182666,41.406468601251916
pt.ine.add.PTCONT.856346,R DA LAMEIRA,,5350-242,FERRADOSA,-6.953073532043739,41.25549509362487
pt.ine.add.PTCONT.856347,AV ENG CAMILO LEMOS DE MENDONÇA,,5350-001,ALFÂNDEGA DA FÉ,-6.961455358526687,41.35387641029139
pt.ine.add.PTCONT.856348,R MARIA DO CARMO PAULA,191,5350-002,ALFÂNDEGA DA FÉ,-6.962412325956782,41.3391468484938
pt.ine.add.PTCONT.856349,R DA RUECA,96,5350-250,GEBELIM,-6.930527288316225,41.441596107535965
pt.ine.add.PTCONT.856350,R DA RUECA,109,5350-250,GEBELIM,-6.930607537022096,41.442434289899545
pt.ine.add.PTCONT.856351,AV DR FRANCISCO SÁ CARNEIRO,734,5350-005,ALFÂNDEGA DA FÉ,-6.964648477120087,41.33501879329235
pt.ine.add.PTCONT.856352,R DE CIMA,20,5350-250,GEBELIM,-6.932647134457629,41.44278873032927
pt.ine.add.PTCONT.856353,BR DO VALE DO ABADE,18,5350-433,ALFÂNDEGA DA FÉ,-6.96210637606427,41.334884908218584
pt.ine.add.PTCONT.856354,R DO EIRÓ,,5350-360,SOEIMA,-6.964546134814253,41.434212541347755
pt.ine.add.PTCONT.856355,EN 315,110,5350-312,SAMBADE,-6.978508272103952,41.41463534050132
pt.ine.add.PTCONT.856367,R DA BOTICA,,5350-390,VALVERDE AFE,-6.9888636953722,41.330886222335074
pt.ine.add.PTCONT.856368,R 25 DE MARÇO,,5350-390,VALVERDE AFE,-6.989555635474567,41.33025382413128
pt.ine.add.PTCONT.856388,R DA SOALHEIRA,26,5350-402,VILAR CHÃO AFE,-6.866466646042438,41.33367390644016
pt.ine.add.PTCONT.856401,LG DO CRUZEIRO,4,5350-420,VILARELHOS,-7.038591716982787,41.34730678892212
pt.ine.add.PTCONT.856402,R DO RIBEIRO DO OLMO,11,5350-420,VILARELHOS,-7.041633755752884,41.348308100714895
pt.ine.add.PTCONT.856409,R DO OUTÃO,1,5350-420,VILARELHOS,-7.038776678279344,41.347677706975894
pt.ine.add.PTCONT.857069,BR DA FONTE,,5350-262,GOUVEIA AFE,-6.999051105475267,41.288965768376926
pt.ine.add.PTCONT.857070,R DO SANTUÁRIO,7,5350-220,CEREJAIS,-6.9228632539344375,41.29360128171854
pt.ine.add.PTCONT.857071,R DE S BRAZ,26,5350-232,EUCISIA,-7.035919548330415,41.324987699540564
pt.ine.add.PTCONT.857072,R DO CEMITÉRIO,,5350-261,GOUVEIA AFE,-6.9825450814139325,41.2744856743094
pt.ine.add.PTCONT.857073,R DE S JOÃO DE DEUS,214,5350-029,ALFÂNDEGA DA FÉ,-6.965721374970127,41.342502887531225
pt.ine.add.PTCONT.857074,R DR MÁRIO MIRANDA,158,5350-069,ALFÂNDEGA DA FÉ,-6.959133283461285,41.34744200845656
pt.ine.add.PTCONT.857075,EN 315,,5350-312,SAMBADE,-6.976161104708812,41.41345027562956
pt.ine.add.PTCONT.857076,LG DO POVO,,5350-280,PARADA AFE,-6.8811941101759295,41.302555664159186
pt.ine.add.PTCONT.857077,EN 315,,5350-312,SAMBADE,-6.971929146819088,41.41199404935124
pt.ine.add.PTCONT.857078,TV DE TRÁS DO CASTELO,9,5350-033,ALFÂNDEGA DA FÉ,-6.966991362603802,41.341633385518655
pt.ine.add.PTCONT.857079,R DO PRADO A,7,5350-300,SALDONHA,-6.874874743637538,41.407570093031566
pt.ine.add.PTCONT.857080,R DO PRADO A,,5350-300,SALDONHA,-6.874709116643435,41.40685698748954
pt.ine.add.PTCONT.857081,R DO TERREIRO,,5350-101,AGROBOM,-6.916616300567282,41.39582797296706
pt.ine.add.PTCONT.857082,BR DO CANTO SALGUEIRO,5,5350-242,FERRADOSA,-6.953553886692352,41.25598623141715
pt.ine.add.PTCONT.857083,R DA PRACINHA,18,5350-300,SALDONHA,-6.875091605786,41.4056276606825
pt.ine.add.PTCONT.857084,R DA PRACINHA,,5350-313,SAMBADE,-6.983698311056154,41.429606516003226
pt.ine.add.PTCONT.857085,R DA SANTA CRUZ,,5350-001,ALFÂNDEGA DA FÉ,-6.961956132086491,41.34927154108767
pt.ine.add.PTCONT.857086,R DA BARREIRA,,5350-360,SOEIMA,-6.965315393401911,41.43334699250623
pt.ine.add.PTCONT.857128,LG DO POCINHO,3,5350-402,VILAR CHÃO AFE,-6.866367180820284,41.33325863556012
pt.ine.add.PTCONT.857732,R DO PINHAL,,5350-038,ALFÂNDEGA DA FÉ,-6.962578067676053,41.35323955966098
pt.ine.add.PTCONT.857757,R MARIA DO CARMO PAULA,117,5350-002,ALFÂNDEGA DA FÉ,-6.9620307344073025,41.33844066483019
pt.ine.add.PTCONT.857786,R DO PORTO,,5350-039,ALFÂNDEGA DA FÉ,-6.965184597172465,41.33911199001973
pt.ine.add.PTCONT.857787,R DO PORTO,,5350-039,ALFÂNDEGA DA FÉ,-6.965184597172465,41.33911199001973
pt.ine.add.PTCONT.857788,R DO PORTO,,5350-039,ALFÂNDEGA DA FÉ,-6.965184597172465,41.33911199001973
pt.ine.add.PTCONT.857809,R ÁLVARO DA PONTE,16,5350-064,ALFÂNDEGA DA FÉ,-6.9564963765787855,41.34591143478852
pt.ine.add.PTCONT.857907,R DO CEMITÉRIO,,5350-034,ALFÂNDEGA DA FÉ,-6.969610679397356,41.34885397729421
pt.ine.add.PTCONT.857908,R DAS EIRAS,,5350-027,ALFÂNDEGA DA FÉ,-6.965847723250629,41.34412486319121
pt.ine.add.PTCONT.857909,LG DAS FRAGUINHAS,106,5350-012,ALFÂNDEGA DA FÉ,-6.9639542318838314,41.341107357459556
pt.ine.add.PTCONT.857910,R MARIA DO CARMO PAULA,143,5350-002,ALFÂNDEGA DA FÉ,-6.962204579909811,41.33873956119951
pt.ine.add.PTCONT.857911,R MARIA DO CARMO PAULA,80,5350-002,ALFÂNDEGA DA FÉ,-6.961458691590311,41.33836281132109
pt.ine.add.PTCONT.857912,R DR MÁRIO MIRANDA,30,5350-069,ALFÂNDEGA DA FÉ,-6.958792857432359,41.346439107965615
pt.ine.add.PTCONT.857913,R PROF JOÃO BAPTISTA VILARES,203,5350-075,ALFÂNDEGA DA FÉ,-6.959933536215156,41.346126603991124
pt.ine.add.PTCONT.857914,R CONS EDUARDO COELHO,154,5350-055,ALFÂNDEGA DA FÉ,-6.965865682121367,41.34245032818798
pt.ine.add.PTCONT.857915,R DO ABEXEIRO,17,5350-220,CEREJAIS,-6.921120355072254,41.29424022824953
pt.ine.add.PTCONT.857916,R DO ABEXEIRO,25,5350-220,CEREJAIS,-6.920248511734772,41.294258056421086
pt.ine.add.PTCONT.857917,R DA IGREJA,18,5350-220,CEREJAIS,-6.923078892588401,41.29420681094315
pt.ine.add.PTCONT.857918,R DA IGREJA,1,5350-241,FERRADOSA,-6.955358179364751,41.27376953549567
pt.ine.add.PTCONT.857919,R DE CIMA,16,5350-250,GEBELIM,-6.9323495421960075,41.44270459096651
pt.ine.add.PTCONT.857920,R DA BARREIRA,64,5350-250,GEBELIM,-6.931182108732032,41.44177402175196
pt.ine.add.PTCONT.863475,,,5350-055,ALFÂNDEGA DA FÉ,-6.927936032497701,41.36689189927471
pt.ine.add.PTCONT.857921,LG DO POVO,,5350-280,PARADA AFE,-6.8812283731593,41.302637071758106
pt.ine.add.PTCONT.857922,R DE CIMA,,5350-280,PARADA AFE,-6.880844648892891,41.30272293622542
pt.ine.add.PTCONT.857923,R DE CIMA,,5350-280,PARADA AFE,-6.880434931604892,41.30229529535288
pt.ine.add.PTCONT.857924,R DA IGREJA,,5350-300,SALDONHA,-6.875601910601263,41.40583132167049
pt.ine.add.PTCONT.857925,R DA ROSEIRA,,5350-312,SAMBADE,-6.973024251991469,41.41497633586939
pt.ine.add.PTCONT.857926,R DA CAPELA,,5350-360,SOEIMA,-6.966519282067994,41.43226075380127
pt.ine.add.PTCONT.857927,R PRINCIPAL,,5350-370,VALE PEREIRO,-6.898873993336027,41.38307876295932
pt.ine.add.PTCONT.857928,BR DE CIMA,,5350-380,VALES AFE,-6.998209075092519,41.392547025212956
pt.ine.add.PTCONT.857929,R DO CABECINHO,3,5350-402,VILAR CHÃO AFE,-6.8632859618787165,41.3362949819869
pt.ine.add.PTCONT.857930,TV DE VALE DE NABAIS A,3,5350-402,VILAR CHÃO AFE,-6.866371440483074,41.3348883750545
pt.ine.add.PTCONT.857931,R DO REBALDINHO,10,5350-420,VILARELHOS,-7.0412957278847355,41.34780067692631
pt.ine.add.PTCONT.857932,R DE TRÁS DO ADRO,,5350-432,VILARES DE VILARIÇA,-7.039380317031708,41.39226148132706
pt.ine.add.PTCONT.858420,TV 6 DE JANEIRO,,5350-312,SAMBADE,-6.970372681411711,41.41342793314596
pt.ine.add.PTCONT.858421,R DO CASTELO,21,5350-420,VILARELHOS,-7.039208542674485,41.34471953622011
pt.ine.add.PTCONT.858464,R DAS EIRAS,3,5350-280,PARADA AFE,-6.881923930114632,41.30497663968759
pt.ine.add.PTCONT.858497,R DO CIMO DO PRADO,,5350-016,ALFÂNDEGA DA FÉ,-6.960722886058829,41.351410901853164
pt.ine.add.PTCONT.858547,R 25 DE ABRIL,345,5350-062,ALFÂNDEGA DA FÉ,-6.959188141207907,41.34837896807097
pt.ine.add.PTCONT.858735,R DO FUNDO DO OLIVAL,,5350-101,AGROBOM,-6.914976105992889,41.39465813780923
pt.ine.add.PTCONT.858774,R DE TRÁS,28,5350-031,ALFÂNDEGA DA FÉ,-6.964711415752463,41.34352808121244
pt.ine.add.PTCONT.858775,R 25 DE ABRIL,47,5350-062,ALFÂNDEGA DA FÉ,-6.9566777859745486,41.346453520335565
pt.ine.add.PTCONT.858814,R CMDT JEREMIAS FERREIRA,49,5350-022,ALFÂNDEGA DA FÉ,-6.959113864457783,41.34386728215442
pt.ine.add.PTCONT.858815,R DAS FLORES,,5350-068,ALFÂNDEGA DA FÉ,-6.960598740594101,41.351004464106914
pt.ine.add.PTCONT.858816,R DE TRÁS DO CASTELO,16,5350-024,ALFÂNDEGA DA FÉ,-6.966558985963394,41.342430346708504
pt.ine.add.PTCONT.858817,LG DA MISERICÓRDIA,95,5350-010,ALFÂNDEGA DA FÉ,-6.965539533681604,41.34131253353201
pt.ine.add.PTCONT.858903,R DO PORTO,454,5350-039,ALFÂNDEGA DA FÉ,-6.967573309848369,41.338541427834066
pt.ine.add.PTCONT.858904,R DIREITA,14,5350-220,CEREJAIS,-6.921509977146134,41.293830150296614
pt.ine.add.PTCONT.858905,R DA CABINE,15,5350-241,FERRADOSA,-6.955910675527956,41.27291080704148
pt.ine.add.PTCONT.858906,R DA CRUZ,7,5350-242,FERRADOSA,-6.951023557957821,41.25735589445477
pt.ine.add.PTCONT.858942,R DE CIMA,,5350-250,GEBELIM,-6.93136239196344,41.44237915280557
pt.ine.add.PTCONT.858943,R DE BAIXO,,5350-280,PARADA AFE,-6.880691820197415,41.30197395125413
pt.ine.add.PTCONT.858944,R PRINCIPAL,,5350-311,SAMBADE,-6.992372304338141,41.42137339919513
pt.ine.add.PTCONT.858979,TV DAS FLORES,13,5350-312,SAMBADE,-6.9733197441758135,41.414502116401124
pt.ine.add.PTCONT.858980,R DO BAIRRINHO,,5350-312,SAMBADE,-6.96947863902582,41.41259054844538
pt.ine.add.PTCONT.858981,R DO BAIRRINHO,,5350-312,SAMBADE,-6.970241225266807,41.41275132302106
pt.ine.add.PTCONT.858982,R DA FONTE,4,5350-352,SENDIM DA RIBEIRA,-6.89299936486674,41.28887148942993
pt.ine.add.PTCONT.858983,R DAS EIRAS,,5350-353,SENDIM DA SERRA,-6.980873686243701,41.29758209139859
pt.ine.add.PTCONT.859020,R DO LOUREIRO,,5350-370,VALE PEREIRO,-6.898507217169906,41.3828767450033
pt.ine.add.PTCONT.859021,R 25 DE MARÇO,,5350-390,VALVERDE AFE,-6.989326355023997,41.330386603917844
pt.ine.add.PTCONT.859049,R DO FUNDO,,5350-431,VILARES DE VILARIÇA,-7.028826116806234,41.4097180663043
pt.ine.add.PTCONT.859050,R DO FRAGÃO,,5350-432,VILARES DE VILARIÇA,-7.032182493953453,41.39367846133005
pt.ine.add.PTCONT.859182,R DA CAPELA,,5350-360,SOEIMA,-6.9664544767085905,41.43253921195281
pt.ine.add.PTCONT.859199,R DO SANTUÁRIO,20,5350-220,CEREJAIS,-6.923559244756573,41.29276222980566
pt.ine.add.PTCONT.859208,AV DR FRANCISCO SÁ CARNEIRO,,5350-005,ALFÂNDEGA DA FÉ,-6.966938942781088,41.33318722895422
pt.ine.add.PTCONT.859209,AV DR FRANCISCO SÁ CARNEIRO,,5350-005,ALFÂNDEGA DA FÉ,-6.966938942781088,41.33318722895422
pt.ine.add.PTCONT.859210,AV DR FRANCISCO SÁ CARNEIRO,,5350-005,ALFÂNDEGA DA FÉ,-6.966938942781088,41.33318722895422
pt.ine.add.PTCONT.859211,AV DR FRANCISCO SÁ CARNEIRO,,5350-005,ALFÂNDEGA DA FÉ,-6.966938942781088,41.33318722895422
pt.ine.add.PTCONT.859212,AV DR FRANCISCO SÁ CARNEIRO,,5350-005,ALFÂNDEGA DA FÉ,-6.966938942781088,41.33318722895422
pt.ine.add.PTCONT.859213,AV DR FRANCISCO SÁ CARNEIRO,,5350-005,ALFÂNDEGA DA FÉ,-6.966938942781088,41.33318722895422
pt.ine.add.PTCONT.859214,AV DR FRANCISCO SÁ CARNEIRO,,5350-005,ALFÂNDEGA DA FÉ,-6.966938942781088,41.33318722895422
pt.ine.add.PTCONT.859215,AV DR FRANCISCO SÁ CARNEIRO,,5350-005,ALFÂNDEGA DA FÉ,-6.966938942781088,41.33318722895422
pt.ine.add.PTCONT.859216,AV DR FRANCISCO SÁ CARNEIRO,,5350-005,ALFÂNDEGA DA FÉ,-6.966938942781088,41.33318722895422
pt.ine.add.PTCONT.859217,AV DR FRANCISCO SÁ CARNEIRO,,5350-005,ALFÂNDEGA DA FÉ,-6.966938942781088,41.33318722895422
pt.ine.add.PTCONT.859218,AV DR FRANCISCO SÁ CARNEIRO,,5350-005,ALFÂNDEGA DA FÉ,-6.966938942781088,41.33318722895422
pt.ine.add.PTCONT.859219,AV DR FRANCISCO SÁ CARNEIRO,,5350-005,ALFÂNDEGA DA FÉ,-6.966938942781088,41.33318722895422
pt.ine.add.PTCONT.859220,AV DR FRANCISCO SÁ CARNEIRO,,5350-005,ALFÂNDEGA DA FÉ,-6.966938942781088,41.33318722895422
pt.ine.add.PTCONT.859221,AV DR FRANCISCO SÁ CARNEIRO,,5350-005,ALFÂNDEGA DA FÉ,-6.966938942781088,41.33318722895422
pt.ine.add.PTCONT.859235,R 25 DE ABRIL,331,5350-062,ALFÂNDEGA DA FÉ,-6.959129542040081,41.34831534335079
pt.ine.add.PTCONT.859237,R DO SANTUÁRIO,25,5350-220,CEREJAIS,-6.923127886960473,41.29284773523221
pt.ine.add.PTCONT.859238,R DR GAMA PIMENTEL,,5350-231,EUCISIA,-7.013786914660798,41.31312351039921
pt.ine.add.PTCONT.859239,R DO BAIRRO DO MEIO,,5350-312,SAMBADE,-6.97412781210836,41.41210625774484
pt.ine.add.PTCONT.859240,R DO SANTO CRISTO,5,5350-312,SAMBADE,-6.976464392598322,41.4125349422547
pt.ine.add.PTCONT.859241,LG DO POMBALZINHO,25,5350-015,ALFÂNDEGA DA FÉ,-6.964053041758353,41.34159456960687
pt.ine.add.PTCONT.859242,R DE CIMA,,5350-280,PARADA AFE,-6.880848093624601,41.30254289610394
pt.ine.add.PTCONT.859243,R DA PORTELA,126,5350-231,EUCISIA,-7.0102188089747175,41.312278401674526
pt.ine.add.PTCONT.859244,R DO RELÓGIO,31,5350-046,ALFÂNDEGA DA FÉ,-6.965336672719204,41.341967756801665
pt.ine.add.PTCONT.859245,EN 315,,5350-312,SAMBADE,-6.985584992885106,41.42505145332784
pt.ine.add.PTCONT.859246,R ALBERTO JOSÉ VERGUEIRO,,5350-063,ALFÂNDEGA DA FÉ,-6.957870339281026,41.34525018612566
pt.ine.add.PTCONT.859247,R DAS EIRAS,,5350-101,AGROBOM,-6.9160199670615095,41.39702816923553
pt.ine.add.PTCONT.859248,R DO CASTELO,46,5350-033,ALFÂNDEGA DA FÉ,-6.966431873236375,41.34151966844958
pt.ine.add.PTCONT.859249,R DA CAPELA,10,5350-352,SENDIM DA RIBEIRA,-6.892786919379343,41.28937341909206
pt.ine.add.PTCONT.859250,R DO LAGAR,,5350-101,AGROBOM,-6.916042838880759,41.39644316714503
pt.ine.add.PTCONT.859251,R DA COSTINHA,160,5350-250,GEBELIM,-6.927874300894132,41.44464760288706
pt.ine.add.PTCONT.859252,BR DAS EIRAS,,5350-353,SENDIM DA SERRA,-6.981556633390363,41.29744486316897
pt.ine.add.PTCONT.859253,R DA PRACINHA,,5350-313,SAMBADE,-6.984902589363287,41.4298346321454
pt.ine.add.PTCONT.859254,,,5350-353,SENDIM DA SERRA,-6.977658520838488,41.293723189584
pt.ine.add.PTCONT.859255,R DA BARREIRA,57,5350-250,GEBELIM,-6.931491658453906,41.441858289043175
pt.ine.add.PTCONT.859272,R DE NSA SRA DO SOCORRO,,5350-432,VILARES DE VILARIÇA,-7.037213961611675,41.39239393217454
pt.ine.add.PTCONT.859282,R DE S JOÃO,,5350-432,VILARES DE VILARIÇA,-7.0388391072570835,41.39031151180673
pt.ine.add.PTCONT.859988,BR DA PORTELA,,5350-231,EUCISIA,-7.007497602829581,41.3121887934498
pt.ine.add.PTCONT.859908,R DO OLIVAL,,5350-101,AGROBOM,-6.916023570773732,41.394912324777394
pt.ine.add.PTCONT.859924,R 25 DE ABRIL,110,5350-062,ALFÂNDEGA DA FÉ,-6.9557747636849205,41.3461741697478
pt.ine.add.PTCONT.859983,R DA PORTELA,164,5350-025,ALFÂNDEGA DA FÉ,-6.964907369273834,41.34325995492296
pt.ine.add.PTCONT.859984,R ENG VIRIATO CAMPOS,23,5350-061,ALFÂNDEGA DA FÉ,-6.959774785703803,41.34897920489043
pt.ine.add.PTCONT.859985,R DR MÁRIO MIRANDA,,5350-069,ALFÂNDEGA DA FÉ,-6.959618529824032,41.34836535010119
pt.ine.add.PTCONT.859986,R DA CAPELA,,5350-261,GOUVEIA AFE,-6.980175351953465,41.27418284147079
pt.ine.add.PTCONT.859987,R DE S BRAZ,,5350-232,EUCISIA,-7.0361325467634055,41.325106780785724
pt.ine.add.PTCONT.859989,R DR GAMA PIMENTEL,,5350-231,EUCISIA,-7.013644404263586,41.313077104762705
pt.ine.add.PTCONT.859990,R DE BAIXO,,5350-280,PARADA AFE,-6.88095427161573,41.30198581068324
pt.ine.add.PTCONT.859991,R DO BAIRRINHO,,5350-312,SAMBADE,-6.969420937517195,41.412472916011474
pt.ine.add.PTCONT.859992,AV ENG CAMILO LEMOS DE MENDONÇA,,5350-001,ALFÂNDEGA DA FÉ,-6.959961157462827,41.34525351216274
pt.ine.add.PTCONT.859993,R DA PORTELA,,5350-231,EUCISIA,-7.010527392351832,41.312389458906544
pt.ine.add.PTCONT.859994,R 25 DE ABRIL,57,5350-062,ALFÂNDEGA DA FÉ,-6.956760434956949,41.34650838831265
pt.ine.add.PTCONT.859995,R BRANCO RODRIGUES,197,5350-067,ALFÂNDEGA DA FÉ,-6.958724032784633,41.34362020052232
pt.ine.add.PTCONT.859996,BC 13 DE JANEIRO,169,5350-018,ALFÂNDEGA DA FÉ,-6.964787803863249,41.341259884895564
pt.ine.add.PTCONT.859997,BR DE TRÁS DO CASTELO,29,5350-052,ALFÂNDEGA DA FÉ,-6.966234757069501,41.339176666233705
pt.ine.add.PTCONT.859998,R DO PORTO,15,5350-039,ALFÂNDEGA DA FÉ,-6.964040040396855,41.339649603991724
pt.ine.add.PTCONT.859999,LG DA PRAÇA,,5350-250,GEBELIM,-6.931229466042696,41.44244979353704
pt.ine.add.PTCONT.860000,AV DA LIBERDADE,,5350-001,ALFÂNDEGA DA FÉ,-6.962583420171423,41.34627063836782
pt.ine.add.PTCONT.860001,R DO PORTO,420,5350-039,ALFÂNDEGA DA FÉ,-6.9671886574448445,41.338610087269494
pt.ine.add.PTCONT.860002,R DO LOMBO,18,5350-220,CEREJAIS,-6.922738807134648,41.29516665364542
pt.ine.add.PTCONT.860003,R DA TERRINXA,14,5350-420,VILARELHOS,-7.040594233302446,41.34616431700229
pt.ine.add.PTCONT.860018,R DA PORTELA,,5350-390,VALVERDE AFE,-6.989714337916279,41.33074161075463
pt.ine.add.PTCONT.860025,R DA BARRAGEM,,5350-432,VILARES DE VILARIÇA,-7.041320226206675,41.391370520821184
pt.ine.add.PTCONT.860044,R DA IGREJA,4,5350-420,VILARELHOS,-7.03835737785607,41.34845705622936
pt.ine.add.PTCONT.860054,R DO OUTÃO,4,5350-420,VILARELHOS,-7.038932132970493,41.34767018128604
pt.ine.add.PTCONT.860180,R PRINCIPAL,,5350-370,VALE PEREIRO,-6.8982135488217295,41.38323374414875
pt.ine.add.PTCONT.860181,R PRINCIPAL,,5350-370,VALE PEREIRO,-6.898138768500758,41.38339500931573
pt.ine.add.PTCONT.860182,R DA IGREJA,,5350-370,VALE PEREIRO,-6.8975394672503905,41.38410887637009
pt.ine.add.PTCONT.860755,R ENG VIRIATO CAMPOS,24,5350-069,ALFÂNDEGA DA FÉ,-6.959774785703803,41.34897920489043
pt.ine.add.PTCONT.860778,R DO CEMITÉRIO,4,5350-352,SENDIM DA RIBEIRA,-6.90315377171669,41.31007656842771
pt.ine.add.PTCONT.860798,R BRANCO RODRIGUES,88,5350-067,ALFÂNDEGA DA FÉ,-6.957638910022361,41.34416736037384
pt.ine.add.PTCONT.860799,R BRANCO RODRIGUES,88,5350-067,ALFÂNDEGA DA FÉ,-6.957638910022361,41.34416736037384
pt.ine.add.PTCONT.860856,AV ENG CAMILO LEMOS DE MENDONÇA,1,5350-001,ALFÂNDEGA DA FÉ,-6.9609427813795195,41.34981045796598
pt.ine.add.PTCONT.860857,AV ENG CAMILO LEMOS DE MENDONÇA,741,5350-001,ALFÂNDEGA DA FÉ,-6.960901132061423,41.34946788763772
pt.ine.add.PTCONT.860858,AV ENG CAMILO LEMOS DE MENDONÇA,741,5350-001,ALFÂNDEGA DA FÉ,-6.960901132061423,41.34946788763772
pt.ine.add.PTCONT.860859,AV ENG CAMILO LEMOS DE MENDONÇA,741,5350-001,ALFÂNDEGA DA FÉ,-6.960901132061423,41.34946788763772
pt.ine.add.PTCONT.860860,AV ENG CAMILO LEMOS DE MENDONÇA,741,5350-001,ALFÂNDEGA DA FÉ,-6.960901132061423,41.34946788763772
pt.ine.add.PTCONT.860861,AV ENG CAMILO LEMOS DE MENDONÇA,741,5350-001,ALFÂNDEGA DA FÉ,-6.960901132061423,41.34946788763772
pt.ine.add.PTCONT.860862,R DE BAIXO,,5350-280,PARADA AFE,-6.881045638206859,41.30220289778019
pt.ine.add.PTCONT.860863,R DO SANTO CRISTO,3,5350-312,SAMBADE,-6.976577426177738,41.412905232607045
pt.ine.add.PTCONT.860864,R PROF JOÃO BAPTISTA VILARES,211,5350-075,ALFÂNDEGA DA FÉ,-6.95992304484414,41.346045462392595
pt.ine.add.PTCONT.860865,EN 315,,5350-312,SAMBADE,-6.971912323888511,41.40958087278855
pt.ine.add.PTCONT.860866,R DAS RODEIRAS,,5350-352,SENDIM DA RIBEIRA,-6.90656770034082,41.30950974105166
pt.ine.add.PTCONT.860867,R DE BAIXO,2,5350-300,SALDONHA,-6.87522937666885,41.405305033071514
pt.ine.add.PTCONT.860868,LG DO CABECINHO,,5350-352,SENDIM DA RIBEIRA,-6.9062133695440755,41.309938150711574
pt.ine.add.PTCONT.860869,R NOVA,,5350-352,SENDIM DA RIBEIRA,-6.906212615694753,41.30870461094026
pt.ine.add.PTCONT.860870,BR DAS EIRAS,,5350-353,SENDIM DA SERRA,-6.980986823639544,41.2972590823968
pt.ine.add.PTCONT.860871,R DA IGREJA,,5350-101,AGROBOM,-6.916166553997279,41.39558011526135
pt.ine.add.PTCONT.860872,R DE CIMA,29,5350-250,GEBELIM,-6.933217565136951,41.44300176699729
pt.ine.add.PTCONT.860873,EN 315,,5350-312,SAMBADE,-6.9752238853548505,41.41369295167868
pt.ine.add.PTCONT.860891,R DA LAMEIRA,,5350-432,VILARES DE VILARIÇA,-7.033038003761308,41.3925791759663
pt.ine.add.PTCONT.860904,R DO ALTO,27,5350-402,VILAR CHÃO AFE,-6.8638359505307385,41.33504051422872
pt.ine.add.PTCONT.860926,LG DO CRUZEIRO,,5350-420,VILARELHOS,-7.038929079831388,41.34713892340861
pt.ine.add.PTCONT.860927,R DO OUTÃO,3,5350-420,VILARELHOS,-7.039131153645872,41.34791517814155
pt.ine.add.PTCONT.861544,R DAS GOLFEIRAS,,5350-432,VILARES DE VILARIÇA,-7.039840437568692,41.39120340452202
pt.ine.add.PTCONT.861554,R DAS FLORES,472,5350-068,ALFÂNDEGA DA FÉ,-6.960471212514787,41.35012078806367
pt.ine.add.PTCONT.861574,AV DR FRANCISCO SÁ CARNEIRO,83,5350-005,ALFÂNDEGA DA FÉ,-6.962595878347347,41.34023818263389
pt.ine.add.PTCONT.861585,R DE CIMA,2,5350-280,PARADA AFE,-6.880415019366503,41.302087989381285
pt.ine.add.PTCONT.861586,R DO MÁRTIR S SEBASTIÃO,31,5350-220,CEREJAIS,-6.924681918784834,41.29597041055596
pt.ine.add.PTCONT.861624,R DOS CAVALEIROS DAS ESPORAS DOURADAS,,5350-432,VILARES DE VILARIÇA,-7.037765506611983,41.39087754013997
pt.ine.add.PTCONT.861675,R DA IGREJA,11,5350-220,CEREJAIS,-6.923037759614717,41.29449450367183
pt.ine.add.PTCONT.861676,R DA IGREJA,,5350-370,VALE PEREIRO,-6.898525534580924,41.383804329564015
pt.ine.add.PTCONT.861677,R DIREITA,44,5350-220,CEREJAIS,-6.920035828375389,41.2941387642894
pt.ine.add.PTCONT.861678,R DO MOREIRA,,5350-261,GOUVEIA AFE,-6.980927277358714,41.27418136603704
pt.ine.add.PTCONT.861679,R DO BAIRRINHO,,5350-312,SAMBADE,-6.96940399848396,41.41275186100639
pt.ine.add.PTCONT.861680,R DE S JOÃO DE DEUS,156,5350-029,ALFÂNDEGA DA FÉ,-6.965186736096983,41.34233539335337
pt.ine.add.PTCONT.861681,R DE STO ANTÓNIO,16,5350-312,SAMBADE,-6.976402345892421,41.41333565263379
pt.ine.add.PTCONT.861682,R 25 DE DEZEMBRO,,5350-312,SAMBADE,-6.970977843399522,41.405645797145034
pt.ine.add.PTCONT.861683,R DA EIRA DO PEREIRO,16,5350-241,FERRADOSA,-6.9540950478342,41.274323854326745
pt.ine.add.PTCONT.861684,R DO CALVÁRIO,,5350-352,SENDIM DA RIBEIRA,-6.905836696824559,41.31219410826931
pt.ine.add.PTCONT.861685,SIT DO CORGUINHO,,5350-250,GEBELIM,-6.926245180619162,41.44538683134953
pt.ine.add.PTCONT.861686,R DA ESTRADA,,5350-313,SAMBADE,-6.98392986130972,41.42936572856573
pt.ine.add.PTCONT.861687,R DO BARREIRO,,5350-353,SENDIM DA SERRA,-6.978343974290495,41.29344194241913
pt.ine.add.PTCONT.861688,R PRINCIPAL,,5350-313,SAMBADE,-6.983727898361156,41.42860739718625
pt.ine.add.PTCONT.861689,R DA SANTA CRUZ,17,5350-001,ALFÂNDEGA DA FÉ,-6.961996496099722,41.34968612873731
pt.ine.add.PTCONT.861690,BR DO MEIO DA QUINTA,,5350-311,SAMBADE,-6.991982675628036,41.42108141502044
pt.ine.add.PTCONT.861708,R DA FONTAREJA,,5350-432,VILARES DE VILARIÇA,-7.037936040756908,41.39069008343937
pt.ine.add.PTCONT.861726,R DA SOALHEIRA,24,5350-402,VILAR CHÃO AFE,-6.866407976730583,41.333619237712334
pt.ine.add.PTCONT.861727,R DO ALTO,8,5350-402,VILAR CHÃO AFE,-6.86422209533883,41.33422542452532
pt.ine.add.PTCONT.862347,BR DO VALE DO ABADE,12,5350-433,ALFÂNDEGA DA FÉ,-6.962276504709955,41.33539085573293
pt.ine.add.PTCONT.862365,R PRINCIPAL,,5350-431,VILARES DE VILARIÇA,-7.028558344422117,41.40858101931255
pt.ine.add.PTCONT.862391,AV DR FRANCISCO SÁ CARNEIRO,,5350-005,ALFÂNDEGA DA FÉ,-6.962769840055502,41.33852921846562
pt.ine.add.PTCONT.862392,AV DR FRANCISCO SÁ CARNEIRO,,5350-005,ALFÂNDEGA DA FÉ,-6.962769840055502,41.33852921846562
pt.ine.add.PTCONT.862393,AV DR FRANCISCO SÁ CARNEIRO,,5350-005,ALFÂNDEGA DA FÉ,-6.962769840055502,41.33852921846562
pt.ine.add.PTCONT.862394,AV DR FRANCISCO SÁ CARNEIRO,,5350-005,ALFÂNDEGA DA FÉ,-6.962769840055502,41.33852921846562
pt.ine.add.PTCONT.862418,R DO CABEÇO DAS EIRAS,,5350-370,VALE PEREIRO,-6.894737269411717,41.386248656649485
pt.ine.add.PTCONT.862419,R DO SANTUÁRIO,8,5350-220,CEREJAIS,-6.92332842920404,41.29362417970294
pt.ine.add.PTCONT.862420,R DO ADRO,29,5350-232,EUCISIA,-7.035988483780993,41.325150427112476
pt.ine.add.PTCONT.862421,R CAMILO DE MENDONÇA,153,5350-045,ALFÂNDEGA DA FÉ,-6.9644480667802915,41.34221984802354
pt.ine.add.PTCONT.862422,R CAMILO DE MENDONÇA,153,5350-045,ALFÂNDEGA DA FÉ,-6.9644480667802915,41.34221984802354
pt.ine.add.PTCONT.862423,R DE STO ANTÓNIO,,5350-312,SAMBADE,-6.976328860722058,41.412758673437146
pt.ine.add.PTCONT.862424,LG DO POMBALZINHO,15,5350-015,ALFÂNDEGA DA FÉ,-6.964151500068807,41.3414335003369
pt.ine.add.PTCONT.862425,R DAS FLORES,10,5350-068,ALFÂNDEGA DA FÉ,-6.959962101581214,41.346532068394694
pt.ine.add.PTCONT.862426,R DR GAMA PIMENTEL,,5350-231,EUCISIA,-7.013705798691166,41.31297865876781
pt.ine.add.PTCONT.862427,R DR GAMA PIMENTEL,46,5350-231,EUCISIA,-7.012360740495845,41.312722463125674
pt.ine.add.PTCONT.862428,R DE CIMA,,5350-280,PARADA AFE,-6.880525780029598,41.30253938884787
pt.ine.add.PTCONT.862429,R PROF JOÃO BAPTISTA VILARES,113,5350-075,ALFÂNDEGA DA FÉ,-6.959451516800563,41.34568950416743
pt.ine.add.PTCONT.862430,R DO CASTELO,61,5350-033,ALFÂNDEGA DA FÉ,-6.966610888093406,41.34153048702839
pt.ine.add.PTCONT.862431,R DE CIMA,,5350-250,GEBELIM,-6.93295320734614,41.443062034943765
pt.ine.add.PTCONT.862432,R DA FONTE,,5350-313,SAMBADE,-6.981479914381433,41.429899459555635
pt.ine.add.PTCONT.862433,R DA PRACINHA,,5350-313,SAMBADE,-6.983998612112043,41.429537486279685
pt.ine.add.PTCONT.862434,,,5350-353,SENDIM DA SERRA,-6.978356256213864,41.29409935292164
pt.ine.add.PTCONT.862440,R DO ABEXEIRO,2,5350-420,VILARELHOS,-7.040660944299381,41.34646207838805
pt.ine.add.PTCONT.862443,R PRINCIPAL,,5350-431,VILARES DE VILARIÇA,-7.028686610934955,41.408069035092325
pt.ine.add.PTCONT.862446,R DO SOUTO FORA,,5350-431,VILARES DE VILARIÇA,-7.027807154175995,41.40844775186497
pt.ine.add.PTCONT.862450,R DO CANTO,,5350-432,VILARES DE VILARIÇA,-7.032498829626007,41.392646050003194
pt.ine.add.PTCONT.862455,R DE CIMA,,5350-432,VILARES DE VILARIÇA,-7.038673434084477,41.39092219532505
pt.ine.add.PTCONT.862471,R DA IGREJA,2,5350-420,VILARELHOS,-7.038558023175924,41.34789172054481
pt.ine.add.PTCONT.862475,R DO OUTÃO,6,5350-420,VILARELHOS,-7.03898568541845,41.34803984945993
pt.ine.add.PTCONT.862562,R DO BAIRRINHO,,5350-370,VALE PEREIRO,-6.8993469011334385,41.382093420424944
pt.ine.add.PTCONT.863080,R MARIA DO CARMO PAULA,200,5350-002,ALFÂNDEGA DA FÉ,-6.962150351452462,41.33909916386055
pt.ine.add.PTCONT.863102,EN 315,,5350-312,SAMBADE,-6.985439019491463,41.42450977267331
pt.ine.add.PTCONT.863116,R DE S TIAGO,4,5350-280,PARADA AFE,-6.8823671169738345,41.30427915419727
pt.ine.add.PTCONT.863118,R JOÃO BERNARDINO FERREIRA,12,5350-066,ALFÂNDEGA DA FÉ,-6.959521701720982,41.347103824154416
pt.ine.add.PTCONT.863135,R DA IGREJA,19,5350-220,CEREJAIS,-6.922743680149935,41.294257309938615
pt.ine.add.PTCONT.863136,R DO CALVÁRIO,3,5350-352,SENDIM DA RIBEIRA,-6.905655579027374,41.312300223319184
pt.ine.add.PTCONT.863212,R DA CARREIRA DA BOLA,24,5350-021,ALFÂNDEGA DA FÉ,-6.964554607472271,41.342274953068625
pt.ine.add.PTCONT.863437,R DO TANQUE,,5350-102,AGROBOM,-6.914578067168573,41.41788357097462
pt.ine.add.PTCONT.863438,R DA LARANJEIRA,,5350-101,AGROBOM,-6.91480827550995,41.39596190538089
pt.ine.add.PTCONT.863472,LG DA PORTELA,,5350-025,ALFÂNDEGA DA FÉ,-6.9645543204260925,41.34295924322355
pt.ine.add.PTCONT.863473,R DR ANTÓNIO FRANCISCO DE MENESES CORDEIRO,,5350-025,ALFÂNDEGA DA FÉ,-6.9643062061472465,41.34280365795241
pt.ine.add.PTCONT.863474,R CAMILO DE MENDONÇA,,5350-045,ALFÂNDEGA DA FÉ,-6.96430569084052,41.342164378922995
pt.ine.add.PTCONT.863513,R MARIA DO CARMO PAULA,180,5350-002,ALFÂNDEGA DA FÉ,-6.962140180775838,41.339000017905974
pt.ine.add.PTCONT.863580,R DA IGREJA,10,5350-220,CEREJAIS,-6.923289918332977,41.294416119155265
pt.ine.add.PTCONT.863581,R DR GAMA PIMENTEL,,5350-231,EUCISIA,-7.012135269254285,41.31263923207044
pt.ine.add.PTCONT.863582,AV DA IGREJA,1,5350-241,FERRADOSA,-6.9548869788616825,41.27408885596271
pt.ine.add.PTCONT.863583,R DA CRUZ,10,5350-241,FERRADOSA,-6.950924224796182,41.25757096992743
pt.ine.add.PTCONT.863584,R DO MOREIRA,3,5350-242,FERRADOSA,-6.950165762499793,41.257284055436834
pt.ine.add.PTCONT.863625,R DE CIMA,32,5350-250,GEBELIM,-6.934267070302136,41.44384104958164
pt.ine.add.PTCONT.863626,R DA ESCOLA,,5350-261,GOUVEIA AFE,-6.981679902564966,41.27481917426376
pt.ine.add.PTCONT.863627,R DO MOREIRA,,5350-261,GOUVEIA AFE,-6.981199516155176,41.27431014609696
pt.ine.add.PTCONT.863628,R DO CARRASCAL,,5350-280,PARADA AFE,-6.881256036239109,41.30243928727277
pt.ine.add.PTCONT.863629,R DE CIMA,,5350-280,PARADA AFE,-6.880441872671672,41.30255648342164
pt.ine.add.PTCONT.863630,R DE CIMA,,5350-280,PARADA AFE,-6.8807596554346535,41.30217277475689
pt.ine.add.PTCONT.863664,R DA LAGA,8,5350-312,SAMBADE,-6.975000140421621,41.411475775764366
pt.ine.add.PTCONT.863665,LG DA PRAÇA,,5350-352,SENDIM DA RIBEIRA,-6.9053216604796175,41.309730556276975
pt.ine.add.PTCONT.863716,R DO CABEÇO DAS EIRAS,,5350-370,VALE PEREIRO,-6.895166207783109,41.38632530273978
pt.ine.add.PTCONT.863717,R DO BAIRRINHO,,5350-370,VALE PEREIRO,-6.900030385422802,41.3819836984243
pt.ine.add.PTCONT.863718,BR DE CIMA,,5350-380,VALES AFE,-6.996420797130767,41.392934542429714
pt.ine.add.PTCONT.863719,R FR JOÃO HORTELÃO,,5350-390,VALVERDE AFE,-6.988180763844881,41.33032118938794
pt.ine.add.PTCONT.863720,R DE NSA SRA DA ENCARNAÇÃO,,5350-390,VALVERDE AFE,-6.988443387933701,41.32964851043019
pt.ine.add.PTCONT.863758,R DA CORTINHA GRANDE,4,5350-402,VILAR CHÃO AFE,-6.865507476799199,41.33631947356495
pt.ine.add.PTCONT.863759,R DO OUTÃO,4,5350-420,VILARELHOS,-7.039202380566469,41.34794286686608
pt.ine.add.PTCONT.863760,AV ENG CAMILO DE MENDONÇA,2,5350-420,VILARELHOS,-7.040562777797483,41.34804582926231
pt.ine.add.PTCONT.863761,R DO FRAGÃO,,5350-432,VILARES DE VILARIÇA,-7.032539966635811,41.3930426110422
pt.ine.add.PTCONT.863762,R DE S JOÃO,,5350-432,VILARES DE VILARIÇA,-7.038539948763232,41.390326673839866
pt.ine.add.PTCONT.863763,R DA BARRAGEM,,5350-432,VILARES DE VILARIÇA,-7.042083957216653,41.39145879977907
pt.ine.add.PTCONT.863879,R MANUEL FERREIRA,45,5350-042,ALFÂNDEGA DA FÉ,-6.96603479381287,41.341677711608
pt.ine.add.PTCONT.863900,R DA GRICHA,,5350-353,SENDIM DA SERRA,-6.978685396772513,41.29439078040273
pt.ine.add.PTCONT.863935,R DA CAPELA,,5350-262,GOUVEIA AFE,-6.99888464480592,41.29030571681282
pt.ine.add.PTCONT.864103,R DA COSTA,,5350-101,AGROBOM,-6.9151349631905825,41.3970368110822
pt.ine.add.PTCONT.864104,R DO PELOURINHO,,5350-101,AGROBOM,-6.91577462429169,41.39671944590518
pt.ine.add.PTCONT.864105,R DO TERREIRO,,5350-101,AGROBOM,-6.916168097195102,41.3961383644497
pt.ine.add.PTCONT.864106,LG DA PORTELA,,5350-025,ALFÂNDEGA DA FÉ,-6.96434107603746,41.34285803524029
pt.ine.add.PTCONT.864127,LG DO OUTÃO,7,5350-420,VILARELHOS,-7.039690831763695,41.34802854384867
pt.ine.add.PTCONT.864107,R ÁLVARO DA PONTE,80,5350-064,ALFÂNDEGA DA FÉ,-6.957004213433924,41.34624076461571
pt.ine.add.PTCONT.864108,AV DR FRANCISCO SÁ CARNEIRO,1099,5350-005,ALFÂNDEGA DA FÉ,-6.968116873044772,41.3321096906094
pt.ine.add.PTCONT.864109,R PROF JOÃO BAPTISTA VILARES,,5350-075,ALFÂNDEGA DA FÉ,-6.959192085219841,41.34616406195461
pt.ine.add.PTCONT.864110,R DOS CAVALEIROS DAS ESPORAS DOURADAS,2,5350-033,ALFÂNDEGA DA FÉ,-6.966301763498541,41.341446318449655
pt.ine.add.PTCONT.864111,BR DE TRÁS DO CASTELO,19,5350-052,ALFÂNDEGA DA FÉ,-6.966023662298633,41.33962471869497
pt.ine.add.PTCONT.864112,AV DR FRANCISCO SÁ CARNEIRO,92,5350-005,ALFÂNDEGA DA FÉ,-6.964093484877958,41.34000129745554
pt.ine.add.PTCONT.864113,R DO MÁRTIR S SEBASTIÃO,37,5350-220,CEREJAIS,-6.924505197405609,41.295842500320234
pt.ine.add.PTCONT.864114,R DA CORREDOURA,90,5350-231,EUCISIA,-7.013810097211705,41.31246644960554
pt.ine.add.PTCONT.864115,PC DA CAPELA,2,5350-241,FERRADOSA,-6.955364933593294,41.274057731180264
pt.ine.add.PTCONT.864116,R DA CAPELA,,5350-262,GOUVEIA AFE,-6.998552157561968,41.29020339665049
pt.ine.add.PTCONT.864117,R DE BAIXO,,5350-280,PARADA AFE,-6.880999610412973,41.302112358255584
pt.ine.add.PTCONT.864118,R DO PEREIRO,,5350-280,PARADA AFE,-6.880987093166387,41.3033907730309
pt.ine.add.PTCONT.864119,R TEN COR ÁLVARO CEPEDA,,5350-312,SAMBADE,-6.97342037570504,41.414224014552694
pt.ine.add.PTCONT.864120,R TEN COR ÁLVARO CEPEDA,8,5350-312,SAMBADE,-6.973394537326314,41.41433179911005
pt.ine.add.PTCONT.864121,R 25 DE DEZEMBRO,,5350-312,SAMBADE,-6.971259385043128,41.40863788966143
pt.ine.add.PTCONT.864122,R DO CALVÁRIO,,5350-352,SENDIM DA RIBEIRA,-6.905489155329401,41.311623157521666
pt.ine.add.PTCONT.864123,R DA JUNTA,,5350-360,SOEIMA,-6.965887680620356,41.43479339585697
pt.ine.add.PTCONT.864124,R DA PORTELA,,5350-390,VALVERDE AFE,-6.987681908951199,41.33152274580613
pt.ine.add.PTCONT.864125,R DO PEREIRO,18,5350-402,VILAR CHÃO AFE,-6.863037571700744,41.33801197059596
pt.ine.add.PTCONT.864126,R DO REBALDINHO,,5350-420,VILARELHOS,-7.041938282994362,41.34795983737908
pt.ine.add.PTCONT.864128,R CHÃ,,5350-431,VILARES DE VILARIÇA,-7.0289611755402435,41.40809868184873
pt.ine.add.PTCONT.864129,R DAS ALMINHAS,,5350-432,VILARES DE VILARIÇA,-7.033236528326948,41.392860191981185
pt.ine.add.PTCONT.864130,R DA ESCOLA,,5350-432,VILARES DE VILARIÇA,-7.037569110937283,41.39189310099949
pt.ine.add.PTCONT.864645,AV DOS BOMBEIROS VOLUNTÁRIOS,,5350-003,ALFÂNDEGA DA FÉ,-6.959577812757226,41.34331377544015
pt.ine.add.PTCONT.864647,R DO SANTUÁRIO,2,5350-220,CEREJAIS,-6.92263905678355,41.29391172186827
pt.ine.add.PTCONT.864668,,,5350-055,ALFÂNDEGA DA FÉ,-6.927133314560978,41.365055716466806
pt.ine.add.PTCONT.864669,R DA LAMELA,226,5350-250,GEBELIM,-6.930533097334642,41.442577570756185
pt.ine.add.PTCONT.864682,R DAS BARREIRINHAS,,5350-055,ALFÂNDEGA DA FÉ,-6.966353614433036,41.34188803322252
pt.ine.add.PTCONT.864698,R DA IGREJA,,5350-262,GOUVEIA AFE,-6.99757153393704,41.29167937818923
pt.ine.add.PTCONT.864732,AV DR FRANCISCO SÁ CARNEIRO,62,5350-005,ALFÂNDEGA DA FÉ,-6.963040272507477,41.34077392951736
pt.ine.add.PTCONT.864733,AV DR FRANCISCO SÁ CARNEIRO,62,5350-005,ALFÂNDEGA DA FÉ,-6.963040272507477,41.34077392951736
pt.ine.add.PTCONT.864734,AV DR FRANCISCO SÁ CARNEIRO,62,5350-005,ALFÂNDEGA DA FÉ,-6.963040272507477,41.34077392951736
pt.ine.add.PTCONT.864735,AV DR FRANCISCO SÁ CARNEIRO,62,5350-005,ALFÂNDEGA DA FÉ,-6.963040272507477,41.34077392951736
pt.ine.add.PTCONT.864736,AV DR FRANCISCO SÁ CARNEIRO,62,5350-005,ALFÂNDEGA DA FÉ,-6.963040272507477,41.34077392951736
pt.ine.add.PTCONT.864737,AV DR FRANCISCO SÁ CARNEIRO,62,5350-005,ALFÂNDEGA DA FÉ,-6.963040272507477,41.34077392951736
pt.ine.add.PTCONT.864738,AV DR FRANCISCO SÁ CARNEIRO,62,5350-005,ALFÂNDEGA DA FÉ,-6.963040272507477,41.34077392951736
pt.ine.add.PTCONT.864739,AV DR FRANCISCO SÁ CARNEIRO,62,5350-005,ALFÂNDEGA DA FÉ,-6.963040272507477,41.34077392951736
pt.ine.add.PTCONT.864740,AV DR FRANCISCO SÁ CARNEIRO,62,5350-005,ALFÂNDEGA DA FÉ,-6.963040272507477,41.34077392951736
pt.ine.add.PTCONT.864741,AV DR FRANCISCO SÁ CARNEIRO,62,5350-005,ALFÂNDEGA DA FÉ,-6.963040272507477,41.34077392951736
pt.ine.add.PTCONT.864801,EN 315,100,5350-312,SAMBADE,-6.977833179930407,41.414259409242014
pt.ine.add.PTCONT.864802,R CAMILO DE MENDONÇA,256,5350-045,ALFÂNDEGA DA FÉ,-6.965307678029573,41.342921871387816
pt.ine.add.PTCONT.864803,R JOÃO BERNARDINO FERREIRA,62,5350-066,ALFÂNDEGA DA FÉ,-6.9595975642287256,41.34753678246013
pt.ine.add.PTCONT.864804,R DA CANELHA GRANDE,,5350-261,GOUVEIA AFE,-6.981184197582437,41.273823778628454
pt.ine.add.PTCONT.864805,R DO BAIRRINHO,20,5350-312,SAMBADE,-6.970630545450224,41.41305238147006
pt.ine.add.PTCONT.864806,EM 592,,5350-280,PARADA AFE,-6.881900523442048,41.30620091238192
pt.ine.add.PTCONT.864807,R DR MANUEL SUSANO,37,5350-070,ALFÂNDEGA DA FÉ,-6.958100157191402,41.34642303326473
pt.ine.add.PTCONT.864808,BR DA PORTELA,,5350-231,EUCISIA,-7.007293850892955,41.312231820205675
pt.ine.add.PTCONT.864809,R 25 DE DEZEMBRO,55,5350-312,SAMBADE,-6.970850008798247,41.405437419201974
pt.ine.add.PTCONT.864810,,,5350-055,ALFÂNDEGA DA FÉ,-6.9269831293187645,41.36477502430774
pt.ine.add.PTCONT.864811,R 25 DE ABRIL,25,5350-062,ALFÂNDEGA DA FÉ,-6.956406110230422,41.346279669566385
pt.ine.add.PTCONT.864812,BC 13 DE MAIO,1,5350-312,SAMBADE,-6.972551441455057,41.41197331742739
pt.ine.add.PTCONT.864813,R DA CAPELA,,5350-102,AGROBOM,-6.915384370150624,41.41826126132869
pt.ine.add.PTCONT.864814,R DA IGREJA,18,5350-352,SENDIM DA RIBEIRA,-6.903304653549345,41.30967300617924
pt.ine.add.PTCONT.864815,R DA BARREIRA,13,5350-242,FERRADOSA,-6.949975956789002,41.25656178660232
pt.ine.add.PTCONT.864816,,,5350-300,SALDONHA,-6.8764919297244855,41.41177449775381
pt.ine.add.PTCONT.864817,R EMA DA COSTA PESSOA,11,5350-001,ALFÂNDEGA DA FÉ,-6.961677329545137,41.34949379941705
pt.ine.add.PTCONT.864818,R DE CIMA,27,5350-250,GEBELIM,-6.9328744398352065,41.44279110232002
pt.ine.add.PTCONT.864819,R DE S PEDRO,,5350-030,ALFÂNDEGA DA FÉ,-6.961309548891342,41.33868543177965
pt.ine.add.PTCONT.864820,SIT DOS TAPADOS,,5350-433,ALFÂNDEGA DA FÉ,-6.962013833426682,41.331381461334175
pt.ine.add.PTCONT.864840,R DE CIMA,,5350-432,VILARES DE VILARIÇA,-7.0384565940991735,41.391019174443464
pt.ine.add.PTCONT.864845,R DA CORTINHA GRANDE,10,5350-402,VILAR CHÃO AFE,-6.865354027853373,41.336840004909234
pt.ine.add.PTCONT.864846,R DO ALTO,15,5350-402,VILAR CHÃO AFE,-6.864242487552431,41.33440572587553
pt.ine.add.PTCONT.864865,R DE S TOMÉ,10,5350-420,VILARELHOS,-7.0375447305045595,41.349178636481035
pt.ine.add.PTCONT.865398,EM 592,27,5350-402,VILAR CHÃO AFE,-6.864191651505679,41.33887106093291
pt.ine.add.PTCONT.865450,QTA DA PICOTA,,5350-390,VALVERDE AFE,-6.981957759119752,41.333689589525434
pt.ine.add.PTCONT.865494,AV ENG CAMILO LEMOS DE MENDONÇA,711,5350-001,ALFÂNDEGA DA FÉ,-6.960846406247934,41.3491882109812
pt.ine.add.PTCONT.865495,AV ENG CAMILO LEMOS DE MENDONÇA,711,5350-001,ALFÂNDEGA DA FÉ,-6.960846406247934,41.3491882109812
pt.ine.add.PTCONT.865496,AV ENG CAMILO LEMOS DE MENDONÇA,711,5350-001,ALFÂNDEGA DA FÉ,-6.960846406247934,41.3491882109812
pt.ine.add.PTCONT.865497,AV ENG CAMILO LEMOS DE MENDONÇA,711,5350-001,ALFÂNDEGA DA FÉ,-6.960846406247934,41.3491882109812
pt.ine.add.PTCONT.865944,R EMA DA COSTA PESSOA,10,5350-001,ALFÂNDEGA DA FÉ,-6.961633094283949,41.34929526452099
pt.ine.add.PTCONT.865945,R DAS GUERRAS,,5350-232,EUCISIA,-7.036966010727803,41.32740171508761
pt.ine.add.PTCONT.865946,R DA CORREDOURA,93,5350-231,EUCISIA,-7.0136187503354295,41.312482596443125
pt.ine.add.PTCONT.865947,R DA BARREIRA,4,5350-242,FERRADOSA,-6.950412475116503,41.25683639134984
pt.ine.add.PTCONT.865948,R DA LAMELA,125,5350-250,GEBELIM,-6.930618336943964,41.4424974286453
pt.ine.add.PTCONT.865949,R DA RUECA,82,5350-250,GEBELIM,-6.930929052797461,41.44187041793078
pt.ine.add.PTCONT.865950,R DA SOALHEIRA,2,5350-402,VILAR CHÃO AFE,-6.865278513120704,41.33395794927514
pt.ine.add.PTCONT.865951,R DO ABEXEIRO,9,5350-420,VILARELHOS,-7.040436072985025,41.34633388912052
pt.ine.add.PTCONT.865952,R DO BAIRRINHO,,5350-431,VILARES DE VILARIÇA,-7.027953561034273,41.41039397499466
pt.ine.add.PTCONT.865953,R DE CIMA,,5350-432,VILARES DE VILARIÇA,-7.038349004614041,41.39101815078141
pt.ine.add.PTCONT.865954,R 13 DE JANEIRO,68,5350-018,ALFÂNDEGA DA FÉ,-6.963835426571638,41.34107013495632
pt.ine.add.PTCONT.865955,R ENG ADELINO AMARO DA COSTA,84,5350-071,ALFÂNDEGA DA FÉ,-6.958217249524632,41.34522671691705
pt.ine.add.PTCONT.865956,R CAP MENDONÇA,,5350-020,ALFÂNDEGA DA FÉ,-6.960405805023337,41.338451129402515
pt.ine.add.PTCONT.865957,R CAP MENDONÇA,,5350-020,ALFÂNDEGA DA FÉ,-6.960405805023337,41.338451129402515
pt.ine.add.PTCONT.865958,BR DO VALE DO ABADE,8,5350-433,ALFÂNDEGA DA FÉ,-6.96196529771995,41.33409113228629
pt.ine.add.PTCONT.865959,AV DR FRANCISCO SÁ CARNEIRO,853,5350-005,ALFÂNDEGA DA FÉ,-6.965323031639598,41.333368928309376
pt.ine.add.PTCONT.865960,,,5350-290,POMBAL AFE,-7.0032225466685984,41.37645253990965
pt.ine.add.PTCONT.865961,,,5350-290,POMBAL AFE,-7.003523049578524,41.37635644834715
pt.ine.add.PTCONT.865962,R DO BAIRRINHO,,5350-312,SAMBADE,-6.969562506082546,41.41258239294879
pt.ine.add.PTCONT.865963,EN 315,,5350-312,SAMBADE,-6.9727894539472715,41.40666350033909
pt.ine.add.PTCONT.865964,R DA CAPELA,1,5350-352,SENDIM DA RIBEIRA,-6.905928063142339,41.30923280629288
pt.ine.add.PTCONT.865965,R DA CAPELA,18,5350-352,SENDIM DA RIBEIRA,-6.892848811938036,41.28925703524273
pt.ine.add.PTCONT.865978,R DAS FLORES,312,5350-068,ALFÂNDEGA DA FÉ,-6.960270403648479,41.348660118836875
pt.ine.add.PTCONT.865979,R MANUEL FERREIRA,69,5350-042,ALFÂNDEGA DA FÉ,-6.9661386026267555,41.341885853074
pt.ine.add.PTCONT.865980,R DA JUNTA,,5350-360,SOEIMA,-6.966685918964613,41.434981567050635
pt.ine.add.PTCONT.865981,R DA BOTICA,,5350-390,VALVERDE AFE,-6.9889813944920816,41.33098643523171
pt.ine.add.PTCONT.865982,R DE S BERNARDINO DE SENA,,5350-390,VALVERDE AFE,-6.987483350916863,41.327856188182665
pt.ine.add.PTCONT.865983,R DE NSA SRA DA ENCARNAÇÃO,,5350-390,VALVERDE AFE,-6.988988038647087,41.329924042910406
pt.ine.add.PTCONT.865984,R DO TRONCO,,5350-390,VALVERDE AFE,-6.9875619748745645,41.3295046820671
pt.ine.add.PTCONT.865985,R DO TRONCO,,5350-390,VALVERDE AFE,-6.987715025303806,41.32963225980141
pt.ine.add.PTCONT.865986,QTA DA PICOTA,,5350-390,VALVERDE AFE,-6.982003156319816,41.33382510176359
pt.ine.add.PTCONT.865987,R DA CORTINHA GRANDE,16,5350-402,VILAR CHÃO AFE,-6.865452646288153,41.3360667625469
pt.ine.add.PTCONT.866137,R DAS EIRAS,,5350-280,PARADA AFE,-6.881977125550536,41.30406782630683
pt.ine.add.PTCONT.866191,AV DA REPÚBLICA,12,5350-001,ALFÂNDEGA DA FÉ,-6.963513910570728,41.34635213007569
pt.ine.add.PTCONT.866192,AV DA REPÚBLICA,12,5350-001,ALFÂNDEGA DA FÉ,-6.963513910570728,41.34635213007569
pt.ine.add.PTCONT.866193,AV DA REPÚBLICA,12,5350-001,ALFÂNDEGA DA FÉ,-6.963513910570728,41.34635213007569
pt.ine.add.PTCONT.866194,AV DA REPÚBLICA,12,5350-001,ALFÂNDEGA DA FÉ,-6.963513910570728,41.34635213007569
pt.ine.add.PTCONT.866195,AV DA REPÚBLICA,12,5350-001,ALFÂNDEGA DA FÉ,-6.963513910570728,41.34635213007569
pt.ine.add.PTCONT.866196,AV DA REPÚBLICA,12,5350-001,ALFÂNDEGA DA FÉ,-6.963513910570728,41.34635213007569
pt.ine.add.PTCONT.866197,EM 592,,5350-280,PARADA AFE,-6.881258787443386,41.306040868321716
pt.ine.add.PTCONT.866198,R 1 DE MAIO,,5350-061,ALFÂNDEGA DA FÉ,-6.960425831336252,41.351317836633186
pt.ine.add.PTCONT.866466,LG DO CANTINHO,,5350-101,AGROBOM,-6.914954758498484,41.39580138883802
pt.ine.add.PTCONT.866514,BC JÚLIO PEREIRA,,5350-050,ALFÂNDEGA DA FÉ,-6.963866969381132,41.34264613042688
pt.ine.add.PTCONT.866515,R DO ESPÍRITO SANTO,45,5350-035,ALFÂNDEGA DA FÉ,-6.965183679700274,41.34250643561226
pt.ine.add.PTCONT.866516,,,5350-055,ALFÂNDEGA DA FÉ,-6.9278267114854,41.36439669990597
pt.ine.add.PTCONT.866517,,,5350-055,ALFÂNDEGA DA FÉ,-6.926761463619092,41.36318803034948
pt.ine.add.PTCONT.866518,R ALBERTO JOSÉ VERGUEIRO,99,5350-063,ALFÂNDEGA DA FÉ,-6.957983159344985,41.34562049607665
pt.ine.add.PTCONT.866519,R DE S PEDRO,206,5350-030,ALFÂNDEGA DA FÉ,-6.96158702583235,41.33986776249252
pt.ine.add.PTCONT.866520,R MARIA DO CARMO PAULA,114,5350-002,ALFÂNDEGA DA FÉ,-6.961658681820742,41.3385359206365
pt.ine.add.PTCONT.866552,R DA EIRA DAS SENHORAS,7,5350-220,CEREJAIS,-6.922401924738361,41.29530717315422
pt.ine.add.PTCONT.866553,LG DO ROSSIO,1,5350-220,CEREJAIS,-6.921993863379861,41.29413237188056
pt.ine.add.PTCONT.866554,R DO ADRO,,5350-232,EUCISIA,-7.037105377474205,41.32692583522443
pt.ine.add.PTCONT.866592,R DAS PEREIRAS,3,5350-242,FERRADOSA,-6.950711525089001,41.25679444333538
pt.ine.add.PTCONT.866593,R DA RUECA,43,5350-250,GEBELIM,-6.9308285288740406,41.44148220848442
pt.ine.add.PTCONT.866594,ESCNH DOS GAJOS,,5350-262,GOUVEIA AFE,-6.9973569285474895,41.290974953001175
pt.ine.add.PTCONT.866595,R DO MOREIRA,,5350-261,GOUVEIA AFE,-6.980191245155746,41.2739579015033
pt.ine.add.PTCONT.866596,R DE S TIAGO,,5350-280,PARADA AFE,-6.8818291000426415,41.303066786543305
pt.ine.add.PTCONT.866641,EN 315,,5350-312,SAMBADE,-6.971352726611983,41.40944016683007
pt.ine.add.PTCONT.866676,R DA BOTICA,,5350-390,VALVERDE AFE,-6.988908947601368,41.331030734390716
pt.ine.add.PTCONT.866677,R DA SOALHEIRA,14,5350-402,VILAR CHÃO AFE,-6.866116107650795,41.33388613951563
pt.ine.add.PTCONT.866710,R DO BAIRRINHO,,5350-431,VILARES DE VILARIÇA,-7.027909696746079,41.41015945535372
pt.ine.add.PTCONT.866711,R DA IGREJA,,5350-431,VILARES DE VILARIÇA,-7.028148337481544,41.409486464099444
pt.ine.add.PTCONT.866845,R DO POUSADO,4,5350-241,FERRADOSA,-6.955799363123563,41.27379205641728
pt.ine.add.PTCONT.866903,R 5 DE AGOSTO,,5350-312,SAMBADE,-6.971957606673285,41.4144253498976
pt.ine.add.PTCONT.866904,R PRINCIPAL,,5350-370,VALE PEREIRO,-6.898547704234019,41.38326434144026
pt.ine.add.PTCONT.866905,R MOUZINHO DE ALBUQUERQUE,6,5350-056,ALFÂNDEGA DA FÉ,-6.96438045331819,41.342660350330206
pt.ine.add.PTCONT.866906,R DO ADRO,,5350-232,EUCISIA,-7.0361120657105145,41.32567083905987
pt.ine.add.PTCONT.866907,EM 592,,5350-280,PARADA AFE,-6.881939436019374,41.306039265643506
pt.ine.add.PTCONT.866908,R DA ROSEIRA,46,5350-026,ALFÂNDEGA DA FÉ,-6.964742152907983,41.34180865675471
pt.ine.add.PTCONT.866909,R DA ROSEIRA,48,5350-026,ALFÂNDEGA DA FÉ,-6.964741348304379,41.341853667872996
pt.ine.add.PTCONT.866910,R DE CIMA,,5350-280,PARADA AFE,-6.880544264094378,41.302197442555624
pt.ine.add.PTCONT.866911,,,5350-055,ALFÂNDEGA DA FÉ,-6.92759978452073,41.36697841502794
pt.ine.add.PTCONT.866912,R DO MOREIRA,11,5350-242,FERRADOSA,-6.948801396943029,41.2575131350718
pt.ine.add.PTCONT.866913,LG DR JOÃO PESSOA TRIGO,12,5350-242,FERRADOSA,-6.950229308979309,41.257068612911
pt.ine.add.PTCONT.866914,,,5350-353,SENDIM DA SERRA,-6.978210769336097,41.29354865320912
pt.ine.add.PTCONT.866915,R DE S PEDRO,91,5350-030,ALFÂNDEGA DA FÉ,-6.961487425505117,41.338759273745474
pt.ine.add.PTCONT.866916,R DA JUNTA,,5350-360,SOEIMA,-6.964861892861756,41.43661974088125
pt.ine.add.PTCONT.866917,R DAS CERDEIRINHAS,,5350-311,SAMBADE,-6.9929095576478275,41.42074846286981
pt.ine.add.PTCONT.866918,LOTEAM DO VALE DO ABADE,14,5350-433,ALFÂNDEGA DA FÉ,-6.963326738385353,41.334780269073015
pt.ine.add.PTCONT.866919,R DO CAMPO DE FUTEBOL,,5350-312,SAMBADE,-6.9739508405849024,41.41667838075975
pt.ine.add.PTCONT.866920,R DA CAPELA,,5350-360,SOEIMA,-6.966626131090162,41.432306855943935
pt.ine.add.PTCONT.866934,R FR JOÃO HORTELÃO,,5350-390,VALVERDE AFE,-6.988664474457997,41.3299838529462
pt.ine.add.PTCONT.866939,EM 592,34,5350-402,VILAR CHÃO AFE,-6.862842988758901,41.34064794131027
pt.ine.add.PTCONT.866942,R DA IGREJA,,5350-432,VILARES DE VILARIÇA,-7.039300526541303,41.39131532256942
pt.ine.add.PTCONT.866950,TV DE VALE DE NABAIS A,5,5350-402,VILAR CHÃO AFE,-6.866897646625256,41.334858150755224
pt.ine.add.PTCONT.866964,R DO REBALDINHO,1,5350-420,VILARELHOS,-7.0422396511089005,41.347800624732756
pt.ine.add.PTCONT.866969,AV ENG CAMILO DE MENDONÇA,5,5350-420,VILARELHOS,-7.04091861591906,41.34820227296303
pt.ine.add.PTCONT.866975,R DOS MORGADOS,,5350-420,VILARELHOS,-7.040799333663506,41.346760520105505
pt.ine.add.PTCONT.867632,R DA CAPELA,3,5350-402,VILAR CHÃO AFE,-6.866080197992731,41.33327348391003
pt.ine.add.PTCONT.867653,R DA CAPELA,,5350-313,SAMBADE,-6.981523724361521,41.42877443157033
pt.ine.add.PTCONT.867679,R DE S PEDRO,123,5350-030,ALFÂNDEGA DA FÉ,-6.961816064730999,41.339086758098425
pt.ine.add.PTCONT.867680,TV DA PRAÇA,,5350-250,GEBELIM,-6.930973250521862,41.44271722692798
pt.ine.add.PTCONT.867681,R DE S PEDRO,123,5350-030,ALFÂNDEGA DA FÉ,-6.961816064730999,41.339086758098425
pt.ine.add.PTCONT.867834,R DO PRADO,147,5350-250,GEBELIM,-6.928584658401445,41.444411944124454
pt.ine.add.PTCONT.867838,R DO SACO,,5350-353,SENDIM DA SERRA,-6.978830697891412,41.29427518644948
pt.ine.add.PTCONT.867839,R DE STO ANTÓNIO,,5350-353,SENDIM DA SERRA,-6.977895818453415,41.29380660683213
pt.ine.add.PTCONT.867825,R MARIA DO CARMO PAULA,130,5350-002,ALFÂNDEGA DA FÉ,-6.961930340115166,41.338709758993545
pt.ine.add.PTCONT.867826,R MARIA DO CARMO PAULA,130,5350-002,ALFÂNDEGA DA FÉ,-6.961930340115166,41.338709758993545
pt.ine.add.PTCONT.867827,R DR MANUEL SUSANO,63,5350-070,ALFÂNDEGA DA FÉ,-6.9578349190563165,41.346555382411665
pt.ine.add.PTCONT.867828,R DO PORTO,64,5350-039,ALFÂNDEGA DA FÉ,-6.963816018077446,41.34015154414591
pt.ine.add.PTCONT.867829,R DO PORTO,64,5350-039,ALFÂNDEGA DA FÉ,-6.963816018077446,41.34015154414591
pt.ine.add.PTCONT.867830,R DO BAIRRINHO,,5350-101,AGROBOM,-6.916204097334733,41.39549047480348
pt.ine.add.PTCONT.867831,BR DE TRÁS DO CASTELO,24,5350-052,ALFÂNDEGA DA FÉ,-6.96672904144062,41.33959585469045
pt.ine.add.PTCONT.867832,R DE S BRAZ,,5350-232,EUCISIA,-7.035942073697634,41.3250689494841
pt.ine.add.PTCONT.867833,BR DO CANTO SALGUEIRO,12,5350-242,FERRADOSA,-6.9529956364809085,41.25584545044947
pt.ine.add.PTCONT.867835,R DA PADARIA,2,5350-312,SAMBADE,-6.9725410257284715,41.41255845640308
pt.ine.add.PTCONT.867836,R DO RIBEIRO,5,5350-352,SENDIM DA RIBEIRA,-6.905359281815953,41.310271190398595
pt.ine.add.PTCONT.867837,R DA CAPELA,2,5350-352,SENDIM DA RIBEIRA,-6.892521616279726,41.289514622436045
pt.ine.add.PTCONT.867840,R DA JUNTA,,5350-360,SOEIMA,-6.965062815340068,41.43609056203959
pt.ine.add.PTCONT.867841,R DA IGREJA,,5350-360,SOEIMA,-6.965908781497296,41.4329478474866
pt.ine.add.PTCONT.867842,R DA CAPELA,,5350-360,SOEIMA,-6.96569925104783,41.43195531191872
pt.ine.add.PTCONT.867858,,,5350-055,ALFÂNDEGA DA FÉ,-6.927468223650865,41.365041218448106
pt.ine.add.PTCONT.867859,,,5350-055,ALFÂNDEGA DA FÉ,-6.927311554811853,41.36511160725258
pt.ine.add.PTCONT.867860,,,5350-055,ALFÂNDEGA DA FÉ,-6.92703688998185,41.36509972486246
pt.ine.add.PTCONT.867861,R ALBERTO JOSÉ VERGUEIRO,157,5350-063,ALFÂNDEGA DA FÉ,-6.957239445611985,41.34578397224429
pt.ine.add.PTCONT.867862,R ALBERTO JOSÉ VERGUEIRO,157,5350-063,ALFÂNDEGA DA FÉ,-6.957239445611985,41.34578397224429
pt.ine.add.PTCONT.867863,ESCNH DOS GAJOS,,5350-262,GOUVEIA AFE,-6.997656107603533,41.290932884887205
pt.ine.add.PTCONT.867864,R DE S TIAGO,,5350-280,PARADA AFE,-6.882044321753467,41.30305111838665
pt.ine.add.PTCONT.867865,LG DR JOÃO NORONHA,2,5350-312,SAMBADE,-6.9745264655854236,41.41390202027912
pt.ine.add.PTCONT.867866,LG DR JOÃO NORONHA,5,5350-312,SAMBADE,-6.974440357506668,41.41403620935924
pt.ine.add.PTCONT.867867,BR DE CIMA,,5350-380,VALES AFE,-6.996758542373988,41.393451094917395
pt.ine.add.PTCONT.867868,R DE S JOÃO,,5350-432,VILARES DE VILARIÇA,-7.038408753961741,41.39030741804266
pt.ine.add.PTCONT.868415,LG DA MISERICÓRDIA,70,5350-010,ALFÂNDEGA DA FÉ,-6.9656129724114475,41.34121423615692
pt.ine.add.PTCONT.868433,R DO MÁRTIR S SEBASTIÃO,6,5350-220,CEREJAIS,-6.927026941167779,41.297642722031945
pt.ine.add.PTCONT.868453,R MARIA DO CARMO PAULA,,5350-002,ALFÂNDEGA DA FÉ,-6.962082242429738,41.33956667154614
pt.ine.add.PTCONT.868454,R MARIA DO CARMO PAULA,,5350-002,ALFÂNDEGA DA FÉ,-6.962082242429738,41.33956667154614
pt.ine.add.PTCONT.868455,R MARIA DO CARMO PAULA,,5350-002,ALFÂNDEGA DA FÉ,-6.962082242429738,41.33956667154614
pt.ine.add.PTCONT.868456,R MARIA DO CARMO PAULA,,5350-002,ALFÂNDEGA DA FÉ,-6.962082242429738,41.33956667154614
pt.ine.add.PTCONT.868488,AV ENG CAMILO LEMOS DE MENDONÇA,661,5350-001,ALFÂNDEGA DA FÉ,-6.960794910958044,41.3487284902917
pt.ine.add.PTCONT.868489,AV ENG CAMILO LEMOS DE MENDONÇA,661,5350-001,ALFÂNDEGA DA FÉ,-6.960794910958044,41.3487284902917
pt.ine.add.PTCONT.868490,AV ENG CAMILO LEMOS DE MENDONÇA,661,5350-001,ALFÂNDEGA DA FÉ,-6.960794910958044,41.3487284902917
pt.ine.add.PTCONT.868491,AV ENG CAMILO LEMOS DE MENDONÇA,661,5350-001,ALFÂNDEGA DA FÉ,-6.960794910958044,41.3487284902917
pt.ine.add.PTCONT.868492,AV ENG CAMILO LEMOS DE MENDONÇA,661,5350-001,ALFÂNDEGA DA FÉ,-6.960794910958044,41.3487284902917
pt.ine.add.PTCONT.868499,,,5350-055,ALFÂNDEGA DA FÉ,-6.927120972498278,41.36701841666402
pt.ine.add.PTCONT.868530,R DA PORTELA,,5350-231,EUCISIA,-7.010658885682825,41.3123817374332
pt.ine.add.PTCONT.868531,R DA PORTELA,,5350-231,EUCISIA,-7.0040180049937115,41.31175853852103
pt.ine.add.PTCONT.868532,R DA BARREIRA,17,5350-242,FERRADOSA,-6.949644856793624,41.25639631171045
pt.ine.add.PTCONT.868556,R DA PORTELINHA,3,5350-242,FERRADOSA,-6.950890713943894,41.25612098511761
pt.ine.add.PTCONT.868557,R DAS EIRINHAS,,5350-262,GOUVEIA AFE,-6.9984554272402635,41.29165207880051
pt.ine.add.PTCONT.868558,R DA ESCOLA,,5350-261,GOUVEIA AFE,-6.981541994474298,41.27519596127751
pt.ine.add.PTCONT.868586,R DA ROSEIRA,18,5350-312,SAMBADE,-6.973459722435694,41.41470161001728
pt.ine.add.PTCONT.868587,PC DA REPÚBLICA,,5350-312,SAMBADE,-6.976170712216009,41.412234865296405
pt.ine.add.PTCONT.868588,R DA ESCOLA,,5350-360,SOEIMA,-6.964966204549006,41.43213694851936
pt.ine.add.PTCONT.868601,R DA BOTICA,,5350-390,VALVERDE AFE,-6.98890204545412,41.33074254148489
pt.ine.add.PTCONT.868602,R DA ROSEIRA,1,5350-402,VILAR CHÃO AFE,-6.864061529928074,41.33388150862636
pt.ine.add.PTCONT.868603,TV DO ABEXEIRO,1,5350-420,VILARELHOS,-7.040104138506076,41.34617767094642
pt.ine.add.PTCONT.868637,R DA IGREJA,,5350-432,VILARES DE VILARIÇA,-7.039409927348198,41.39120831680952
pt.ine.add.PTCONT.868638,R DA BARRAGEM,,5350-432,VILARES DE VILARIÇA,-7.040376125350465,41.391343550588715
pt.ine.add.PTCONT.868639,R DE S JOÃO,,5350-432,VILARES DE VILARIÇA,-7.038761795273704,41.39064391759132
pt.ine.add.PTCONT.869211,LOTEAM DO VALE DO ABADE,18,5350-433,ALFÂNDEGA DA FÉ,-6.96381334546053,41.33429000153134
pt.ine.add.PTCONT.869237,R DA FONTE DO SAPO,7,5350-220,CEREJAIS,-6.9272940291260525,41.29740241489225
pt.ine.add.PTCONT.869268,ADRO DO ESPÍRITO SANTO,28,5350-045,ALFÂNDEGA DA FÉ,-6.964180765404715,41.342469241164295
pt.ine.add.PTCONT.869269,R DOS CAVALEIROS DAS ESPORAS DOURADAS,,5350-432,VILARES DE VILARIÇA,-7.038291196363232,41.390900551157955
pt.ine.add.PTCONT.869329,R 25 DE ABRIL,396,5350-062,ALFÂNDEGA DA FÉ,-6.959069303093775,41.34900802483902
pt.ine.add.PTCONT.869330,R FONTE MONIZ,12,5350-312,SAMBADE,-6.970957517107039,41.414838427727986
pt.ine.add.PTCONT.869331,R DA IGREJA,,5350-370,VALE PEREIRO,-6.8982284261319675,41.38371110346324
pt.ine.add.PTCONT.869332,R DR MÁRIO MIRANDA,331,5350-069,ALFÂNDEGA DA FÉ,-6.96028912593404,41.34894843269453
pt.ine.add.PTCONT.869333,R DE NSA SRA DO ROSÁRIO,,5350-312,SAMBADE,-6.973156596466096,41.41493265159248
pt.ine.add.PTCONT.869334,R DR MÁRIO MIRANDA,182,5350-069,ALFÂNDEGA DA FÉ,-6.9591658873021744,41.347622417998885
pt.ine.add.PTCONT.869335,BC DAS FRAGUINHAS,,5350-001,ALFÂNDEGA DA FÉ,-6.964260936963132,41.341326565633956
pt.ine.add.PTCONT.869336,R DE S TIAGO,,5350-280,PARADA AFE,-6.881258331704752,41.30294352952668
pt.ine.add.PTCONT.869337,R DA EIRA DO PEREIRO,1,5350-241,FERRADOSA,-6.95254372310102,41.274974247382936
pt.ine.add.PTCONT.869338,,,5350-290,POMBAL AFE,-7.002591813981532,41.3776708640279
pt.ine.add.PTCONT.869339,R DA BARREIRA,15,5350-242,FERRADOSA,-6.949916471901084,41.25655217126848
pt.ine.add.PTCONT.869340,R DO PRADO,,5350-101,AGROBOM,-6.915468812493563,41.395806830482584
pt.ine.add.PTCONT.869341,R DO PRADO,,5350-101,AGROBOM,-6.9157949502393254,41.395630206583675
pt.ine.add.PTCONT.869342,R DA RUECA,98,5350-250,GEBELIM,-6.9304764434876045,41.44175764243763
pt.ine.add.PTCONT.869343,AV PRINCIPAL,138,5350-250,GEBELIM,-6.9303968395021975,41.4434765152607
pt.ine.add.PTCONT.869344,R DE CIMA,5,5350-250,GEBELIM,-6.932584480284535,41.44229287333746
pt.ine.add.PTCONT.869345,R DA ADONETA,,5350-005,ALFÂNDEGA DA FÉ,-6.96947862961566,41.33009759558369
pt.ine.add.PTCONT.869375,R DA SOALHEIRA,3,5350-402,VILAR CHÃO AFE,-6.865739586444965,41.33420613127763
pt.ine.add.PTCONT.869385,LG DO OUTÃO,9,5350-420,VILARELHOS,-7.039487138199341,41.34806262377577
pt.ine.add.PTCONT.869386,AV ENG CAMILO DE MENDONÇA,23,5350-420,VILARELHOS,-7.040077086430244,41.3485094187477
pt.ine.add.PTCONT.869986,R DA IGREJA,,5350-370,VALE PEREIRO,-6.898053936869627,41.38408738873785
pt.ine.add.PTCONT.870059,R DIREITA,2,5350-220,CEREJAIS,-6.923966695555794,41.29332475339052
pt.ine.add.PTCONT.870086,R DA PORTELA,40,5350-025,ALFÂNDEGA DA FÉ,-6.963999172041593,41.3426024543008
pt.ine.add.PTCONT.870087,LG DA IGREJA,4,5350-220,CEREJAIS,-6.923904119002826,41.29477372582594
pt.ine.add.PTCONT.870088,R DO OUTÃO,,5350-262,GOUVEIA AFE,-6.997520596899577,41.29117465464995
pt.ine.add.PTCONT.870089,R DO LOUREIRO,,5350-370,VALE PEREIRO,-6.898481609657292,41.38296650789886
pt.ine.add.PTCONT.870090,R 25 DE ABRIL,134,5350-062,ALFÂNDEGA DA FÉ,-6.957249366562743,41.347224689185126
pt.ine.add.PTCONT.870091,R DA ROSEIRA,16,5350-312,SAMBADE,-6.973409806816017,41.414818155615684
pt.ine.add.PTCONT.870092,LG DO OLMO,6,5350-220,CEREJAIS,-6.922250350683219,41.29381993348795
pt.ine.add.PTCONT.870093,R DO BAIRRINHO,14,5350-312,SAMBADE,-6.970551647423251,41.4130431647957
pt.ine.add.PTCONT.870094,R CAMILO DE MENDONÇA,77,5350-045,ALFÂNDEGA DA FÉ,-6.963640467659049,41.34195053192609
pt.ine.add.PTCONT.870095,R DR MANUEL SUSANO,11,5350-070,ALFÂNDEGA DA FÉ,-6.958341826171995,41.34627243519896
pt.ine.add.PTCONT.870096,BC DO GUEDES,7,5350-312,SAMBADE,-6.976875741229096,41.41294424618882
pt.ine.add.PTCONT.870097,R PROF JOÃO BAPTISTA VILARES,,5350-075,ALFÂNDEGA DA FÉ,-6.959376303838541,41.345220536865924
pt.ine.add.PTCONT.870098,R DO BAIRRO DO MEIO,,5350-312,SAMBADE,-6.973697804835778,41.412074913688286
pt.ine.add.PTCONT.870099,R ÁLVARO DA PONTE,37,5350-064,ALFÂNDEGA DA FÉ,-6.9568684785417085,41.34581619644935
pt.ine.add.PTCONT.870100,R DA EIRA DO PEREIRO,20,5350-241,FERRADOSA,-6.953242636815828,41.27460324709949
pt.ine.add.PTCONT.870101,,,5350-290,POMBAL AFE,-7.002645181629275,41.375969666369755
pt.ine.add.PTCONT.870102,BR DE TRÁS DO CASTELO,7,5350-052,ALFÂNDEGA DA FÉ,-6.9673328253852524,41.34057438968237
pt.ine.add.PTCONT.870103,R MANUEL JOSÉ VILARES,44,5350-043,ALFÂNDEGA DA FÉ,-6.9583543444631575,41.34424669682531
pt.ine.add.PTCONT.870104,R FRANCISCO MANUEL ALVES,57,5350-048,ALFÂNDEGA DA FÉ,-6.965746665330493,41.34175582391555
pt.ine.add.PTCONT.870105,R DA BARREIRA,6,5350-242,FERRADOSA,-6.950413611972225,41.25677337517454
pt.ine.add.PTCONT.870106,R DO CANTO,4,5350-300,SALDONHA,-6.875985903795752,41.405763488518964
pt.ine.add.PTCONT.870107,R DO CARVALHO,,5350-101,AGROBOM,-6.91647254250586,41.39648372700351
pt.ine.add.PTCONT.870108,R EMA DA COSTA PESSOA,12,5350-001,ALFÂNDEGA DA FÉ,-6.961697672046427,41.3496920910752
pt.ine.add.PTCONT.870109,PC DAS MENTIRAS,,5350-312,SAMBADE,-6.9741625951397355,41.41418647530924
pt.ine.add.PTCONT.870125,R DE S BERNARDINO DE SENA,,5350-390,VALVERDE AFE,-6.987710103161179,41.32786744904396
pt.ine.add.PTCONT.870126,LG DO CALVÁRIO,,5350-432,VILARES DE VILARIÇA,-7.039919330790457,41.39220357728749
pt.ine.add.PTCONT.870129,LG DO PRADO,,5350-390,VALVERDE AFE,-6.987318114074865,41.32910608348878
pt.ine.add.PTCONT.870132,QTA DA REGADA,,5350-390,VALVERDE AFE,-6.992330370061217,41.331424855412145
pt.ine.add.PTCONT.870133,R DA ESCOLA,,5350-432,VILARES DE VILARIÇA,-7.037655211065815,41.39174985981811
pt.ine.add.PTCONT.870140,R DO ALTO,31,5350-402,VILAR CHÃO AFE,-6.863703699229605,41.33508407460207
pt.ine.add.PTCONT.870814,R DA GRICHA,,5350-360,SOEIMA,-6.965153130725025,41.434389776555086
pt.ine.add.PTCONT.870706,R DR MÁRIO MIRANDA,20,5350-069,ALFÂNDEGA DA FÉ,-6.958746044466168,41.34638460715752
pt.ine.add.PTCONT.870711,R DAS PEREIRAS,14,5350-242,FERRADOSA,-6.95161159317829,41.256506552928215
pt.ine.add.PTCONT.870753,R DO PORTO,,5350-039,ALFÂNDEGA DA FÉ,-6.963115949508459,41.339883316893655
pt.ine.add.PTCONT.870754,R DO PORTO,,5350-039,ALFÂNDEGA DA FÉ,-6.963115949508459,41.339883316893655
pt.ine.add.PTCONT.870787,R JOÃO BERNARDINO FERREIRA,40,5350-066,ALFÂNDEGA DA FÉ,-6.95952976769563,41.34731999874616
pt.ine.add.PTCONT.870793,BR DO CEMITÉRIO,,5350-262,GOUVEIA AFE,-6.996250182854587,41.29283684805832
pt.ine.add.PTCONT.870794,R PRINCIPAL,,5350-370,VALE PEREIRO,-6.898973356985049,41.38288174591889
pt.ine.add.PTCONT.870795,R DO LOUREIRO,,5350-370,VALE PEREIRO,-6.8969691563790185,41.383922675161585
pt.ine.add.PTCONT.870796,R DIREITA,10,5350-220,CEREJAIS,-6.921689185757512,41.29382303264992
pt.ine.add.PTCONT.870797,R DR MÁRIO MIRANDA,18,5350-069,ALFÂNDEGA DA FÉ,-6.958909728435959,41.346584362102305
pt.ine.add.PTCONT.870798,R DAS GUERRAS,,5350-232,EUCISIA,-7.036519902295777,41.327649574739986
pt.ine.add.PTCONT.870799,R DR GAMA PIMENTEL,39,5350-231,EUCISIA,-7.012072330361572,41.31282770138881
pt.ine.add.PTCONT.870800,,,5350-055,ALFÂNDEGA DA FÉ,-6.927472494782038,41.36675198627195
pt.ine.add.PTCONT.870801,R 15 DE AGOSTO,10,5350-312,SAMBADE,-6.976456446666832,41.411634486721326
pt.ine.add.PTCONT.870802,R DO VALE DO BOI,,5350-062,ALFÂNDEGA DA FÉ,-6.954542273331069,41.34428875328363
pt.ine.add.PTCONT.870803,R DO CASTELO,26,5350-033,ALFÂNDEGA DA FÉ,-6.966183438340803,41.341382091659774
pt.ine.add.PTCONT.870804,R DO CASTELO,26,5350-033,ALFÂNDEGA DA FÉ,-6.966183438340803,41.341382091659774
pt.ine.add.PTCONT.870805,R DA MISERICÓRDIA,84,5350-024,ALFÂNDEGA DA FÉ,-6.96574115153989,41.341395613653944
pt.ine.add.PTCONT.870806,LG DR JOÃO PESSOA TRIGO,8,5350-242,FERRADOSA,-6.950135821821685,41.25695960454316
pt.ine.add.PTCONT.870807,R DA COSTA,,5350-101,AGROBOM,-6.915095547436394,41.396586206101404
pt.ine.add.PTCONT.870808,BR DO CANTO SALGUEIRO,9,5350-242,FERRADOSA,-6.95304231984606,41.25656624749019
pt.ine.add.PTCONT.870809,BR DAS EIRAS,,5350-353,SENDIM DA SERRA,-6.9808384559913055,41.29687042814907
pt.ine.add.PTCONT.870810,R MARIA DO CARMO PAULA,133,5350-002,ALFÂNDEGA DA FÉ,-6.962146469975102,41.33864893132526
pt.ine.add.PTCONT.870811,AV DR FRANCISCO SÁ CARNEIRO,48,5350-005,ALFÂNDEGA DA FÉ,-6.96349173731737,41.340247291217864
pt.ine.add.PTCONT.870812,AV DR FRANCISCO SÁ CARNEIRO,796,5350-005,ALFÂNDEGA DA FÉ,-6.965027260790429,41.3345454335419
pt.ine.add.PTCONT.870813,R DO PRADO,,5350-250,GEBELIM,-6.931059488594746,41.44452786993784
pt.ine.add.PTCONT.870815,LOTEAM DO VALE DO ABADE,19,5350-433,ALFÂNDEGA DA FÉ,-6.962411096841555,41.334545861500054
pt.ine.add.PTCONT.870816,R DA ROSEIRA,19,5350-312,SAMBADE,-6.973791837947495,41.414858021080406
pt.ine.add.PTCONT.870817,R DA FORJA,16,5350-420,VILARELHOS,-7.03952258663312,41.34665835551304
pt.ine.add.PTCONT.870818,R DAS CANCELAS,2,5350-420,VILARELHOS,-7.039768145407679,41.34412159402007
pt.ine.add.PTCONT.870822,BR DE CIMA,,5350-380,VALES AFE,-6.9956681303635975,41.39290009256001
pt.ine.add.PTCONT.870825,R FR JOÃO HORTELÃO,,5350-390,VALVERDE AFE,-6.988197120465779,41.330069243342
pt.ine.add.PTCONT.870838,R DO CABECINHO,35,5350-402,VILAR CHÃO AFE,-6.863321739069614,41.335683116842404
pt.ine.add.PTCONT.870839,R DA BARRAGEM,,5350-432,VILARES DE VILARIÇA,-7.0413719604204985,41.39113691257661
pt.ine.add.PTCONT.871465,R PROF JOÃO BAPTISTA VILARES,,5350-075,ALFÂNDEGA DA FÉ,-6.95947395331937,41.34577076763748
pt.ine.add.PTCONT.871471,R DO SANTUÁRIO,10,5350-220,CEREJAIS,-6.923199960147698,41.29346976284871
pt.ine.add.PTCONT.871545,R ÁLVARO DA PONTE,10,5350-064,ALFÂNDEGA DA FÉ,-6.956425512260787,41.345865690968395
pt.ine.add.PTCONT.871574,R DA SERRAÇÃO,,5350-312,SAMBADE,-6.979409926252649,41.4136989919618
pt.ine.add.PTCONT.871575,R ABADE PIMENTEL,,5350-312,SAMBADE,-6.97168627300248,41.41555708347565
pt.ine.add.PTCONT.871576,R DO LOUREIRO,,5350-370,VALE PEREIRO,-6.8987104063056375,41.38287892512168
pt.ine.add.PTCONT.871577,R DR MÁRIO MIRANDA,273,5350-069,ALFÂNDEGA DA FÉ,-6.960228273716961,41.34834455485099
pt.ine.add.PTCONT.871578,R DR MÁRIO MIRANDA,132,5350-069,ALFÂNDEGA DA FÉ,-6.959112464114379,41.347270722972034
pt.ine.add.PTCONT.871579,R DA CASA DO SANTO CRISTO,,5350-312,SAMBADE,-6.976142483042491,41.41247768281717
pt.ine.add.PTCONT.871580,R DO SANTO CRISTO,13,5350-312,SAMBADE,-6.976495316167832,41.41281436957666
pt.ine.add.PTCONT.871581,R DA FONTE DA TOUTELA,,5350-312,SAMBADE,-6.976420073876714,41.41233641403926
pt.ine.add.PTCONT.871582,R DA PORTELA,,5350-231,EUCISIA,-7.011335138336892,41.312640440291496
pt.ine.add.PTCONT.871583,R DE TRÁS DO CASTELO,28,5350-024,ALFÂNDEGA DA FÉ,-6.966404341137153,41.34239276354507
pt.ine.add.PTCONT.871584,R DO CASTELO,,5350-280,PARADA AFE,-6.8802357375712,41.30147377405643
pt.ine.add.PTCONT.871585,R DO BAIRRINHO,26,5350-312,SAMBADE,-6.970363053810474,41.412626501860906
pt.ine.add.PTCONT.871586,R ÁLVARO DA PONTE,108,5350-064,ALFÂNDEGA DA FÉ,-6.957179675576528,41.34644964623187
pt.ine.add.PTCONT.871587,,,5350-280,PARADA AFE,-6.881039956684156,41.26128906286174
pt.ine.add.PTCONT.871588,LG D DINIS,44,5350-014,ALFÂNDEGA DA FÉ,-6.966734572528627,41.34196392588976
pt.ine.add.PTCONT.871589,,,5350-290,POMBAL AFE,-7.003047121140112,41.3769190158059
pt.ine.add.PTCONT.871590,R DA PENA DO GATO,12,5350-242,FERRADOSA,-6.949908091663436,41.257677582458406
pt.ine.add.PTCONT.871591,LG DR JOÃO PESSOA TRIGO,4,5350-242,FERRADOSA,-6.950315577127563,41.25691643164561
pt.ine.add.PTCONT.871592,R DA CAPELA,,5350-300,SALDONHA,-6.875460192114718,41.40511847832434
pt.ine.add.PTCONT.871593,R DO OLIVAL,,5350-101,AGROBOM,-6.91598569164465,41.39501996914708
pt.ine.add.PTCONT.871594,R DA PRACINHA,,5350-300,SALDONHA,-6.875114650251924,41.405672931289764
pt.ine.add.PTCONT.871595,R DO EIRÓ,,5350-360,SOEIMA,-6.9643565192344985,41.43411157408275
pt.ine.add.PTCONT.871596,LG DR JOÃO NORONHA,1,5350-312,SAMBADE,-6.974587536934833,41.413830605277866
pt.ine.add.PTCONT.871597,R DA IGREJA,,5350-262,GOUVEIA AFE,-6.997632775439351,41.29158994286742
pt.ine.add.PTCONT.871605,R DAS CANCELAS,4,5350-420,VILARELHOS,-7.03984529069581,41.344509493933224
pt.ine.add.PTCONT.871613,R DA PORTELA,,5350-390,VALVERDE AFE,-6.989576687758668,41.33041610324566
pt.ine.add.PTCONT.871617,R DO OLIVAL,,5350-390,VALVERDE AFE,-6.988586671032548,41.330334230727814
pt.ine.add.PTCONT.871618,R DA BARRAGEM,,5350-432,VILARES DE VILARIÇA,-7.040482810931834,41.391398586649395
pt.ine.add.PTCONT.871620,R DAS EIRAS,12,5350-402,VILAR CHÃO AFE,-6.864537901260933,41.337650358929544
pt.ine.add.PTCONT.871621,R DE CIMA,,5350-432,VILARES DE VILARIÇA,-7.0382769761843065,41.39103547303452
pt.ine.add.PTCONT.871628,R DO VALE DE NABAIS,7,5350-402,VILAR CHÃO AFE,-6.867476075466497,41.335215662900346
pt.ine.add.PTCONT.871629,R DE S JOÃO,,5350-432,VILARES DE VILARIÇA,-7.039350843938804,41.38974013351515
pt.ine.add.PTCONT.871635,R DA SOALHEIRA,8,5350-402,VILAR CHÃO AFE,-6.865986286283802,41.33503719985653
pt.ine.add.PTCONT.871650,R DO RIBEIRO,1,5350-402,VILAR CHÃO AFE,-6.866028238565411,41.333489003686594
pt.ine.add.PTCONT.871658,AV ENG CAMILO DE MENDONÇA,21,5350-420,VILARELHOS,-7.040161315015314,41.34847420322749
pt.ine.add.PTCONT.872274,R DA ESCOLA,,5350-432,VILARES DE VILARIÇA,-7.037799572035244,41.39169721132726
pt.ine.add.PTCONT.872300,R DO EIRÓ,4,5350-241,FERRADOSA,-6.955342201036562,41.27399447090863
pt.ine.add.PTCONT.872384,R DE TRÁZ,4,5350-312,SAMBADE,-6.9761118806127245,41.41218025110689
pt.ine.add.PTCONT.872374,AV DR RICARDO DE ALMEIDA,36,5350-004,ALFÂNDEGA DA FÉ,-6.961661298353877,41.342389598589676
pt.ine.add.PTCONT.872375,R DE STO ANTÓNIO,15,5350-312,SAMBADE,-6.97628531937027,41.41319041585803
pt.ine.add.PTCONT.872376,LG DO INFANTÁRIO,,5350-060,ALFÂNDEGA DA FÉ,-6.958778348135215,41.345916736693646
pt.ine.add.PTCONT.872377,LG DO INFANTÁRIO,,5350-060,ALFÂNDEGA DA FÉ,-6.958778348135215,41.345916736693646
pt.ine.add.PTCONT.872378,LG DO INFANTÁRIO,,5350-060,ALFÂNDEGA DA FÉ,-6.958778348135215,41.345916736693646
pt.ine.add.PTCONT.872379,LG DO INFANTÁRIO,,5350-060,ALFÂNDEGA DA FÉ,-6.958778348135215,41.345916736693646
pt.ine.add.PTCONT.872380,LG DO INFANTÁRIO,,5350-060,ALFÂNDEGA DA FÉ,-6.958778348135215,41.345916736693646
pt.ine.add.PTCONT.872381,R DR GAMA PIMENTEL,,5350-231,EUCISIA,-7.012491771765913,41.3127417468223
pt.ine.add.PTCONT.872382,,,5350-055,ALFÂNDEGA DA FÉ,-6.927580751345042,41.36477228321952
pt.ine.add.PTCONT.872385,R DO FUNDO,,5350-312,SAMBADE,-6.976338145276176,41.41156126720704
pt.ine.add.PTCONT.872386,R 25 DE ABRIL,1,5350-312,SAMBADE,-6.971532757421913,41.40604756678358
pt.ine.add.PTCONT.872387,R DA CAPELA,,5350-102,AGROBOM,-6.914993765081757,41.4180410366807
pt.ine.add.PTCONT.872388,BR DAS EIRAS,,5350-353,SENDIM DA SERRA,-6.979888301215172,41.29726608926806
pt.ine.add.PTCONT.872389,BR DA SOBREIRA,42,5350-005,ALFÂNDEGA DA FÉ,-6.965288897763284,41.33461111592342
pt.ine.add.PTCONT.872390,R DE CIMA,,5350-250,GEBELIM,-6.932334923239629,41.4428484974371
pt.ine.add.PTCONT.872391,R DOS CASAIS,,5350-311,SAMBADE,-6.992921009444683,41.42351272697058
pt.ine.add.PTCONT.872392,R DOS CASAIS,,5350-311,SAMBADE,-6.992490299833642,41.422833176311265
pt.ine.add.PTCONT.872393,R DO BAIRRO,54,5350-250,GEBELIM,-6.931388635308087,41.44095684339716
pt.ine.add.PTCONT.872401,BR DE CIMA,,5350-380,VALES AFE,-6.9969598500849886,41.39287684022608
pt.ine.add.PTCONT.872411,R DA BOTICA,,5350-390,VALVERDE AFE,-6.9888649556756866,41.33081420379471
pt.ine.add.PTCONT.872423,R DA CORTINHA GRANDE,7,5350-402,VILAR CHÃO AFE,-6.8651658964186275,41.336684867245914
pt.ine.add.PTCONT.873041,BR DAS PENEDRAS,,5350-029,ALFÂNDEGA DA FÉ,-6.9615631206713005,41.33786866208517
pt.ine.add.PTCONT.873149,LG DO INFANTÁRIO,,5350-060,ALFÂNDEGA DA FÉ,-6.958778348135215,41.345916736693646
pt.ine.add.PTCONT.873150,R DO LOMBO,2,5350-220,CEREJAIS,-6.923354216720455,41.294812967044166
pt.ine.add.PTCONT.873364,R DA SANTA CRUZ,18,5350-001,ALFÂNDEGA DA FÉ,-6.962028624821337,41.34989354412518
pt.ine.add.PTCONT.873365,R DO ADRO,,5350-040,ALFÂNDEGA DA FÉ,-6.966101210685868,41.342641797908705
pt.ine.add.PTCONT.873366,R 25 DE ABRIL,113,5350-062,ALFÂNDEGA DA FÉ,-6.957232601822688,41.346828348633714
pt.ine.add.PTCONT.873367,R ÁLVARO DA PONTE,114,5350-064,ALFÂNDEGA DA FÉ,-6.957238433172399,41.34650426972586
pt.ine.add.PTCONT.873421,R MANUEL JOSÉ VILARES,,5350-043,ALFÂNDEGA DA FÉ,-6.957868916172362,41.34466492134962
pt.ine.add.PTCONT.873422,AV DOS BOMBEIROS VOLUNTÁRIOS,,5350-003,ALFÂNDEGA DA FÉ,-6.959130175916039,41.34362434454849
pt.ine.add.PTCONT.873423,R DE S PEDRO,108,5350-030,ALFÂNDEGA DA FÉ,-6.961722605344511,41.33896875664079
pt.ine.add.PTCONT.873424,R DAS FLORES,468,5350-068,ALFÂNDEGA DA FÉ,-6.9604539432177495,41.34975145450201
pt.ine.add.PTCONT.873471,R DO MÁRTIR S SEBASTIÃO,21,5350-220,CEREJAIS,-6.925208266777843,41.29656118948703
pt.ine.add.PTCONT.873472,R DO MÁRTIR S SEBASTIÃO,47,5350-220,CEREJAIS,-6.923847228440389,41.295268343218375
pt.ine.add.PTCONT.873473,R DA BARREIRA,3,5350-241,FERRADOSA,-6.955109815192599,41.27430723147633
pt.ine.add.PTCONT.873508,R DA ESCOLA,,5350-261,GOUVEIA AFE,-6.981556617449677,41.275043040159154
pt.ine.add.PTCONT.873509,R 15 DE AGOSTO,15,5350-312,SAMBADE,-6.971538349823181,41.415132413778636
pt.ine.add.PTCONT.873510,R 15 DE AGOSTO,,5350-312,SAMBADE,-6.976402386464945,41.411985089707045
pt.ine.add.PTCONT.873543,R 25 DE DEZEMBRO,6,5350-312,SAMBADE,-6.97135800215637,41.407801535854
pt.ine.add.PTCONT.873544,R DA CAPELA,6,5350-352,SENDIM DA RIBEIRA,-6.905958308613732,41.30953025685512
pt.ine.add.PTCONT.873545,R DA CAPELA,5,5350-352,SENDIM DA RIBEIRA,-6.892610449549029,41.28923645879024
pt.ine.add.PTCONT.873546,R DA JUNTA,,5350-360,SOEIMA,-6.965197448130518,41.43525458340741
pt.ine.add.PTCONT.873547,R DA IGREJA,,5350-360,SOEIMA,-6.966126189682977,41.432833004858544
pt.ine.add.PTCONT.873750,R ENG ADELINO AMARO DA COSTA,148,5350-071,ALFÂNDEGA DA FÉ,-6.958258235223978,41.345605297030474
pt.ine.add.PTCONT.873812,R DO MÁRTIR S SEBASTIÃO,8,5350-220,CEREJAIS,-6.926862313392773,41.29750593823808
pt.ine.add.PTCONT.873813,R DA SOALHEIRA,2,5350-220,CEREJAIS,-6.92192890768692,41.29377153194399
pt.ine.add.PTCONT.873814,R DAS EIRINHAS,,5350-262,GOUVEIA AFE,-6.998384902921359,41.291588355955106
pt.ine.add.PTCONT.873849,AV ENG CAMILO LEMOS DE MENDONÇA,,5350-001,ALFÂNDEGA DA FÉ,-6.959691401968839,41.345637927384146
pt.ine.add.PTCONT.873850,R ENG ADELINO AMARO DA COSTA,148,5350-071,ALFÂNDEGA DA FÉ,-6.958258235223978,41.345605297030474
pt.ine.add.PTCONT.874080,R CAMILO DE MENDONÇA,53,5350-045,ALFÂNDEGA DA FÉ,-6.963439495261813,41.34183143926613
pt.ine.add.PTCONT.874081,R CAMILO DE MENDONÇA,53,5350-045,ALFÂNDEGA DA FÉ,-6.963439495261813,41.34183143926613
pt.ine.add.PTCONT.874082,R CAMILO DE MENDONÇA,53,5350-045,ALFÂNDEGA DA FÉ,-6.963439495261813,41.34183143926613
pt.ine.add.PTCONT.874083,R CAMILO DE MENDONÇA,53,5350-045,ALFÂNDEGA DA FÉ,-6.963439495261813,41.34183143926613
