id,street,house,postcode,city,lon,lat
pt.ine.add.PTCONT.2273176,R VISC DE ASSECA,35,2050-040,AVEIRAS DE BAIXO,-8.830868622271618,39.08762208198859
pt.ine.add.PTCONT.2273304,,,2050-197,AVEIRAS DE CIMA,-8.923485829954235,39.16262126540096
pt.ine.add.PTCONT.2273305,TV POÇOS,1,2050-204,AVEIRAS DE CIMA,-8.9034319293877,39.14750611846661
pt.ine.add.PTCONT.2273306,R JOSE LUIS SOARES BRITO,,2050-189,AVEIRAS DE CIMA,-8.900079270860507,39.142358004040666
pt.ine.add.PTCONT.2273307,R JOSE LUIS SOARES BRITO,,2050-189,AVEIRAS DE CIMA,-8.900079270860507,39.142358004040666
pt.ine.add.PTCONT.2273308,R JOSE LUIS SOARES BRITO,,2050-189,AVEIRAS DE CIMA,-8.900079270860507,39.142358004040666
pt.ine.add.PTCONT.2273309,R JOSE LUIS SOARES BRITO,,2050-189,AVEIRAS DE CIMA,-8.900079270860507,39.142358004040666
pt.ine.add.PTCONT.2273310,R DR FRANCISCO MARIA DE ALMEIDA GRANDELA,118,2050-116,AVEIRAS DE CIMA,-8.899293991822908,39.139273641430094
pt.ine.add.PTCONT.2273311,R DR FRANCISCO MARIA DE ALMEIDA GRANDELA,118,2050-116,AVEIRAS DE CIMA,-8.899293991822908,39.139273641430094
pt.ine.add.PTCONT.2499349,EN 366,,2065-046,ALCOENTRE,-8.983612497651114,39.2228437754103
pt.ine.add.PTCONT.2273454,R ARAMEIRA,79,2050-080,AVEIRAS DE CIMA,-8.902941633618191,39.13966394469923
pt.ine.add.PTCONT.2273455,R PINA MANIQUE,80,2065-364,MANIQUE DO INTENDENTE,-8.894231183528188,39.221138235648894
pt.ine.add.PTCONT.2273456,R ANTÓNIO FERREIRA CAMILO,7,2065-322,MANIQUE DO INTENDENTE,-8.89203510275217,39.220440991534794
pt.ine.add.PTCONT.2273586,R DR BESSONE ABREU,22,2050-087,AVEIRAS DE CIMA,-8.90000622971598,39.139890465761745
pt.ine.add.PTCONT.2273587,R CARRIL,76,2050-196,AVEIRAS DE CIMA,-8.873945730826017,39.13314135432716
pt.ine.add.PTCONT.2273588,R CANCELAS,45,2050-092,AVEIRAS DE CIMA,-8.898618566707825,39.137782855650094
pt.ine.add.PTCONT.2273589,TV ADRO,5,2050-067,AVEIRAS DE CIMA,-8.897954119851146,39.135166071269325
pt.ine.add.PTCONT.2273590,ESTR CARVALHOS,54,2065-312,MANIQUE DO INTENDENTE,-8.867298103709793,39.21571759361763
pt.ine.add.PTCONT.2273591,R SERRADINHA,23,2050-414,VALE DO PARAÍSO,-8.887085667573086,39.11703293518145
pt.ine.add.PTCONT.2273592,R EIRAS,32,2050-415,VALE DO PARAÍSO,-8.886611199949611,39.11591007660368
pt.ine.add.PTCONT.2273593,R D JOÃO II,3,2050-419,VALE DO PARAÍSO,-8.884827902075914,39.114570477769256
pt.ine.add.PTCONT.2273709,R FONTE SANTA,14,2050-112,AVEIRAS DE CIMA,-8.90624071438838,39.13356213096847
pt.ine.add.PTCONT.2273710,TV FONTE SANTA,28,2050-113,AVEIRAS DE CIMA,-8.900265848802357,39.1371685308263
pt.ine.add.PTCONT.2273711,TV DANIEL RODRIGUES,1 A,2050-516,VILA NOVA DA RAINHA,-8.935597763916745,39.03702916178384
pt.ine.add.PTCONT.2273712,R MANUEL JOAQUIM ALVES DINIS,18,2050-510,VILA NOVA DA RAINHA,-8.93291513785927,39.03777719634647
pt.ine.add.PTCONT.2273713,R PEDRO ALVES JALEKO,68,2065-557,VILA NOVA DE SÃO PEDRO,-8.845935344434753,39.21345433944163
pt.ine.add.PTCONT.2273714,R JOSE LUIS INÁCIO RAIMUNDO,47,2065-556,VILA NOVA DE SÃO PEDRO,-8.841162758597056,39.21553710558312
pt.ine.add.PTCONT.2273884,R MURTA,,2050-285,AZAMBUJA,-8.912454161402225,39.08658313686875
pt.ine.add.PTCONT.2273885,R CASALEIROS,,2050-360,AZAMBUJA,-8.90380998235198,39.06649089641958
pt.ine.add.PTCONT.2273886,R ALFREDO REBELO,,2050-360,AZAMBUJA,-8.909588666893933,39.064515953654016
pt.ine.add.PTCONT.2273887,R GRUPO DESPORTIVO AZAMBUJENSE,14,2050-387,AZAMBUJA,-8.873868139305822,39.07505070503961
pt.ine.add.PTCONT.2273888,R GRUPO DESPORTIVO AZAMBUJENSE,14,2050-387,AZAMBUJA,-8.873868139305822,39.07505070503961
pt.ine.add.PTCONT.2273889,R GRUPO DESPORTIVO AZAMBUJENSE,14,2050-387,AZAMBUJA,-8.873868139305822,39.07505070503961
pt.ine.add.PTCONT.2273890,R DESPORTO E RECREIO ALÉM CALENSE,10,2065-552,VILA NOVA DE SÃO PEDRO,-8.824656910864297,39.20548504272567
pt.ine.add.PTCONT.2273891,R COURELAS,01,2065-617,MAÇUSSA,-8.869561575602013,39.199625311531086
pt.ine.add.PTCONT.2273892,R 25 DE ABRIL,26,2065-607,MAÇUSSA,-8.864266910618026,39.19474067582212
pt.ine.add.PTCONT.2273893,TV OLIVAL,4,2065-633,MAÇUSSA,-8.865087271392435,39.191249698009116
pt.ine.add.PTCONT.2273894,TV 1 DE DEZEMBRO,7,2065-605,MAÇUSSA,-8.865800424489942,39.19304667640703
pt.ine.add.PTCONT.2273987,,,2050-378,AZAMBUJA,-8.8717567583512,39.094081049272546
pt.ine.add.PTCONT.2273988,R CORVO,,2050-384,AZAMBUJA,-8.90198834701915,39.086022100558864
pt.ine.add.PTCONT.2273989,R JOSE LOURENÇO,,2050-384,AZAMBUJA,-8.89928014227123,39.082472975697414
pt.ine.add.PTCONT.2274118,R CENTRO SOCIAL E PAROQUIAL,4,2050-398,AZAMBUJA,-8.870486479321814,39.06755307548165
pt.ine.add.PTCONT.2274119,R CENTRO SOCIAL E PAROQUIAL,4,2050-398,AZAMBUJA,-8.870486479321814,39.06755307548165
pt.ine.add.PTCONT.2274120,R CENTRO SOCIAL E PAROQUIAL,4,2050-398,AZAMBUJA,-8.870486479321814,39.06755307548165
pt.ine.add.PTCONT.2274228,R CENTRO SOCIAL E PAROQUIAL,4,2050-398,AZAMBUJA,-8.870486479321814,39.06755307548165
pt.ine.add.PTCONT.2274229,R CENTRO SOCIAL E PAROQUIAL,4,2050-398,AZAMBUJA,-8.870486479321814,39.06755307548165
pt.ine.add.PTCONT.2274230,R CENTRO SOCIAL E PAROQUIAL,4,2050-398,AZAMBUJA,-8.870486479321814,39.06755307548165
pt.ine.add.PTCONT.2274231,R CENTRO SOCIAL E PAROQUIAL,4,2050-398,AZAMBUJA,-8.870486479321814,39.06755307548165
pt.ine.add.PTCONT.2274232,R CENTRO SOCIAL E PAROQUIAL,4,2050-398,AZAMBUJA,-8.870486479321814,39.06755307548165
pt.ine.add.PTCONT.2274676,R D FRANCISCO CHILD ROLIM DE MOURA,21,2050-003,AZAMBUJA,-8.872413081473432,39.072801250156296
pt.ine.add.PTCONT.2274775,LG 25 DE ABRIL,8,2065-112,ALCOENTRE,-8.942923591979358,39.24125627020407
pt.ine.add.PTCONT.2274776,R FERREIRO,1,2065-128,ALCOENTRE,-8.94221211697538,39.240828869518445
pt.ine.add.PTCONT.2274777,BR ESTABELECIMENTO PRISIONAL DE ALCOENTRE,,2065-285,ALCOENTRE,-8.96328473769995,39.21161430241407
pt.ine.add.PTCONT.2274778,BR ESTABELECIMENTO PRISIONAL DE ALCOENTRE,,2065-285,ALCOENTRE,-8.96328473769995,39.21161430241407
pt.ine.add.PTCONT.2274779,BR ESTABELECIMENTO PRISIONAL DE ALCOENTRE,,2065-285,ALCOENTRE,-8.96328473769995,39.21161430241407
pt.ine.add.PTCONT.2274780,EN 1,,2065-107,ALCOENTRE,-8.9881438808465,39.21359622391752
pt.ine.add.PTCONT.2274781,CASAIS DA AREIA,,2065-103,ALCOENTRE,-8.972296804435567,39.212945849635936
pt.ine.add.PTCONT.2274782,R FORCADOS AMADORES DA AZAMBUJA,5,2050-390,AZAMBUJA,-8.874941210877726,39.07035317333371
pt.ine.add.PTCONT.2274783,R FORCADOS AMADORES DA AZAMBUJA,5,2050-390,AZAMBUJA,-8.874941210877726,39.07035317333371
pt.ine.add.PTCONT.2274784,R FORCADOS AMADORES DA AZAMBUJA,5,2050-390,AZAMBUJA,-8.874941210877726,39.07035317333371
pt.ine.add.PTCONT.2274785,R FORCADOS AMADORES DA AZAMBUJA,5,2050-390,AZAMBUJA,-8.874941210877726,39.07035317333371
pt.ine.add.PTCONT.2274786,R FORCADOS AMADORES DA AZAMBUJA,5,2050-390,AZAMBUJA,-8.874941210877726,39.07035317333371
pt.ine.add.PTCONT.2274787,R FORCADOS AMADORES DA AZAMBUJA,5,2050-390,AZAMBUJA,-8.874941210877726,39.07035317333371
pt.ine.add.PTCONT.2274788,R FORCADOS AMADORES DA AZAMBUJA,5,2050-390,AZAMBUJA,-8.874941210877726,39.07035317333371
pt.ine.add.PTCONT.2274789,R FORCADOS AMADORES DA AZAMBUJA,5,2050-390,AZAMBUJA,-8.874941210877726,39.07035317333371
pt.ine.add.PTCONT.2274790,R FORCADOS AMADORES DA AZAMBUJA,5,2050-390,AZAMBUJA,-8.874941210877726,39.07035317333371
pt.ine.add.PTCONT.2274791,R FORCADOS AMADORES DA AZAMBUJA,5,2050-390,AZAMBUJA,-8.874941210877726,39.07035317333371
pt.ine.add.PTCONT.2274916,R PINA MANIQUE,30,2065-042,ALCOENTRE,-8.958268004039779,39.21033488963215
pt.ine.add.PTCONT.2274917,R S JOAO,56,2065-045,ALCOENTRE,-8.957991498763166,39.208472349496446
pt.ine.add.PTCONT.2274918,R B DO BR SOCASA,22,2065-012,ALCOENTRE,-8.958306001501748,39.2046780729061
pt.ine.add.PTCONT.2274919,R OLARIA,36,2050-321,AZAMBUJA,-8.869691057817283,39.06995409517126
pt.ine.add.PTCONT.2275070,R BELA VISTA QTA DE SANTA ISABEL,6,2050-038,AVEIRAS DE BAIXO,-8.841514776567646,39.11103158874251
pt.ine.add.PTCONT.2275071,R CAMPO DE FUTEBOL,,2050-018,AVEIRAS DE BAIXO,-8.87964241837008,39.106371015647504
pt.ine.add.PTCONT.2275072,R 1 DE DEZEMBRO,17,2050-016,AVEIRAS DE BAIXO,-8.872285966617708,39.11155212590168
pt.ine.add.PTCONT.2275073,R VINHA DO FORNO,,2050-025,AVEIRAS DE BAIXO,-8.866190429454306,39.1035019411703
pt.ine.add.PTCONT.2275074,CSL MOTA,8,2050-038,AVEIRAS DE BAIXO,-8.838465087402144,39.11129328183806
pt.ine.add.PTCONT.2275134,R VALE DA ADEGA,,2050-281,AZAMBUJA,-8.895114411072766,39.07661840000731
pt.ine.add.PTCONT.2275154,R BEIROES,8,2050-260,AZAMBUJA,-8.863639529026583,39.07475712449897
pt.ine.add.PTCONT.2275195,BR ESTABELECIMENTO PRISIONAL DE ALCOENTRE,,2065-285,ALCOENTRE,-8.96328473769995,39.21161430241407
pt.ine.add.PTCONT.2275196,R FORCADOS AMADORES DA AZAMBUJA,5,2050-390,AZAMBUJA,-8.874941210877726,39.07035317333371
pt.ine.add.PTCONT.2275253,R MAXIAL,10,2065-011,ALCOENTRE,-8.95574294309651,39.21123545745365
pt.ine.add.PTCONT.2275296,R BARRABEL,8,2050-083,AVEIRAS DE CIMA,-8.907358948514355,39.13217657948654
pt.ine.add.PTCONT.2275368,R CENTRO SOCIAL E PAROQUIAL,4,2050-398,AZAMBUJA,-8.870486479321814,39.06755307548165
pt.ine.add.PTCONT.2275427,R FORCADOS AMADORES DA AZAMBUJA,5,2050-390,AZAMBUJA,-8.874941210877726,39.07035317333371
pt.ine.add.PTCONT.2275443,R ARAMEIRA,79B,2050-080,AVEIRAS DE CIMA,-8.902941633618191,39.13966394469923
pt.ine.add.PTCONT.2275640,R DR FRANCISCO MARIA DE ALMEIDA GRANDELA,158,2050-117,AVEIRAS DE CIMA,-8.899600123572991,39.14083891099433
pt.ine.add.PTCONT.2275799,R MOINHO NOVO,51,2050-143,AVEIRAS DE CIMA,-8.904014501827351,39.13622504490074
pt.ine.add.PTCONT.2275805,QTA FONTE DO PINHEIRO,,2050-306,AZAMBUJA,-8.88727450894134,39.06096031787333
pt.ine.add.PTCONT.2275809,R CAPELA,,2065-101,ALCOENTRE,-8.964569599692346,39.2007874429862
pt.ine.add.PTCONT.2275810,R BOA ESPERANÇA,,2065-101,ALCOENTRE,-8.962268951834016,39.19809265716633
pt.ine.add.PTCONT.2276004,TV ASSOCIAÇÃO,,2065-117,ALCOENTRE,-8.94235772467323,39.24140431853315
pt.ine.add.PTCONT.2277311,R CARRASCO,96,2050-095,AVEIRAS DE CIMA,-8.917187101613939,39.131975769912636
pt.ine.add.PTCONT.2277507,R JOSE LUIS SOARES BRITO,,2050-189,AVEIRAS DE CIMA,-8.900079270860507,39.142358004040666
pt.ine.add.PTCONT.2277559,R 25 DE ABRIL,27,2050-317,AZAMBUJA,-8.874183839697004,39.07196132147217
pt.ine.add.PTCONT.2277560,R 25 DE ABRIL,27,2050-317,AZAMBUJA,-8.874183839697004,39.07196132147217
pt.ine.add.PTCONT.2277561,R 25 DE ABRIL,27,2050-317,AZAMBUJA,-8.874183839697004,39.07196132147217
pt.ine.add.PTCONT.2277562,R 25 DE ABRIL,27,2050-317,AZAMBUJA,-8.874183839697004,39.07196132147217
pt.ine.add.PTCONT.2277563,R MOINHO,,2050-324,AZAMBUJA,-8.86856995871984,39.071042070003955
pt.ine.add.PTCONT.2277564,R MOINHO,,2050-324,AZAMBUJA,-8.86856995871984,39.071042070003955
pt.ine.add.PTCONT.2277578,R BEIROES,8,2050-260,AZAMBUJA,-8.863639529026583,39.07475712449897
pt.ine.add.PTCONT.2277752,R VALE DE EGUAS,,2065-282,ALCOENTRE,-8.960806088046713,39.223368354333324
pt.ine.add.PTCONT.2277756,R SITIO DOS POÇOS,38,2050-180,AVEIRAS DE CIMA,-8.910312573542774,39.15467532308921
pt.ine.add.PTCONT.2277759,R POVO UNIDO,10,2065-147,ALCOENTRE,-8.946203197162996,39.241395550024784
pt.ine.add.PTCONT.2277761,R C DO BR SOCASA,64,2065-012,ALCOENTRE,-8.959951660849967,39.203837737824536
pt.ine.add.PTCONT.2277762,ESTR CANEIRA,122,2050-198,AVEIRAS DE CIMA,-8.91712393295825,39.15130598943822
pt.ine.add.PTCONT.2277766,R SALGUEIRAS,,2065-107,ALCOENTRE,-8.996272982978955,39.20327704642819
pt.ine.add.PTCONT.2277767,IC 2,,2065-107,ALCOENTRE,-9.000492630192179,39.19997608081361
pt.ine.add.PTCONT.2277768,R ESCOLA,10,2050-021,AVEIRAS DE BAIXO,-8.867629169899033,39.110689825044766
pt.ine.add.PTCONT.2277772,TV VALE DO GACHO,,2050-035,AVEIRAS DE BAIXO,-8.86962415022379,39.113523584542655
pt.ine.add.PTCONT.2277773,R CUSTÓDIO DOS SANTOS,,2065-125,ALCOENTRE,-8.942925215686909,39.23938276162803
pt.ine.add.PTCONT.2277777,ESTR GONÇALVES TEIXEIRA,20,2050-198,AVEIRAS DE CIMA,-8.916577299002988,39.14686904250779
pt.ine.add.PTCONT.2277779,R DR FRANCISCO MARIA DE ALMEIDA GRANDELA,,2065-238,ALCOENTRE,-8.982818505161791,39.23478410692166
pt.ine.add.PTCONT.2277780,BR ESTABELECIMENTO PRISIONAL DE ALCOENTRE,M4A,2065-285,ALCOENTRE,-8.957865528311313,39.230360794440024
pt.ine.add.PTCONT.2277781,BR ESTABELECIMENTO PRISIONAL DE ALCOENTRE,M4A,2065-285,ALCOENTRE,-8.957865528311313,39.230360794440024
pt.ine.add.PTCONT.2277782,BR ESTABELECIMENTO PRISIONAL DE ALCOENTRE,M4A,2065-285,ALCOENTRE,-8.957865528311313,39.230360794440024
pt.ine.add.PTCONT.2277783,BR ESTABELECIMENTO PRISIONAL DE ALCOENTRE,M4A,2065-285,ALCOENTRE,-8.957865528311313,39.230360794440024
pt.ine.add.PTCONT.2277784,ESTR CANEIRA,89A,2050-198,AVEIRAS DE CIMA,-8.917202206172973,39.151062264515716
pt.ine.add.PTCONT.2277788,ESTR AMEIXOEIRA,59,2050-198,AVEIRAS DE CIMA,-8.920259518191326,39.14720452496643
pt.ine.add.PTCONT.2277789,TV ROSSIO,13,2065-240,ALCOENTRE,-8.984398649104701,39.23232261284816
pt.ine.add.PTCONT.2277790,R DR FRANCISCO MARIA DE ALMEIDA GRANDELA,134,2050-116,AVEIRAS DE CIMA,-8.899368169060057,39.13971451496615
pt.ine.add.PTCONT.2277792,R PRATAS,18,2050-154,AVEIRAS DE CIMA,-8.901916310237226,39.141102884114765
pt.ine.add.PTCONT.2277793,R 25 DE ABRIL,37,2050-066,AVEIRAS DE CIMA,-8.901466933901316,39.1391332336291
pt.ine.add.PTCONT.2277794,R 1 DE DEZEMBRO,17,2065-203,ALCOENTRE,-8.98429417451673,39.2284682971434
pt.ine.add.PTCONT.2277795,ESTR AMEIXOEIRA,135,2050-198,AVEIRAS DE CIMA,-8.93179482920862,39.148441116526044
pt.ine.add.PTCONT.2277840,R ALCOENTRINHO,5,2065-319,MANIQUE DO INTENDENTE,-8.892434088060066,39.22200565280684
pt.ine.add.PTCONT.2277841,R 25 DE ABRIL,4,2065-552,VILA NOVA DE SÃO PEDRO,-8.82866325241763,39.206722213636006
pt.ine.add.PTCONT.2277842,LG PINA MANIQUE,3,2065-345,MANIQUE DO INTENDENTE,-8.89352341094169,39.22100774940161
pt.ine.add.PTCONT.2277843,R D JOÃO AFONSO ESTEVES DE AZAMBUJA,,2050-326,AZAMBUJA,-8.870355300842604,39.06938242567919
pt.ine.add.PTCONT.2277844,R COMBATENTES DA GRANDE GUERRA,14,2065-311,MANIQUE DO INTENDENTE,-8.889708367950583,39.24531609029422
pt.ine.add.PTCONT.2277845,R ENG SOMMER ANDRADE,,2050-360,AZAMBUJA,-8.906296476995093,39.06458286564944
pt.ine.add.PTCONT.2277846,R CORVO QTA DA NASCENTE,,2050-384,AZAMBUJA,-8.904358041941018,39.08393473596765
pt.ine.add.PTCONT.2277847,R JOÃO RIO DE CARVALHO,23,2050-290,AZAMBUJA,-8.874754580293708,39.07349797253491
pt.ine.add.PTCONT.2277848,R COMBATENTES DA GRANDE GUERRA,50,2050-410,VALE DO PARAÍSO,-8.88402022834766,39.11581870644935
pt.ine.add.PTCONT.2277849,R REPUBLICA,7,2065-348,MANIQUE DO INTENDENTE,-8.895641424201575,39.217697249874654
pt.ine.add.PTCONT.2277850,R ALTO DO MOINHO,,2050-069,AVEIRAS DE CIMA,-8.90400305984282,39.13729699798953
pt.ine.add.PTCONT.2277851,R VALE PUCAROS,18,2065-367,MANIQUE DO INTENDENTE,-8.886425502541599,39.22213473844042
pt.ine.add.PTCONT.2277852,QTA VALE DO FORNO,,2050-606,AZAMBUJA,-8.874412794210143,39.09163217973282
pt.ine.add.PTCONT.2277853,R PINA MANIQUE,27,2065-362,MANIQUE DO INTENDENTE,-8.889801187531852,39.22160845262314
pt.ine.add.PTCONT.2277854,R EIRAS,76,2050-415,VALE DO PARAÍSO,-8.88767087628705,39.11444402129435
pt.ine.add.PTCONT.2277855,R EIRAS,76,2050-415,VALE DO PARAÍSO,-8.88767087628705,39.11444402129435
pt.ine.add.PTCONT.2277856,R JOAQUIM BATISTA AMENDOEIRA,1,2050-196,AVEIRAS DE CIMA,-8.875083911173766,39.13249458974823
pt.ine.add.PTCONT.2277857,TV FERREA I,1,2050-105,AVEIRAS DE CIMA,-8.903264039818746,39.135284231736485
pt.ine.add.PTCONT.2277858,R JOSE LUIS INÁCIO RAIMUNDO,65,2065-556,VILA NOVA DE SÃO PEDRO,-8.841204911787774,39.21627544620255
pt.ine.add.PTCONT.2277859,R MARINHO,1,2065-556,VILA NOVA DE SÃO PEDRO,-8.843608016863195,39.215747399071965
pt.ine.add.PTCONT.2277860,R RELOGIO,14,2050-190,AVEIRAS DE CIMA,-8.903460103733485,39.13204928730131
pt.ine.add.PTCONT.2277861,R SERRADAS,8,2065-354,MANIQUE DO INTENDENTE,-8.895265043391884,39.22358144681909
pt.ine.add.PTCONT.2277862,QTA QUEIMADO,,2050-524,VILA NOVA DA RAINHA,-8.929655126826857,39.03751126503939
pt.ine.add.PTCONT.2277863,R 25 DE ABRIL,87,2050-317,AZAMBUJA,-8.87669893721447,39.07708858128631
pt.ine.add.PTCONT.2277864,R DR ANTÓNIO CANOVA RIBEIRO,47,2065-321,MANIQUE DO INTENDENTE,-8.896831180884924,39.223841406261215
pt.ine.add.PTCONT.2277865,R PINA MANIQUE,26,2065-363,MANIQUE DO INTENDENTE,-8.88724877626611,39.22223749833443
pt.ine.add.PTCONT.2277866,TV FLORES,9,2050-346,AZAMBUJA,-8.870178808838414,39.069095161160384
pt.ine.add.PTCONT.2277867,R AGUA FERREA,4,2050-252,AZAMBUJA,-8.872657687730639,39.070773014831545
pt.ine.add.PTCONT.2277868,R NOVA DO ROSSIO,015,2050-422,VALE DO PARAÍSO,-8.885663012346239,39.11481729720519
pt.ine.add.PTCONT.2277869,R 25 DE ABRIL,14,2050-537,VILA NOVA DA RAINHA,-8.93352986853131,39.038007174643184
pt.ine.add.PTCONT.2277870,R JOSE LUIS INÁCIO RAIMUNDO,12,2065-556,VILA NOVA DE SÃO PEDRO,-8.841473280578796,39.21417511846004
pt.ine.add.PTCONT.2277871,R ESCOLAS,9,2065-550,VILA NOVA DE SÃO PEDRO,-8.842747108620063,39.2095916652477
pt.ine.add.PTCONT.2277872,R PINHAL DE BAIXO,17,2065-347,MANIQUE DO INTENDENTE,-8.895795237788992,39.21693062630782
pt.ine.add.PTCONT.2277873,R VALE D FRANCISCA,,2050-383,AZAMBUJA,-8.906864828416845,39.088061554330345
pt.ine.add.PTCONT.2277874,ESC PACO,1,2050-301,AZAMBUJA,-8.870373067747076,39.068868886388294
pt.ine.add.PTCONT.2277875,TV OLIVEIRA,1,2050-340,AZAMBUJA,-8.867236422830675,39.069474162233114
pt.ine.add.PTCONT.2277876,TV OLIVEIRA,1,2050-340,AZAMBUJA,-8.867236422830675,39.069474162233114
pt.ine.add.PTCONT.2277877,R QUINTA DA VÁRZEA,,2050-360,AZAMBUJA,-8.906946630968758,39.07333381890262
pt.ine.add.PTCONT.2277878,R VALE DA ADEGA,E18,2050-281,AZAMBUJA,-8.878529088640049,39.06651111839436
pt.ine.add.PTCONT.2277879,R VALE DA ADEGA,E18,2050-281,AZAMBUJA,-8.878529088640049,39.06651111839436
pt.ine.add.PTCONT.2277880,R VALE ADEGA E,E,2050-281,AZAMBUJA,-8.878529088640049,39.06651111839436
pt.ine.add.PTCONT.2277881,R VALE DA ADEGA,E18,2050-281,AZAMBUJA,-8.878529088640049,39.06651111839436
pt.ine.add.PTCONT.2277882,R VALE DA ADEGA,E18,2050-281,AZAMBUJA,-8.878529088640049,39.06651111839436
pt.ine.add.PTCONT.2277883,R VALE ADEGA,18,2050-281,AZAMBUJA,-8.878529088640049,39.06651111839436
pt.ine.add.PTCONT.2277884,R VALE DA ADEGA,E18,2050-281,AZAMBUJA,-8.878529088640049,39.06651111839436
pt.ine.add.PTCONT.2277885,R VALE DA ADEGA,E18,2050-281,AZAMBUJA,-8.878529088640049,39.06651111839436
pt.ine.add.PTCONT.2277886,TV B,5,2050-272,AZAMBUJA,-8.877240960627198,39.07258138404711
pt.ine.add.PTCONT.2277887,R CAJU,,2050-090,AVEIRAS DE CIMA,-8.896174395673823,39.13422295406906
pt.ine.add.PTCONT.2277888,R ALCOENTRINHO,6,2065-319,MANIQUE DO INTENDENTE,-8.892447413877454,39.2221676964073
pt.ine.add.PTCONT.2278013,R FONTE,5,2065-555,VILA NOVA DE SÃO PEDRO,-8.845235181885464,39.20603661771913
pt.ine.add.PTCONT.2278015,,,2065-557,VILA NOVA DE SÃO PEDRO,-8.83398219120139,39.195566314909144
pt.ine.add.PTCONT.2278038,R 1 DE DEZEMBRO,19,2065-604,MAÇUSSA,-8.865838889455805,39.193406726636084
pt.ine.add.PTCONT.2284096,R CORVO,,2050-384,AZAMBUJA,-8.903528437027203,39.086291165466015
pt.ine.add.PTCONT.2284099,R JOÃO MARCELINO NORONHA AZEVEDO,23,2065-311,MANIQUE DO INTENDENTE,-8.892727546324801,39.24385528330656
pt.ine.add.PTCONT.2284100,TV SENTIEIRA III,3,2050-169,AVEIRAS DE CIMA,-8.902485765128962,39.13497411350789
pt.ine.add.PTCONT.2284106,BR ESTABELECIMENTO PRISIONAL DE ALCOENTRE,M4A,2065-285,ALCOENTRE,-8.957865528311313,39.230360794440024
pt.ine.add.PTCONT.2284490,R EIRAS,69,2050-415,VALE DO PARAÍSO,-8.887371334348918,39.11454504135804
pt.ine.add.PTCONT.2284497,TV CERRADO,9,2065-020,ALCOENTRE,-8.959890957857038,39.20952173827309
pt.ine.add.PTCONT.2284507,R PAZ,9,2050-024,AVEIRAS DE BAIXO,-8.869228229188098,39.11103102848626
pt.ine.add.PTCONT.2284580,BR ESTABELECIMENTO PRISIONAL DE ALCOENTRE,M4A,2065-285,ALCOENTRE,-8.957865528311313,39.230360794440024
pt.ine.add.PTCONT.2284581,R COMBATENTES DA GRANDE GUERRA,10,2065-311,MANIQUE DO INTENDENTE,-8.889394565085642,39.24521904908828
pt.ine.add.PTCONT.2284622,ESTR CASAL DOS QUEIJOS,,2065-101,ALCOENTRE,-8.971757133767364,39.19288160077938
pt.ine.add.PTCONT.2284623,R VALE DO ESTACAL,16,2065-358,MANIQUE DO INTENDENTE,-8.899110091680354,39.22255642086052
pt.ine.add.PTCONT.2284824,R SANTO ANTÓNIO,13,2065-551,VILA NOVA DE SÃO PEDRO,-8.835994369374912,39.20698446031159
pt.ine.add.PTCONT.2286449,R ENG SOMMER ANDRADE,,2050-360,AZAMBUJA,-8.90993507729819,39.06133400509469
pt.ine.add.PTCONT.2286681,R VALE DE EGUAS,,2065-282,ALCOENTRE,-8.966595127577245,39.22720017525144
pt.ine.add.PTCONT.2286682,R BOAVISTA,69,2050-195,AVEIRAS DE CIMA,-8.932055345372572,39.14488142933314
pt.ine.add.PTCONT.2286697,R VALE DE EGUAS,,2065-282,ALCOENTRE,-8.961775979739743,39.22312727082636
pt.ine.add.PTCONT.2286698,R VALE DE EGUAS,,2065-282,ALCOENTRE,-8.962426341838462,39.22230298557012
pt.ine.add.PTCONT.2286700,BC FIRMINOS,5,2050-038,AVEIRAS DE BAIXO,-8.839714085909,39.112483707238844
pt.ine.add.PTCONT.2286702,R VISC DE ASSECA,1B,2050-040,AVEIRAS DE BAIXO,-8.828401016654981,39.08721374345699
pt.ine.add.PTCONT.2286703,R VISC DE ASSECA,1B,2050-040,AVEIRAS DE BAIXO,-8.828401016654981,39.08721374345699
pt.ine.add.PTCONT.2286704,R VISC DE ASSECA,1B,2050-040,AVEIRAS DE BAIXO,-8.828401016654981,39.08721374345699
pt.ine.add.PTCONT.2286705,R VISC DE ASSECA,1B,2050-040,AVEIRAS DE BAIXO,-8.828401016654981,39.08721374345699
pt.ine.add.PTCONT.2286706,R VISC DE ASSECA,1B,2050-040,AVEIRAS DE BAIXO,-8.828401016654981,39.08721374345699
pt.ine.add.PTCONT.2286707,R VISC DE ASSECA,1B,2050-040,AVEIRAS DE BAIXO,-8.828401016654981,39.08721374345699
pt.ine.add.PTCONT.2286708,R VISC DE ASSECA,1B,2050-040,AVEIRAS DE BAIXO,-8.828401016654981,39.08721374345699
pt.ine.add.PTCONT.2286709,BC SITIO DOS POÇOS,,2050-180,AVEIRAS DE CIMA,-8.910541030664687,39.15335872704266
pt.ine.add.PTCONT.2286712,R 1 DE MAIO,21,2050-038,AVEIRAS DE BAIXO,-8.836318471881073,39.11284652239983
pt.ine.add.PTCONT.2286713,R LIBERDADE,19,2050-038,AVEIRAS DE BAIXO,-8.837808280896374,39.1138373514691
pt.ine.add.PTCONT.2286717,R POVO UNIDO,11,2065-147,ALCOENTRE,-8.946318498350966,39.241349709038815
pt.ine.add.PTCONT.2286720,R FRANCISCO VITORINO DOS SANTOS,95,2050-040,AVEIRAS DE BAIXO,-8.830564957358034,39.087480051207386
pt.ine.add.PTCONT.2286721,PCT 25 DE ABRIL URB DAS VIRTUDES,90,2050-040,AVEIRAS DE BAIXO,-8.830368130021586,39.087445198502444
pt.ine.add.PTCONT.2286729,R CASAIS DA FONTE BRANCA,,2065-281,ALCOENTRE,-8.938981652406317,39.20548889618212
pt.ine.add.PTCONT.2286731,R CARMO,,2065-281,ALCOENTRE,-8.944259335929557,39.21139705062784
pt.ine.add.PTCONT.2286732,R PINA MANIQUE,24,2065-042,ALCOENTRE,-8.957923644866007,39.210589530979675
pt.ine.add.PTCONT.2286733,LG REPUBLICA,3,2050-014,AVEIRAS DE BAIXO,-8.86854173258841,39.11061201222502
pt.ine.add.PTCONT.2286734,R CARRASCO,35,2050-095,AVEIRAS DE CIMA,-8.916133563851314,39.13291961916553
pt.ine.add.PTCONT.2286742,R CERRADO,27,2065-217,ALCOENTRE,-8.985750599673606,39.23302429186122
pt.ine.add.PTCONT.2286743,R MAXIAL,24,2065-011,ALCOENTRE,-8.956014998994977,39.211728933952465
pt.ine.add.PTCONT.2286744,R MONTEJUNTO,,2065-107,ALCOENTRE,-8.976600792439186,39.18751433665353
pt.ine.add.PTCONT.2286748,R ARAMEIRA,80,2050-080,AVEIRAS DE CIMA,-8.904550360016703,39.14081525829531
pt.ine.add.PTCONT.2286752,TV IGREJA,6,2065-230,ALCOENTRE,-8.984652849672443,39.230357186609986
pt.ine.add.PTCONT.2286753,R BOAVISTA,80,2050-192,AVEIRAS DE CIMA,-8.931380765916469,39.14557961752669
pt.ine.add.PTCONT.2286790,R AMEIXOEIRA,36,2050-071,AVEIRAS DE CIMA,-8.903688660768886,39.13816378471663
pt.ine.add.PTCONT.2286791,R JÚLIO CÉSAR DOS SANTOS,4,2050-386,AZAMBUJA,-8.873168935531913,39.07325583720442
pt.ine.add.PTCONT.2286810,BC FERREIRA DA SILVA,5,2050-273,AZAMBUJA,-8.876450019845766,39.07318993002946
pt.ine.add.PTCONT.2286792,R JÚLIO CÉSAR DOS SANTOS,4,2050-386,AZAMBUJA,-8.873168935531913,39.07325583720442
pt.ine.add.PTCONT.2286793,R JÚLIO CÉSAR DOS SANTOS,4,2050-386,AZAMBUJA,-8.873168935531913,39.07325583720442
pt.ine.add.PTCONT.2286794,R JOÃO LOURENÇO,,2050-364,AZAMBUJA,-8.907667876188682,39.082228402088845
pt.ine.add.PTCONT.2286795,R JÚLIO CÉSAR DOS SANTOS,4,2050-386,AZAMBUJA,-8.873168935531913,39.07325583720442
pt.ine.add.PTCONT.2286796,R JÚLIO CÉSAR DOS SANTOS,4,2050-386,AZAMBUJA,-8.873168935531913,39.07325583720442
pt.ine.add.PTCONT.2286797,R JÚLIO CÉSAR DOS SANTOS,4,2050-386,AZAMBUJA,-8.873168935531913,39.07325583720442
pt.ine.add.PTCONT.2286798,R JÚLIO CÉSAR DOS SANTOS,4,2050-386,AZAMBUJA,-8.873168935531913,39.07325583720442
pt.ine.add.PTCONT.2286799,R JÚLIO CÉSAR DOS SANTOS,4,2050-386,AZAMBUJA,-8.873168935531913,39.07325583720442
pt.ine.add.PTCONT.2286800,R JÚLIO CÉSAR DOS SANTOS,4,2050-386,AZAMBUJA,-8.873168935531913,39.07325583720442
pt.ine.add.PTCONT.2286801,R JÚLIO CÉSAR DOS SANTOS,4,2050-386,AZAMBUJA,-8.873168935531913,39.07325583720442
pt.ine.add.PTCONT.2286802,R JÚLIO CÉSAR DOS SANTOS,4,2050-386,AZAMBUJA,-8.873168935531913,39.07325583720442
pt.ine.add.PTCONT.2286803,R ORDEM TERCEIRA DE S FRANCISCO,12,2050-397,AZAMBUJA,-8.872034320603019,39.06750724778347
pt.ine.add.PTCONT.2286804,LG 1 DE MAIO,30,2050-404,VALE DO PARAÍSO,-8.885081607167244,39.11559568671889
pt.ine.add.PTCONT.2286805,R INACIA QTA DO PINHEIRO DO NORTE,,2050-366,AZAMBUJA,-8.909313972185988,39.10798772505255
pt.ine.add.PTCONT.2286806,R MARTINHO DOS SANTOS,,2050-248,AZAMBUJA,-8.897224307765818,39.08366644332823
pt.ine.add.PTCONT.2286807,R 1 DE MAIO,19,2065-311,MANIQUE DO INTENDENTE,-8.89095549414603,39.24387583473419
pt.ine.add.PTCONT.2286808,R DR FRANCISCO MARIA DE ALMEIDA GRANDELA,141,2050-115,AVEIRAS DE CIMA,-8.89967092507951,39.13990167891401
pt.ine.add.PTCONT.2286809,BC FERREIRA DA SILVA,5,2050-273,AZAMBUJA,-8.876450019845766,39.07318993002946
pt.ine.add.PTCONT.2286811,BC FERREIRA DA SILVA,5,2050-273,AZAMBUJA,-8.876450019845766,39.07318993002946
pt.ine.add.PTCONT.2286812,BC FERREIRA DA SILVA,5,2050-273,AZAMBUJA,-8.876450019845766,39.07318993002946
pt.ine.add.PTCONT.2286813,BC FERREIRA DA SILVA,5,2050-273,AZAMBUJA,-8.876450019845766,39.07318993002946
pt.ine.add.PTCONT.2286814,BC FERREIRA DA SILVA,5,2050-273,AZAMBUJA,-8.876450019845766,39.07318993002946
pt.ine.add.PTCONT.2286815,BC FERREIRA DA SILVA,5,2050-273,AZAMBUJA,-8.876450019845766,39.07318993002946
pt.ine.add.PTCONT.2286816,R MANUEL JOAQUIM ALVES DINIS,23,2050-510,VILA NOVA DA RAINHA,-8.93370489270568,39.03714125237775
pt.ine.add.PTCONT.2286817,R JOSE RAMOS VIDES,19,2050-334,AZAMBUJA,-8.872017974639222,39.06815589077295
pt.ine.add.PTCONT.2286818,R POÇO DO POVO,4,2065-311,MANIQUE DO INTENDENTE,-8.890180192818384,39.242872068758594
pt.ine.add.PTCONT.2286819,TV ANTÓNIO AMARO DOS SANTOS,43,2050-076,AVEIRAS DE CIMA,-8.901521750546111,39.13672790378703
pt.ine.add.PTCONT.2286820,R BORDA D AGUA,,2050-245,AZAMBUJA,-8.892299997464267,39.079266938655024
pt.ine.add.PTCONT.2286821,R ARNEIROS,10,2050-524,VILA NOVA DA RAINHA,-8.93077595516022,39.0416650743759
pt.ine.add.PTCONT.2286822,BC COVÃO,2,2050-387,AZAMBUJA,-8.87347726148558,39.075296053472826
pt.ine.add.PTCONT.2286823,BC COVÃO,2,2050-387,AZAMBUJA,-8.87347726148558,39.075296053472826
pt.ine.add.PTCONT.2286824,R 25 DE ABRIL,73,2050-317,AZAMBUJA,-8.87547363347445,39.07595243902746
pt.ine.add.PTCONT.2286825,TV PEREIRAS,7,2050-441,VALE DO PARAÍSO,-8.886384430638257,39.115244993617125
pt.ine.add.PTCONT.2286826,,,2050-366,AZAMBUJA,-8.915828302266839,39.11578961963569
pt.ine.add.PTCONT.2286827,R 25 DE ABRIL CASAL SANTA MARIA,,2050-317,AZAMBUJA,-8.874404501334952,39.07758959408071
pt.ine.add.PTCONT.2286828,R TEODORO JOSE DA SILVA,40,2050-335,AZAMBUJA,-8.870712271751039,39.068704060626786
pt.ine.add.PTCONT.2286829,R DR ANTÓNIO CANOVA RIBEIRO,,2065-321,MANIQUE DO INTENDENTE,-8.899534479099625,39.228570465572204
pt.ine.add.PTCONT.2286830,R PINHAL DE BAIXO,7,2065-347,MANIQUE DO INTENDENTE,-8.895140138143358,39.21631341298626
pt.ine.add.PTCONT.2286831,R VALE D FRANCISCA,,2050-383,AZAMBUJA,-8.906206853504985,39.09025472802547
pt.ine.add.PTCONT.2286832,R ALVES REDOL,25,2050-391,AZAMBUJA,-8.878168839605737,39.07620547327905
pt.ine.add.PTCONT.2286833,R ALVES REDOL,39,2050-391,AZAMBUJA,-8.87901626093118,39.07656936204395
pt.ine.add.PTCONT.2286834,TV C,1,2050-272,AZAMBUJA,-8.877279597751954,39.07295945172802
pt.ine.add.PTCONT.2286835,PC MUNICIPIO,8,2050-315,AZAMBUJA,-8.86819476577986,39.0694050726022
pt.ine.add.PTCONT.2286836,R D FRANCISCO CHILD ROLIM DE MOURA,14,2050-003,AZAMBUJA,-8.872191662913366,39.07262250406558
pt.ine.add.PTCONT.2286961,R 25 DE ABRIL,78,2065-607,MAÇUSSA,-8.86825713845146,39.195535230466646
pt.ine.add.PTCONT.2286966,R ALVES REDOL,3,2065-613,MAÇUSSA,-8.863877756643301,39.19516646053377
pt.ine.add.PTCONT.2293085,BR ESTABELECIMENTO PRISIONAL DE ALCOENTRE,,2065-285,ALCOENTRE,-8.964881204083854,39.23603047743165
pt.ine.add.PTCONT.2293111,R CORRIOLA DE CIMA,,2050-194,AVEIRAS DE CIMA,-8.928772548409874,39.14303035804457
pt.ine.add.PTCONT.2293115,R ALTO DA CALÇADA,19,2065-014,ALCOENTRE,-8.957608497267461,39.20542160564395
pt.ine.add.PTCONT.2293116,R VISC DE ASSECA,1B,2050-040,AVEIRAS DE BAIXO,-8.828401016654981,39.08721374345699
pt.ine.add.PTCONT.2293490,R GEN HUMBERTO DELGADO,30,2065-335,MANIQUE DO INTENDENTE,-8.900051407170432,39.224991189633094
pt.ine.add.PTCONT.2293492,TV QUITERIOS,5,2050-442,VALE DO PARAÍSO,-8.88622910422289,39.11368771445093
pt.ine.add.PTCONT.2293504,R JÚLIO CÉSAR DOS SANTOS,4,2050-386,AZAMBUJA,-8.873168935531913,39.07325583720442
pt.ine.add.PTCONT.2293511,BC FERREIRA DA SILVA,5,2050-273,AZAMBUJA,-8.876450019845766,39.07318993002946
pt.ine.add.PTCONT.2293851,R SANTO ANTÓNIO,39,2065-552,VILA NOVA DE SÃO PEDRO,-8.828341800627847,39.20582340259836
pt.ine.add.PTCONT.2293852,R SANTO ANTÓNIO,,2065-552,VILA NOVA DE SÃO PEDRO,-8.826568633779749,39.20563581029187
pt.ine.add.PTCONT.2295939,TV PACO,3,2050-251,AZAMBUJA,-8.870869986720747,39.06887475110888
pt.ine.add.PTCONT.2295630,R HUMBERTO COMEIRA,4,2050-300,AZAMBUJA,-8.870764529142535,39.07206406913345
pt.ine.add.PTCONT.2295631,R HUMBERTO COMEIRA,4,2050-300,AZAMBUJA,-8.870764529142535,39.07206406913345
pt.ine.add.PTCONT.2295806,BR EPA,,2065-050,ALCOENTRE,-8.961485873154654,39.21026701568568
pt.ine.add.PTCONT.2295807,R CONS FREDERICO AROUCA,127,2065-016,ALCOENTRE,-8.956426140878708,39.20628565596179
pt.ine.add.PTCONT.2295811,R COMBATENTES,18,2050-195,AVEIRAS DE CIMA,-8.915245756029913,39.140482762074214
pt.ine.add.PTCONT.2295812,R SITIO DOS POÇOS,35,2050-180,AVEIRAS DE CIMA,-8.910281312895213,39.15393692937415
pt.ine.add.PTCONT.2295813,R SEDE,17 A,2050-038,AVEIRAS DE BAIXO,-8.837743556193026,39.11198221065543
pt.ine.add.PTCONT.2295814,R SEDE,17,2050-038,AVEIRAS DE BAIXO,-8.837743556193026,39.11198221065543
pt.ine.add.PTCONT.2295817,R LIBERDADE,23,2050-038,AVEIRAS DE BAIXO,-8.838293594457197,39.113807394408155
pt.ine.add.PTCONT.2295824,R CARRASCO,70,2050-095,AVEIRAS DE CIMA,-8.91534957066087,39.13418591557772
pt.ine.add.PTCONT.2295833,R 5 DE OUTUBRO,9,2050-019,AVEIRAS DE BAIXO,-8.868280417522502,39.11105502442296
pt.ine.add.PTCONT.2295834,R POÇOS,21,2050-204,AVEIRAS DE CIMA,-8.902732327934515,39.146997321082694
pt.ine.add.PTCONT.2295835,R FRANCISCO ALMEIDA GRANDELLA,,2065-224,ALCOENTRE,-8.98346138330538,39.234311041294376
pt.ine.add.PTCONT.2295836,R ANTÓNIO FAUSTINO DA MATA,22,2050-195,AVEIRAS DE CIMA,-8.920104127924917,39.13740556920113
pt.ine.add.PTCONT.2295837,ESTR AMEIXOEIRA,99,2050-198,AVEIRAS DE CIMA,-8.926594506700244,39.14787314651562
pt.ine.add.PTCONT.2295839,R LAGOA,4,2050-038,AVEIRAS DE BAIXO,-8.834797593902817,39.112216158591686
pt.ine.add.PTCONT.2295840,BC CANEIRA,4,2050-198,AVEIRAS DE CIMA,-8.914682100764894,39.152268162117494
pt.ine.add.PTCONT.2295854,R JOÃO FRANCISCO GOMES BENAVENTE,,2065-231,ALCOENTRE,-8.985572646590606,39.228846256840264
pt.ine.add.PTCONT.2295855,R 25 DE ABRIL,7,2050-038,AVEIRAS DE BAIXO,-8.83805409316754,39.1118181993333
pt.ine.add.PTCONT.2295856,R MARIA MATILDE PRATAS,5,2050-140,AVEIRAS DE CIMA,-8.902303568312838,39.14161374890614
pt.ine.add.PTCONT.2295857,R 25 DE ABRIL,17,2050-038,AVEIRAS DE BAIXO,-8.838520760302748,39.11223872602679
pt.ine.add.PTCONT.2295908,URB CORTE DAS FREIRAS,23,2050-526,VILA NOVA DA RAINHA,-8.936814701413542,39.035363400570624
pt.ine.add.PTCONT.2295909,URB CORTE DAS FREIRAS,23,2050-526,VILA NOVA DA RAINHA,-8.936814701413542,39.035363400570624
pt.ine.add.PTCONT.2295910,URB CORTE DAS FREIRAS,23,2050-526,VILA NOVA DA RAINHA,-8.936814701413542,39.035363400570624
pt.ine.add.PTCONT.2295911,URB CORTE DAS FREIRAS,23,2050-526,VILA NOVA DA RAINHA,-8.936814701413542,39.035363400570624
pt.ine.add.PTCONT.2295912,URB CORTE DAS FREIRAS,23,2050-526,VILA NOVA DA RAINHA,-8.936814701413542,39.035363400570624
pt.ine.add.PTCONT.2295913,URB CORTE DAS FREIRAS,23,2050-526,VILA NOVA DA RAINHA,-8.936814701413542,39.035363400570624
pt.ine.add.PTCONT.2295914,R COMBATENTES DA GRANDE GUERRA,83,2050-410,VALE DO PARAÍSO,-8.883035191996267,39.115608869554215
pt.ine.add.PTCONT.2295915,CSL MOITA DO LOBO,,2065-554,VILA NOVA DE SÃO PEDRO,-8.868390368328484,39.23828287473255
pt.ine.add.PTCONT.2295916,R ALFREDO REBELO,,2050-360,AZAMBUJA,-8.908936243789453,39.06507875978232
pt.ine.add.PTCONT.2295917,R CORVO MARIA DO ROSÁRIO REGATEIRO,,2050-384,AZAMBUJA,-8.902268462896972,39.08520958238144
pt.ine.add.PTCONT.2295918,R JOÃO RIO DE CARVALHO,2,2050-290,AZAMBUJA,-8.87461757979005,39.07255305810275
pt.ine.add.PTCONT.2295919,R COMBATENTES DA GRANDE GUERRA,14,2050-410,VALE DO PARAÍSO,-8.884944877299825,39.11578572432433
pt.ine.add.PTCONT.2295920,R BARREIROS,10A,2050-420,VALE DO PARAÍSO,-8.883605345057328,39.1148575848623
pt.ine.add.PTCONT.2295921,R CASTRO,,2065-545,VILA NOVA DE SÃO PEDRO,-8.846029960335,39.214795845067854
pt.ine.add.PTCONT.2295922,TV FERREA III,02,2050-107,AVEIRAS DE CIMA,-8.903389305553205,39.1361661267154
pt.ine.add.PTCONT.2295923,R LAVANDEIRA,12,2050-358,AZAMBUJA,-8.874554490381891,39.07094111948617
pt.ine.add.PTCONT.2295924,R PRINCIPAL,41,2065-381,MANIQUE DO INTENDENTE,-8.876357137327497,39.219425181351006
pt.ine.add.PTCONT.2295925,TV ANTÓNIO AMARO DOS SANTOS,89,2050-076,AVEIRAS DE CIMA,-8.902782337164242,39.13565671605157
pt.ine.add.PTCONT.2295926,R TOUREIROS DE AZAMBUJA,48,2050-392,AZAMBUJA,-8.878225291616062,39.07717791993965
pt.ine.add.PTCONT.2295927,TV CESAR,2,2065-330,MANIQUE DO INTENDENTE,-8.890767628442743,39.22102570654195
pt.ine.add.PTCONT.2295928,R CARRIL,38A,2050-196,AVEIRAS DE CIMA,-8.87512052541284,39.13488131507313
pt.ine.add.PTCONT.2295929,TV FERREA I,12,2050-105,AVEIRAS DE CIMA,-8.903440652887623,39.13557130062617
pt.ine.add.PTCONT.2295930,PC IMPERADORES,1,2065-338,MANIQUE DO INTENDENTE,-8.89085454666048,39.22049371335973
pt.ine.add.PTCONT.2295931,R MEIO,3,2050-141,AVEIRAS DE CIMA,-8.903616445145682,39.13366057481021
pt.ine.add.PTCONT.2295932,R NOVA DOS SERRADOS,4,2050-148,AVEIRAS DE CIMA,-8.900445318498996,39.13665392907468
pt.ine.add.PTCONT.2295933,R VALE DOS APOSTOLOS,,2050-360,AZAMBUJA,-8.902128511390485,39.0680602911969
pt.ine.add.PTCONT.2295934,R ALVES REDOL,14,2050-391,AZAMBUJA,-8.877561152004567,39.075560816202355
pt.ine.add.PTCONT.2295935,R HUMBERTO COMEIRA,3,2050-300,AZAMBUJA,-8.869933160144885,39.072123370231374
pt.ine.add.PTCONT.2295936,R SENHORA DO O,,2050-425,VALE DO PARAÍSO,-8.885358007070295,39.11440492472494
pt.ine.add.PTCONT.2295937,R BELCHIOR PEDRO DE ALMEIDA,25,2065-556,VILA NOVA DE SÃO PEDRO,-8.841772869288205,39.215182111715414
pt.ine.add.PTCONT.2295938,R CANTINHO DA FONTE SANTA,23,2050-094,AVEIRAS DE CIMA,-8.910619092998884,39.13206480425458
pt.ine.add.PTCONT.2295940,R PINHAL DE BAIXO,2,2065-347,MANIQUE DO INTENDENTE,-8.894429883440846,39.21594875955257
pt.ine.add.PTCONT.2295941,ESTR MATOTINHOS,4,2065-312,MANIQUE DO INTENDENTE,-8.869109837102238,39.2162375896665
pt.ine.add.PTCONT.2295942,VALE MARIA ISABEL,,2050-001,AZAMBUJA,-8.86633308799975,39.08044195295442
pt.ine.add.PTCONT.2295943,R 25 DE ABRIL,13,2065-552,VILA NOVA DE SÃO PEDRO,-8.82882532668723,39.206721245854034
pt.ine.add.PTCONT.2295944,QTA ALTO,,2050-366,AZAMBUJA,-8.88842439291334,39.08646204772731
pt.ine.add.PTCONT.2296030,BC SERAFIM,7,2050-171,AVEIRAS DE CIMA,-8.90045449496787,39.14176104802767
pt.ine.add.PTCONT.2296058,R HORTAS,19,2065-622,MAÇUSSA,-8.867030639403955,39.19224629068936
pt.ine.add.PTCONT.2301889,PCT RAINHA D LEONOR,,2050-040,AVEIRAS DE BAIXO,-8.83125847879605,39.08748490813341
pt.ine.add.PTCONT.2302209,R 1 DE DEZEMBRO,,2050-451,VALE DO PARAÍSO,-8.87813611234728,39.109344095613864
pt.ine.add.PTCONT.2302218,R ESCOLA,11,2050-195,AVEIRAS DE CIMA,-8.921471137610997,39.13656765323786
pt.ine.add.PTCONT.2302248,TV FLORES,12,2050-032,AVEIRAS DE BAIXO,-8.87064476839272,39.1116075578766
pt.ine.add.PTCONT.2302340,TV FERREA III,02,2050-107,AVEIRAS DE CIMA,-8.903389305553205,39.1361661267154
pt.ine.add.PTCONT.2302392,CSL ROSA,,2065-101,ALCOENTRE,-8.971553979423454,39.19818833520277
pt.ine.add.PTCONT.2302521,R ENG MANUEL ANTÓNIO,71,2050-040,AVEIRAS DE BAIXO,-8.829910184307368,39.087889302620276
pt.ine.add.PTCONT.2302522,R MARTINHO DOS SANTOS,,2050-248,AZAMBUJA,-8.89832603609679,39.08294762898577
pt.ine.add.PTCONT.2302523,R SANTO ANTÓNIO,13,2065-351,MANIQUE DO INTENDENTE,-8.891398026136253,39.2214989887628
pt.ine.add.PTCONT.2304265,R PROF ÁLVARO NASCIMENTO,20,2065-640,MAÇUSSA,-8.864536734365029,39.18392120316618
pt.ine.add.PTCONT.2304384,R 1 DE DEZEMBRO,11,2065-203,ALCOENTRE,-8.984280309821802,39.2282792473131
pt.ine.add.PTCONT.2304631,R PEDRA,,2050-039,AVEIRAS DE BAIXO,-8.86257186737494,39.125917095707266
pt.ine.add.PTCONT.2304632,LG AMOREIRAS,12,2050-040,AVEIRAS DE BAIXO,-8.827888347792204,39.08679344788866
pt.ine.add.PTCONT.2304633,TV IGREJA,7,2065-028,ALCOENTRE,-8.960816206981118,39.21042489875467
pt.ine.add.PTCONT.2304634,TV IGREJA,7,2065-028,ALCOENTRE,-8.960816206981118,39.21042489875467
pt.ine.add.PTCONT.2304636,R PONTE NOVA,19,2065-146,ALCOENTRE,-8.950445320979203,39.24362666236723
pt.ine.add.PTCONT.2304637,R BOAVISTA,1,2050-195,AVEIRAS DE CIMA,-8.926411637309911,39.13364276698919
pt.ine.add.PTCONT.2304638,,,2065-107,ALCOENTRE,-8.995212968664857,39.211265296322686
pt.ine.add.PTCONT.2304639,ESTR CANEIRA,120,2050-198,AVEIRAS DE CIMA,-8.917030494240006,39.1512255518834
pt.ine.add.PTCONT.2304640,R CARRASCO,58,2050-095,AVEIRAS DE CIMA,-8.91472996032773,39.13463143353304
pt.ine.add.PTCONT.2304642,EN 366,,2065-046,ALCOENTRE,-8.985665538597019,39.22408076825019
pt.ine.add.PTCONT.2304645,EN 1,,2065-107,ALCOENTRE,-9.001442877661098,39.198176562506454
pt.ine.add.PTCONT.2304648,R 1 DE DEZEMBRO,5,2050-016,AVEIRAS DE BAIXO,-8.871999104007743,39.11176111524494
pt.ine.add.PTCONT.2304649,R LAMAS FERNANDES,11,2050-197,AVEIRAS DE CIMA,-8.91673650542447,39.16018082380269
pt.ine.add.PTCONT.2304651,R 1 DE MAIO,,2050-017,AVEIRAS DE BAIXO,-8.870680859890488,39.11174244091672
pt.ine.add.PTCONT.2304654,R PINA MANIQUE,28,2065-042,ALCOENTRE,-8.958153077400114,39.210407761538626
pt.ine.add.PTCONT.2304655,BC BOMBEIROS,5,2065-017,ALCOENTRE,-8.958982928142174,39.21008662797713
pt.ine.add.PTCONT.2304656,R PAZ,4,2050-024,AVEIRAS DE BAIXO,-8.86937795932839,39.110976038359496
pt.ine.add.PTCONT.2304658,BC ANTÓNIO GONÇALVES,3,2050-198,AVEIRAS DE CIMA,-8.915111628022245,39.14508642262396
pt.ine.add.PTCONT.2304659,R ARAMEIRA,7 5,2050-080,AVEIRAS DE CIMA,-8.904435980412256,39.14093311107603
pt.ine.add.PTCONT.2304660,TV 1 MAIO,24,2050-062,AVEIRAS DE CIMA,-8.902990075204162,39.14198752553314
pt.ine.add.PTCONT.2304661,R 10 DE JUNHO,5,2065-231,ALCOENTRE,-8.984965371925533,39.228427361486915
pt.ine.add.PTCONT.2304725,R MILHARICA,15,2050-142,AVEIRAS DE CIMA,-8.903907795336961,39.13280294748816
pt.ine.add.PTCONT.2304726,R MILHARICA,5,2050-142,AVEIRAS DE CIMA,-8.902837304413616,39.133269398102904
pt.ine.add.PTCONT.2304727,BC 1 DE MAIO,,2065-552,VILA NOVA DE SÃO PEDRO,-8.829004221930632,39.207251607889724
pt.ine.add.PTCONT.2304728,R FR JERONIMO AZAMBUJA,,2050-332,AZAMBUJA,-8.871359574182396,39.069285997186256
pt.ine.add.PTCONT.2304729,R FR JERONIMO AZAMBUJA,,2050-332,AZAMBUJA,-8.871429086713452,39.069303572071064
pt.ine.add.PTCONT.2304730,R 25 DE ABRIL,91,2065-311,MANIQUE DO INTENDENTE,-8.891898800515905,39.245418933649
pt.ine.add.PTCONT.2304731,TV MESQUITA,2,2050-428,VALE DO PARAÍSO,-8.884036952699542,39.116304999034725
pt.ine.add.PTCONT.2304732,TV FERREA III,04,2050-106,AVEIRAS DE CIMA,-8.90370332716378,39.136326183741
pt.ine.add.PTCONT.2304733,R 25 DE ABRIL,90,2065-311,MANIQUE DO INTENDENTE,-8.8913088468404,39.24549483350399
pt.ine.add.PTCONT.2304734,R 1 DE MAIO,29,2065-311,MANIQUE DO INTENDENTE,-8.891160737599094,39.24464911952391
pt.ine.add.PTCONT.2304735,TV TERREIRO,12,2050-177,AVEIRAS DE CIMA,-8.8982003302135,39.13654258406029
pt.ine.add.PTCONT.2304736,TV TERREIRO,12,2050-177,AVEIRAS DE CIMA,-8.8982003302135,39.13654258406029
pt.ine.add.PTCONT.2304737,R BAIRRO ALTO,,2050-082,AVEIRAS DE CIMA,-8.899521340054733,39.137839974466786
pt.ine.add.PTCONT.2311659,R D ROLIM,7,2050-396,AZAMBUJA,-8.874855679432466,39.06659759422833
pt.ine.add.PTCONT.2304738,R CARLOS RIBEIRO,11,2050-507,VILA NOVA DA RAINHA,-8.934152807812369,39.03589514036955
pt.ine.add.PTCONT.2304739,AV GAGO COUTINHO,30,2050-501,VILA NOVA DA RAINHA,-8.929546861485052,39.036097824698366
pt.ine.add.PTCONT.2304740,R PEDRO ALVES JALEKO,43,2065-557,VILA NOVA DE SÃO PEDRO,-8.8447648360073,39.212200476552724
pt.ine.add.PTCONT.2304741,R 25 DE ABRIL,13,2050-317,AZAMBUJA,-8.874022516936574,39.07089946330826
pt.ine.add.PTCONT.2304742,R PRINCIPAL,1,2065-381,MANIQUE DO INTENDENTE,-8.871299128605825,39.21963748957921
pt.ine.add.PTCONT.2304743,R PRINCIPAL,37,2065-381,MANIQUE DO INTENDENTE,-8.875558966018733,39.219502329455096
pt.ine.add.PTCONT.2304744,TV SENTIEIRA III,2,2050-169,AVEIRAS DE CIMA,-8.902449894593737,39.13486626176096
pt.ine.add.PTCONT.2304745,R BEIROES,14,2050-260,AZAMBUJA,-8.863788444247596,39.07463008667737
pt.ine.add.PTCONT.2304746,TV ROSAS,4,2050-436,VALE DO PARAÍSO,-8.888731260543404,39.1141309006811
pt.ine.add.PTCONT.2304747,R CASTRO,,2065-545,VILA NOVA DE SÃO PEDRO,-8.843997090630724,39.21643858572171
pt.ine.add.PTCONT.2304748,R ANTÓNIO AMARO DOS SANTOS,27,2050-075,AVEIRAS DE CIMA,-8.900888410389271,39.136984283993954
pt.ine.add.PTCONT.2304749,R ANTÓNIO AMARO DOS SANTOS,27,2050-075,AVEIRAS DE CIMA,-8.900888410389271,39.136984283993954
pt.ine.add.PTCONT.2304750,R ANTÓNIO AMARO DOS SANTOS,27,2050-075,AVEIRAS DE CIMA,-8.900888410389271,39.136984283993954
pt.ine.add.PTCONT.2304751,R ANTÓNIO AMARO DOS SANTOS,27,2050-075,AVEIRAS DE CIMA,-8.900888410389271,39.136984283993954
pt.ine.add.PTCONT.2304752,R VITOR CORDON,47,2050-336,AZAMBUJA,-8.866314511170872,39.06971415727121
pt.ine.add.PTCONT.2304753,R EIRAS,7,2050-415,VALE DO PARAÍSO,-8.886455814371818,39.11543368800465
pt.ine.add.PTCONT.2304754,R MEIO,6,2050-141,AVEIRAS DE CIMA,-8.903834306374186,39.13348799423632
pt.ine.add.PTCONT.2304755,R ANTÓNIO AMARO DOS SANTOS,27,2050-075,AVEIRAS DE CIMA,-8.900888410389271,39.136984283993954
pt.ine.add.PTCONT.2304756,R QUINTA DA MINA,21,2050-273,AZAMBUJA,-8.874798013403101,39.074335392055836
pt.ine.add.PTCONT.2304757,R EIRAS,63,2050-415,VALE DO PARAÍSO,-8.88756941639946,39.114687878165306
pt.ine.add.PTCONT.2304758,TV ROSA,1,2050-159,AVEIRAS DE CIMA,-8.90561199719872,39.13317898236377
pt.ine.add.PTCONT.2304759,R RELOGIO,2,2050-190,AVEIRAS DE CIMA,-8.904964998160105,39.13112057868779
pt.ine.add.PTCONT.2304760,R JOSE LUIS INÁCIO RAIMUNDO,6,2065-556,VILA NOVA DE SÃO PEDRO,-8.841608051836602,39.21375996391919
pt.ine.add.PTCONT.2304761,R VICENTES,,2050-360,AZAMBUJA,-8.900771636030077,39.067600842544785
pt.ine.add.PTCONT.2304762,TV FLORES,13,2050-346,AZAMBUJA,-8.87016081280922,39.06914588529477
pt.ine.add.PTCONT.2304763,BR LIBERDADE,,2050-329,AZAMBUJA,-8.86660421249273,39.07091033159805
pt.ine.add.PTCONT.2304764,R AGUA FERREA,,2050-252,AZAMBUJA,-8.872350981559148,39.07127937884112
pt.ine.add.PTCONT.2304765,R MURTA,,2050-285,AZAMBUJA,-8.909854754285199,39.08246606310743
pt.ine.add.PTCONT.2304766,R VAZ MONTEIRO,6,2050-530,VILA NOVA DA RAINHA,-8.930760256298774,39.04026901817044
pt.ine.add.PTCONT.2304767,R CASALEIROS CASAL DOS BELOS,,2050-360,AZAMBUJA,-8.905326212467235,39.07627198790954
pt.ine.add.PTCONT.2311750,R SANTO ANTÓNIO,26,2065-245,ALCOENTRE,-8.984556507487097,39.23005164630095
pt.ine.add.PTCONT.2304900,R JOSE JOAQUIM RODRIGUES,8,2065-628,MAÇUSSA,-8.868023330456106,39.1942036251626
pt.ine.add.PTCONT.2311119,R VALE DA ADEGA,,2050-281,AZAMBUJA,-8.89505925025565,39.076861962114435
pt.ine.add.PTCONT.2311481,R OUTEIRO,2O,2065-144,ALCOENTRE,-8.943144273484837,39.24130877874952
pt.ine.add.PTCONT.2311484,R PINA MANIQUE,82,2065-364,MANIQUE DO INTENDENTE,-8.894158694990493,39.220859484548285
pt.ine.add.PTCONT.2311576,R CABECO,4,2065-325,MANIQUE DO INTENDENTE,-8.890850603529707,39.22335804423829
pt.ine.add.PTCONT.2311605,R MALAPOSTA,,2065-101,ALCOENTRE,-8.960623098805893,39.19594261774242
pt.ine.add.PTCONT.2311603,R BOA ESPERANÇA,,2065-101,ALCOENTRE,-8.961819156837521,39.19724917559301
pt.ine.add.PTCONT.2311604,R MALAPOSTA,,2065-101,ALCOENTRE,-8.960708242048966,39.196293295994955
pt.ine.add.PTCONT.2311656,R CABECO,12,2065-325,MANIQUE DO INTENDENTE,-8.890980300492263,39.22357337438893
pt.ine.add.PTCONT.2313293,R JOÃO DAMIÃO PATIO DAS FONTAÍNHAS,,2065-640,MAÇUSSA,-8.866058958013527,39.18450612040534
pt.ine.add.PTCONT.2313464,R ANTÓNIO AMARO DOS SANTOS,27,2050-075,AVEIRAS DE CIMA,-8.900888410389271,39.136984283993954
pt.ine.add.PTCONT.2313465,R JUNQUEIRA,,2065-234,ALCOENTRE,-8.98464461689982,39.236383056788995
pt.ine.add.PTCONT.2313646,R CAPELA,8,2050-038,AVEIRAS DE BAIXO,-8.838387312679199,39.10697017990182
pt.ine.add.PTCONT.2313649,R B DO BR SOCASA,2,2065-012,ALCOENTRE,-8.957431906740206,39.20517065245787
pt.ine.add.PTCONT.2313650,AV 25 DE DEZEMBRO,54,2050-195,AVEIRAS DE CIMA,-8.923720367496397,39.13602098339815
pt.ine.add.PTCONT.2313652,R PONTE NOVA,17,2065-146,ALCOENTRE,-8.9507791211453,39.24344417553254
pt.ine.add.PTCONT.2313653,LG IGREJA,,2065-021,ALCOENTRE,-8.95976441874351,39.2086038979758
pt.ine.add.PTCONT.2313658,R ALMOINHAS,30,2065-114,ALCOENTRE,-8.948939917090955,39.23966504486844
pt.ine.add.PTCONT.2313659,R SALGUEIRAS,,2065-107,ALCOENTRE,-8.996463378223067,39.20464473435358
pt.ine.add.PTCONT.2313670,R MOINHOS,,2065-281,ALCOENTRE,-8.944889407251225,39.20980738692033
pt.ine.add.PTCONT.2313671,R DR FRANCISCO MARIA DE ALMEIDA GRANDELA,194,2050-117,AVEIRAS DE CIMA,-8.900372331902629,39.14271636978751
pt.ine.add.PTCONT.2313672,R PRATAS,8,2050-195,AVEIRAS DE CIMA,-8.92045956599191,39.136088093228594
pt.ine.add.PTCONT.2313674,R DR FRANCISCO MARIA DE ALMEIDA GRANDELA GRANJA DA FORMIGA,,2065-207,ALCOENTRE,-8.982541935326559,39.23393944848275
pt.ine.add.PTCONT.2313675,R JOSE LUIS SOARES BRITO,10 A,2050-189,AVEIRAS DE CIMA,-8.899424500953504,39.1427766498468
pt.ine.add.PTCONT.2313677,R FONTE SANTA,97,2050-112,AVEIRAS DE CIMA,-8.916048618156232,39.13151503932037
pt.ine.add.PTCONT.2313680,R 1 DE MAIO,4,2050-038,AVEIRAS DE BAIXO,-8.83639789143211,39.1115309572284
pt.ine.add.PTCONT.2313681,R 1 DE MAIO,4,2050-038,AVEIRAS DE BAIXO,-8.83639789143211,39.1115309572284
pt.ine.add.PTCONT.2313682,R LEZIRIAS,10,2065-235,ALCOENTRE,-8.985003851151124,39.22777856183276
pt.ine.add.PTCONT.2313683,BC PORTELAS,2,2050-153,AVEIRAS DE CIMA,-8.900574854387132,39.13793212329456
pt.ine.add.PTCONT.2313742,R MATIAS SEQUEIRA,,2050-601,AZAMBUJA,-8.874804581253674,39.088206854393285
pt.ine.add.PTCONT.2313743,TV SERRANA,1A,2050-344,AZAMBUJA,-8.870891835100231,39.0685141015634
pt.ine.add.PTCONT.2313744,TV ALCOENTRINHO,5,2065-320,MANIQUE DO INTENDENTE,-8.893072394192748,39.22213659885764
pt.ine.add.PTCONT.2313745,TV VIOLETA MATIAS,17,2050-520,VILA NOVA DA RAINHA,-8.933264618542067,39.037018168413375
pt.ine.add.PTCONT.2313746,R ANTÓNIO AMARO DOS SANTOS,62,2050-075,AVEIRAS DE CIMA,-8.902190369084318,39.13652533161126
pt.ine.add.PTCONT.2313747,ESTR VÁRZEA,,2050-502,VILA NOVA DA RAINHA,-8.937907198743538,39.036986227020286
pt.ine.add.PTCONT.2313748,R AMEIXOEIRA,119,2050-071,AVEIRAS DE CIMA,-8.903655830276351,39.138335141818075
pt.ine.add.PTCONT.2313749,R PINHEIROS,,2050-360,AZAMBUJA,-8.91242991069406,39.0654698083015
pt.ine.add.PTCONT.2313750,R 1 DE MAIO,5,2065-316,MANIQUE DO INTENDENTE,-8.897555317925413,39.219071822508646
pt.ine.add.PTCONT.2313751,R CARLOS RIBEIRO,22,2050-507,VILA NOVA DA RAINHA,-8.934668828311809,39.03556732485704
pt.ine.add.PTCONT.2313752,R CARLOS RIBEIRO,22,2050-507,VILA NOVA DA RAINHA,-8.934668828311809,39.03556732485704
pt.ine.add.PTCONT.2313753,R MARTINHO DOS SANTOS,,2050-248,AZAMBUJA,-8.89691578125168,39.083992733254064
pt.ine.add.PTCONT.2313754,R CENTRO SOCIAL E PAROQUIAL,2,2050-398,AZAMBUJA,-8.870357512827605,39.067373741041166
pt.ine.add.PTCONT.2313755,R CENTRO SOCIAL E PAROQUIAL,2,2050-398,AZAMBUJA,-8.870357512827605,39.067373741041166
pt.ine.add.PTCONT.2313756,R CENTRO SOCIAL E PAROQUIAL,2,2050-398,AZAMBUJA,-8.870357512827605,39.067373741041166
pt.ine.add.PTCONT.2313757,R CENTRO SOCIAL E PAROQUIAL,2,2050-398,AZAMBUJA,-8.870357512827605,39.067373741041166
pt.ine.add.PTCONT.2313758,R CENTRO SOCIAL E PAROQUIAL,2,2050-398,AZAMBUJA,-8.870357512827605,39.067373741041166
pt.ine.add.PTCONT.2313759,R CENTRO SOCIAL E PAROQUIAL,2,2050-398,AZAMBUJA,-8.870357512827605,39.067373741041166
pt.ine.add.PTCONT.2313760,R CENTRO SOCIAL E PAROQUIAL,2,2050-398,AZAMBUJA,-8.870357512827605,39.067373741041166
pt.ine.add.PTCONT.2313761,R CENTRO SOCIAL E PAROQUIAL,2,2050-398,AZAMBUJA,-8.870357512827605,39.067373741041166
pt.ine.add.PTCONT.2313762,R CENTRO SOCIAL E PAROQUIAL,2,2050-398,AZAMBUJA,-8.870357512827605,39.067373741041166
pt.ine.add.PTCONT.2313763,R CENTRO SOCIAL E PAROQUIAL,2,2050-398,AZAMBUJA,-8.870357512827605,39.067373741041166
pt.ine.add.PTCONT.2313764,R CENTRO SOCIAL E PAROQUIAL,2,2050-398,AZAMBUJA,-8.870357512827605,39.067373741041166
pt.ine.add.PTCONT.2313765,R ANTÓNIO AMARO DOS SANTOS,92,2050-075,AVEIRAS DE CIMA,-8.902843292804967,39.13488167918101
pt.ine.add.PTCONT.2313766,TV JULIÃO,18,2050-136,AVEIRAS DE CIMA,-8.910175428709945,39.1337881717869
pt.ine.add.PTCONT.2313767,R CASAL SEIXO,,2050-001,AZAMBUJA,-8.89310650283158,39.1102652995902
pt.ine.add.PTCONT.2313768,R IGREJA,13,2065-311,MANIQUE DO INTENDENTE,-8.886297905191086,39.243779947446356
pt.ine.add.PTCONT.2313769,R OLIVAL DAS MOCAS,38,2065-381,MANIQUE DO INTENDENTE,-8.874696515339844,39.22117416604168
pt.ine.add.PTCONT.2313770,R PEDRO ALVES JALEKO,3,2065-557,VILA NOVA DE SÃO PEDRO,-8.845990865433736,39.21321981039443
pt.ine.add.PTCONT.2313771,R DR FRANCISCO MARIA DE ALMEIDA GRANDELA,45,2050-115,AVEIRAS DE CIMA,-8.898580611574467,39.136413983922836
pt.ine.add.PTCONT.2313772,R PEDRO ALVES JALEKO,,2065-557,VILA NOVA DE SÃO PEDRO,-8.84525464305467,39.212548767307595
pt.ine.add.PTCONT.2313773,TV AMEIXOEIRA,37A,2050-074,AVEIRAS DE CIMA,-8.903985724461872,39.13782854759272
pt.ine.add.PTCONT.2313774,TV AMEIXOEIRA,37A,2050-074,AVEIRAS DE CIMA,-8.903985724461872,39.13782854759272
pt.ine.add.PTCONT.2313775,TV AMEIXOEIRA,37A,2050-074,AVEIRAS DE CIMA,-8.903985724461872,39.13782854759272
pt.ine.add.PTCONT.2313776,R PALANQUE,40,2050-418,VALE DO PARAÍSO,-8.888117640440516,39.11405380978255
pt.ine.add.PTCONT.2313777,R ARISTIDES SOUSA MENDES,13,2050-244,AZAMBUJA,-8.876762239486627,39.07541278686352
pt.ine.add.PTCONT.2313778,AV CONDES AZAMBUJA,20,2050-296,AZAMBUJA,-8.863549119951879,39.07271299145355
pt.ine.add.PTCONT.2313779,R CABECO,2,2065-325,MANIQUE DO INTENDENTE,-8.890850119323163,39.22331301115313
pt.ine.add.PTCONT.2313780,R NOVA DOS SERRADOS,17,2050-148,AVEIRAS DE CIMA,-8.90038671110623,39.136582255901565
pt.ine.add.PTCONT.2313781,R TOUREIROS DE AZAMBUJA,1,2050-392,AZAMBUJA,-8.877335359622657,39.07496776395202
pt.ine.add.PTCONT.2313782,R BELCHIOR PEDRO DE ALMEIDA,24,2065-556,VILA NOVA DE SÃO PEDRO,-8.842046395717786,39.21474809798965
pt.ine.add.PTCONT.2313783,R AFONSO VAZ DE AZAMBUJA,,2050-287,AZAMBUJA,-8.873175221939318,39.07275137823202
pt.ine.add.PTCONT.2313784,R AFONSO VAZ DE AZAMBUJA,,2050-287,AZAMBUJA,-8.873175221939318,39.07275137823202
pt.ine.add.PTCONT.2313785,R D SANCHO I,33,2050-328,AZAMBUJA,-8.869953553071538,39.07186202426656
pt.ine.add.PTCONT.2313786,R COVÃO,3,2050-317,AZAMBUJA,-8.875933697461214,39.07794916888541
pt.ine.add.PTCONT.2313787,R COVÃO,3,2050-317,AZAMBUJA,-8.875933697461214,39.07794916888541
pt.ine.add.PTCONT.2313788,PTO FONTE,5,2050-111,AVEIRAS DE CIMA,-8.897126629548874,39.136720767280565
pt.ine.add.PTCONT.2313789,R VALE D FRANCISCA,,2050-383,AZAMBUJA,-8.908482722839015,39.0827634335412
pt.ine.add.PTCONT.2313790,R AGUA FERREA,20,2050-252,AZAMBUJA,-8.871862685049713,39.07210215458179
pt.ine.add.PTCONT.2313791,R VAZ MONTEIRO,81,2050-530,VILA NOVA DA RAINHA,-8.931656646174016,39.04089340991991
pt.ine.add.PTCONT.2313792,R PAZ,7,2065-552,VILA NOVA DE SÃO PEDRO,-8.828172501862573,39.20626577044279
pt.ine.add.PTCONT.2313793,R RELOGIO,50,2050-190,AVEIRAS DE CIMA,-8.904744129640495,39.12889721743488
pt.ine.add.PTCONT.2313794,R 25 DE ABRIL,38,2050-317,AZAMBUJA,-8.873994976051188,39.073791040703014
pt.ine.add.PTCONT.2313795,R 25 DE ABRIL,38,2050-317,AZAMBUJA,-8.873994976051188,39.073791040703014
pt.ine.add.PTCONT.2313796,R PAZ,16,2065-552,VILA NOVA DE SÃO PEDRO,-8.828645695858839,39.207289778172616
pt.ine.add.PTCONT.2313797,R CAJU,16,2050-090,AVEIRAS DE CIMA,-8.897082280300198,39.13475744963236
pt.ine.add.PTCONT.2313798,R D FRANCISCO CHILD ROLIM DE MOURA,8,2050-003,AZAMBUJA,-8.87245366122631,39.072260543800695
pt.ine.add.PTCONT.2313799,TV C,8,2050-272,AZAMBUJA,-8.87756856048276,39.072966614748346
pt.ine.add.PTCONT.2313901,R ESCOLA,32,2065-618,MAÇUSSA,-8.868916244236178,39.19546801859697
pt.ine.add.PTCONT.2313910,R 1 DE MAIO,11,2065-606,MAÇUSSA,-8.867412546186468,39.19335178263816
pt.ine.add.PTCONT.2320263,R CENTRO SOCIAL E PAROQUIAL,2,2050-398,AZAMBUJA,-8.870357512827605,39.067373741041166
pt.ine.add.PTCONT.2320633,R CUIDADOS,,2050-360,AZAMBUJA,-8.90022690187557,39.07064895475857
pt.ine.add.PTCONT.2320741,R LUIS DE CAMÕES,13,2065-339,MANIQUE DO INTENDENTE,-8.899138479471574,39.21771033455785
pt.ine.add.PTCONT.2320742,R S QUITERIA QTA DAS OLIVEIRAS,5,2050-191,AVEIRAS DE CIMA,-8.881901024364813,39.136261119171216
pt.ine.add.PTCONT.2320899,R SANTO ANTÓNIO,L4,2065-552,VILA NOVA DE SÃO PEDRO,-8.831730639314348,39.206658822845235
pt.ine.add.PTCONT.2322428,R ESPÍRITO SANTO,24,2050-323,AZAMBUJA,-8.86649211254015,39.070127385033
pt.ine.add.PTCONT.2322568,R QUINTA DOS GATOS,4,2050-270,AZAMBUJA,-8.87323977746422,39.06786891024847
pt.ine.add.PTCONT.2322569,R QUINTA DOS GATOS,4,2050-270,AZAMBUJA,-8.87323977746422,39.06786891024847
pt.ine.add.PTCONT.2322570,R QUINTA DOS GATOS,4,2050-270,AZAMBUJA,-8.87323977746422,39.06786891024847
pt.ine.add.PTCONT.2322571,R QUINTA DOS GATOS,4,2050-270,AZAMBUJA,-8.87323977746422,39.06786891024847
pt.ine.add.PTCONT.2322572,R QUINTA DOS GATOS,4,2050-270,AZAMBUJA,-8.87323977746422,39.06786891024847
pt.ine.add.PTCONT.2322573,R QUINTA DOS GATOS,4,2050-270,AZAMBUJA,-8.87323977746422,39.06786891024847
pt.ine.add.PTCONT.2322574,R QUINTA DOS GATOS,4,2050-270,AZAMBUJA,-8.87323977746422,39.06786891024847
pt.ine.add.PTCONT.2322575,R QUINTA DOS GATOS,4,2050-270,AZAMBUJA,-8.87323977746422,39.06786891024847
pt.ine.add.PTCONT.2322576,R QUINTA DOS GATOS,4,2050-270,AZAMBUJA,-8.87323977746422,39.06786891024847
pt.ine.add.PTCONT.2322577,R QUINTA DOS GATOS,4,2050-270,AZAMBUJA,-8.87323977746422,39.06786891024847
pt.ine.add.PTCONT.2322578,R QUINTA DOS GATOS,4,2050-270,AZAMBUJA,-8.87323977746422,39.06786891024847
pt.ine.add.PTCONT.2322579,R QUINTA DOS GATOS,4,2050-270,AZAMBUJA,-8.87323977746422,39.06786891024847
pt.ine.add.PTCONT.2322637,R CONS FREDERICO AROUCA,49,2065-016,ALCOENTRE,-8.954431558911345,39.203021097208186
pt.ine.add.PTCONT.2322638,R PINHEIRO,,2065-101,ALCOENTRE,-8.96629965159912,39.19632550067362
pt.ine.add.PTCONT.2322639,R CANTONEIROS,13,2065-104,ALCOENTRE,-8.953518220361822,39.19118298667567
pt.ine.add.PTCONT.2322640,R BOAVISTA,16,2050-195,AVEIRAS DE CIMA,-8.926903377956505,39.135206700882854
pt.ine.add.PTCONT.2322641,AV 25 DE DEZEMBRO,100,2050-195,AVEIRAS DE CIMA,-8.925859469970076,39.1339077374955
pt.ine.add.PTCONT.2322642,AV 25 DE DEZEMBRO,82,2050-195,AVEIRAS DE CIMA,-8.925070293909323,39.134696743338885
pt.ine.add.PTCONT.2322643,AV 25 DE DEZEMBRO,65,2050-195,AVEIRAS DE CIMA,-8.923910623375951,39.13545222864508
pt.ine.add.PTCONT.2322644,R CARRIL,100,2050-196,AVEIRAS DE CIMA,-8.873032383661434,39.13206626881248
pt.ine.add.PTCONT.2322645,R CAPOA,5,2050-191,AVEIRAS DE CIMA,-8.881803211940321,39.137946127982275
pt.ine.add.PTCONT.2322646,R ROSAS,,2050-360,AZAMBUJA,-8.91203447945258,39.06733699794061
pt.ine.add.PTCONT.2322647,R PINHEIROS CASAL DO SAPATEIRO,,2050-360,AZAMBUJA,-8.910932106848996,39.06480424744894
pt.ine.add.PTCONT.2322648,TV A,6,2050-272,AZAMBUJA,-8.876688227228215,39.07276505962996
pt.ine.add.PTCONT.2322649,TV C,7,2050-272,AZAMBUJA,-8.87749809660879,39.07285897480677
pt.ine.add.PTCONT.2322650,R CASIMIRO PAULO DOS SANTOS,10,2050-272,AZAMBUJA,-8.877449595983428,39.073742017568726
pt.ine.add.PTCONT.2322651,R CASIMIRO PAULO DOS SANTOS,10,2050-272,AZAMBUJA,-8.877449595983428,39.073742017568726
pt.ine.add.PTCONT.2322652,R CASIMIRO PAULO DOS SANTOS,10,2050-272,AZAMBUJA,-8.877449595983428,39.073742017568726
pt.ine.add.PTCONT.2322653,R CASIMIRO PAULO DOS SANTOS,10,2050-272,AZAMBUJA,-8.877449595983428,39.073742017568726
pt.ine.add.PTCONT.2322654,R CASIMIRO PAULO DOS SANTOS,10,2050-272,AZAMBUJA,-8.877449595983428,39.073742017568726
pt.ine.add.PTCONT.2322655,R CASIMIRO PAULO DOS SANTOS,10,2050-272,AZAMBUJA,-8.877449595983428,39.073742017568726
pt.ine.add.PTCONT.2322656,R OLARIA,30,2050-321,AZAMBUJA,-8.869680907917191,39.07008927162597
pt.ine.add.PTCONT.2322657,R ORDEM TERCEIRA DE S FRANCISCO,11,2050-397,AZAMBUJA,-8.872307197382115,39.06708216621243
pt.ine.add.PTCONT.2322658,R ORDEM TERCEIRA DE S FRANCISCO,11,2050-397,AZAMBUJA,-8.872307197382115,39.06708216621243
pt.ine.add.PTCONT.2322659,R ORDEM TERCEIRA DE S FRANCISCO,11,2050-397,AZAMBUJA,-8.872307197382115,39.06708216621243
pt.ine.add.PTCONT.2322660,R ORDEM TERCEIRA DE S FRANCISCO,11,2050-397,AZAMBUJA,-8.872307197382115,39.06708216621243
pt.ine.add.PTCONT.2322661,R ORDEM TERCEIRA DE S FRANCISCO,11,2050-397,AZAMBUJA,-8.872307197382115,39.06708216621243
pt.ine.add.PTCONT.2322662,ESTR ILHAS,30,2065-337,MANIQUE DO INTENDENTE,-8.905236123321211,39.21729177201905
pt.ine.add.PTCONT.2322663,BR ESCURO,4,2065-331,MANIQUE DO INTENDENTE,-8.893658470223386,39.22064657767126
pt.ine.add.PTCONT.2322664,R PINA MANIQUE,87,2065-362,MANIQUE DO INTENDENTE,-8.895394505300464,39.21949130915901
pt.ine.add.PTCONT.2322665,ESTR CARVALHOS,34,2065-312,MANIQUE DO INTENDENTE,-8.872178377303534,39.21735307702773
pt.ine.add.PTCONT.2322874,R CONDE,16,2065-124,ALCOENTRE,-8.942589136566506,39.23936708351858
pt.ine.add.PTCONT.2322875,R 1 DE MAIO,,2065-111,ALCOENTRE,-8.946714924174895,39.24057232156542
pt.ine.add.PTCONT.2322876,R FLORES,5,2065-129,ALCOENTRE,-8.943258726241847,39.24018208295943
pt.ine.add.PTCONT.2322877,R CUSTÓDIO DOS SANTOS,,2065-125,ALCOENTRE,-8.943294693500341,39.23928111284533
pt.ine.add.PTCONT.2322878,CASAIS DA AREIA,,2065-103,ALCOENTRE,-8.972780307372185,39.217572078067306
pt.ine.add.PTCONT.2322879,R SILÊNCIO,,2065-101,ALCOENTRE,-8.969884213148877,39.18623870002155
pt.ine.add.PTCONT.2322880,R NARCISOS,11,2050-191,AVEIRAS DE CIMA,-8.881959532893658,39.14069237425514
pt.ine.add.PTCONT.2322881,R SITIO DOS POÇOS,39,2050-180,AVEIRAS DE CIMA,-8.910454632698356,39.15391775873608
pt.ine.add.PTCONT.2322882,ESTR CANEIRA,118,2050-198,AVEIRAS DE CIMA,-8.916961089809735,39.15122601871213
pt.ine.add.PTCONT.2322883,R CARRASCO,56,2050-095,AVEIRAS DE CIMA,-8.914628267635086,39.134848292355926
pt.ine.add.PTCONT.2322884,R ALMEIDAS E RODRIGUES,20,2050-195,AVEIRAS DE CIMA,-8.918455149472793,39.13368764115965
pt.ine.add.PTCONT.2322885,R CARRASCO,16,2050-095,AVEIRAS DE CIMA,-8.91052741273508,39.138451642978595
pt.ine.add.PTCONT.2322898,R CAMPO DA BOLA,,2065-213,ALCOENTRE,-8.979885601130638,39.23263473350599
pt.ine.add.PTCONT.2322899,R FLORES,22,2065-222,ALCOENTRE,-8.984666089548709,39.23241072977738
pt.ine.add.PTCONT.2322900,PTO MANUEIS,3,2065-137,ALCOENTRE,-8.945502452105343,39.24089603704707
pt.ine.add.PTCONT.2322901,R SALGUEIRAS,,2065-107,ALCOENTRE,-8.996072559063803,39.202981292655956
pt.ine.add.PTCONT.2322902,EN 1,,2065-107,ALCOENTRE,-8.997800222344292,39.204148429062855
pt.ine.add.PTCONT.2322903,EN 1,,2065-107,ALCOENTRE,-8.998668047763196,39.203169203806375
pt.ine.add.PTCONT.2322904,TV CEREJAL,10,2065-018,ALCOENTRE,-8.956367934158312,39.207249842354294
pt.ine.add.PTCONT.2322905,R PINA MANIQUE,51,2065-042,ALCOENTRE,-8.958666554382159,39.20976460992373
pt.ine.add.PTCONT.2322906,R ESCOLA,13,2050-021,AVEIRAS DE BAIXO,-8.868197432185296,39.11085738431738
pt.ine.add.PTCONT.2322907,R FRANCISCO ONOFRE DOS SANTOS,,2050-200,AVEIRAS DE CIMA,-8.910125198414004,39.14920911265739
pt.ine.add.PTCONT.2322908,R 1 DE MAIO,15,2050-061,AVEIRAS DE CIMA,-8.904141869745912,39.14578101846011
pt.ine.add.PTCONT.2322909,R 1 DE MAIO,15,2050-061,AVEIRAS DE CIMA,-8.904141869745912,39.14578101846011
pt.ine.add.PTCONT.2322910,R 1 DE MAIO,15,2050-061,AVEIRAS DE CIMA,-8.904141869745912,39.14578101846011
pt.ine.add.PTCONT.2322911,R BAIRRO POCOS,3,2050-145,AVEIRAS DE CIMA,-8.905108485445105,39.14637811268719
pt.ine.add.PTCONT.2322912,R BAIRRO POCOS,3,2050-145,AVEIRAS DE CIMA,-8.905108485445105,39.14637811268719
pt.ine.add.PTCONT.2322913,R BAIRRO POCOS,3,2050-145,AVEIRAS DE CIMA,-8.905108485445105,39.14637811268719
pt.ine.add.PTCONT.2322914,R DR FRANCISCO MARIA DE ALMEIDA GRANDELA,151,2050-118,AVEIRAS DE CIMA,-8.899720313386712,39.14018958991838
pt.ine.add.PTCONT.2322915,R S MARTINHO,50,2050-163,AVEIRAS DE CIMA,-8.897679805345195,39.136536992365116
pt.ine.add.PTCONT.2322916,R FERREA,30,2050-104,AVEIRAS DE CIMA,-8.903990487915442,39.13614413736198
pt.ine.add.PTCONT.2322917,R MOINHO NOVO,28,2050-143,AVEIRAS DE CIMA,-8.903989505763974,39.13605407011566
pt.ine.add.PTCONT.2322918,ESTR MATABURROS MONTE DOS AUTARCAS,,2050-378,AZAMBUJA,-8.881273725523169,39.098830342337756
pt.ine.add.PTCONT.2322919,R CASAIS DO FAROL,,2050-378,AZAMBUJA,-8.874966148957071,39.08185781956746
pt.ine.add.PTCONT.2322920,R VALE D FRANCISCA,,2050-383,AZAMBUJA,-8.900670296229658,39.09130914921862
pt.ine.add.PTCONT.2322921,R CORVO,,2050-384,AZAMBUJA,-8.901100329908234,39.086199094646524
pt.ine.add.PTCONT.2322922,R TOUREIROS DE AZAMBUJA,51,2050-392,AZAMBUJA,-8.878256263086708,39.07682643048994
pt.ine.add.PTCONT.2322923,R ALVES REDOL,15,2050-391,AZAMBUJA,-8.877945786119415,39.07587362164055
pt.ine.add.PTCONT.2322924,R D FRANCISCO CHILD ROLIM DE MOURA,28,2050-003,AZAMBUJA,-8.871552861275836,39.07341920974067
pt.ine.add.PTCONT.2322925,R GUARDA NACIONAL REPUBLICANA,18,2050-317,AZAMBUJA,-8.873123939337216,39.07337322004626
pt.ine.add.PTCONT.2322926,R GUARDA NACIONAL REPUBLICANA,18,2050-317,AZAMBUJA,-8.873123939337216,39.07337322004626
pt.ine.add.PTCONT.2322927,R GUARDA NACIONAL REPUBLICANA,18,2050-317,AZAMBUJA,-8.873123939337216,39.07337322004626
pt.ine.add.PTCONT.2322928,R GUARDA NACIONAL REPUBLICANA,18,2050-317,AZAMBUJA,-8.873123939337216,39.07337322004626
pt.ine.add.PTCONT.2322929,R GUARDA NACIONAL REPUBLICANA,18,2050-317,AZAMBUJA,-8.873123939337216,39.07337322004626
pt.ine.add.PTCONT.2322930,R GUARDA NACIONAL REPUBLICANA,18,2050-317,AZAMBUJA,-8.873123939337216,39.07337322004626
pt.ine.add.PTCONT.2322931,R DR JAIME ABREU DA MOTA,26,2050-331,AZAMBUJA,-8.871997869343264,39.069552179164454
pt.ine.add.PTCONT.2322932,R ORDEM TERCEIRA DE S FRANCISCO,11,2050-397,AZAMBUJA,-8.872307197382115,39.06708216621243
pt.ine.add.PTCONT.2322933,R MARUJO,15,2065-311,MANIQUE DO INTENDENTE,-8.89080443052567,39.245984505707796
pt.ine.add.PTCONT.2322934,R 1 DE MAIO,13,2065-311,MANIQUE DO INTENDENTE,-8.891010402638809,39.243596253740904
pt.ine.add.PTCONT.2322935,R JOÃO MARCELINO NORONHA AZEVEDO,19,2065-311,MANIQUE DO INTENDENTE,-8.8910829503418,39.242803146554124
pt.ine.add.PTCONT.2322936,LG RATO,4,2065-311,MANIQUE DO INTENDENTE,-8.889941638000197,39.24115324037634
pt.ine.add.PTCONT.2322937,R DR ANTÓNIO CANOVA RIBEIRO,53,2065-321,MANIQUE DO INTENDENTE,-8.896951855741564,39.224290977155874
pt.ine.add.PTCONT.2322938,R 25 DE ABRIL,62,2065-317,MANIQUE DO INTENDENTE,-8.9008967166699,39.22073420193973
pt.ine.add.PTCONT.2322939,R ESCOLA,3,2050-416,VALE DO PARAÍSO,-8.886691795603493,39.11696342277606
pt.ine.add.PTCONT.2322940,R EIRAS,46,2050-415,VALE DO PARAÍSO,-8.887495556543112,39.1164357942045
pt.ine.add.PTCONT.2322941,URB CORTE DAS FREIRAS,5,2050-526,VILA NOVA DA RAINHA,-8.937448027375746,39.035196899662616
pt.ine.add.PTCONT.2322942,LG D NUNO ÁLVARES PEREIRA,3,2050-503,VILA NOVA DA RAINHA,-8.934995341434977,39.0358443134512
pt.ine.add.PTCONT.2322947,R VALE DOS APOSTOLOS,,2050-360,AZAMBUJA,-8.89620181369631,39.07243182213898
pt.ine.add.PTCONT.2322948,TV SERRANA,11,2050-344,AZAMBUJA,-8.87112017521753,39.0684321468167
pt.ine.add.PTCONT.2322949,R TEODORO JOSE DA SILVA,29,2050-335,AZAMBUJA,-8.870083279140351,39.0687806432708
pt.ine.add.PTCONT.2322950,R ENG MONIZ DA MAIA,57,2050-356,AZAMBUJA,-8.870664661755187,39.06802033825512
pt.ine.add.PTCONT.2322951,R MANUEL JOAQUIM ALVES DINIS,62,2050-510,VILA NOVA DA RAINHA,-8.934340886839944,39.03720894528537
pt.ine.add.PTCONT.2322952,R PEDRO ALVES JALEKO,12,2065-557,VILA NOVA DE SÃO PEDRO,-8.843463713445042,39.20947020306687
pt.ine.add.PTCONT.2322953,R DEPOSITO DE AGUA,63,2065-544,VILA NOVA DE SÃO PEDRO,-8.846198801909521,39.21431742587193
pt.ine.add.PTCONT.2322954,R BELCHIOR PEDRO DE ALMEIDA,8,2065-556,VILA NOVA DE SÃO PEDRO,-8.84156318859801,39.21390435327248
pt.ine.add.PTCONT.2328999,R CRUZ,,2065-551,VILA NOVA DE SÃO PEDRO,-8.83756853825367,39.20694793008407
pt.ine.add.PTCONT.2329025,R JOSE ANTÓNIO TELES LUIZ RAMOS,4B,2050-134,,-8.899602770274658,39.13574972797042
pt.ine.add.PTCONT.2329044,R ORDEM TERCEIRA DE S FRANCISCO,11,2050-397,AZAMBUJA,-8.872307197382115,39.06708216621243
pt.ine.add.PTCONT.2329050,R 25 DE ABRIL,70,2050-065,AVEIRAS DE CIMA,-8.900822158010339,39.14153344264384
pt.ine.add.PTCONT.2329054,R ORDEM TERCEIRA DE S FRANCISCO,11,2050-397,AZAMBUJA,-8.872307197382115,39.06708216621243
pt.ine.add.PTCONT.2329235,R GUARDA NACIONAL REPUBLICANA,18,2050-317,AZAMBUJA,-8.873123939337216,39.07337322004626
pt.ine.add.PTCONT.2329318,R CAPELA,17,2050-038,AVEIRAS DE BAIXO,-8.83909342497875,39.10821794080431
pt.ine.add.PTCONT.2329319,R VALE D FRANCISCA,,2050-383,AZAMBUJA,-8.900896077779086,39.09081225318951
pt.ine.add.PTCONT.2329320,R PALANQUE,20,2050-418,VALE DO PARAÍSO,-8.887274041889134,39.11409530009928
pt.ine.add.PTCONT.2329321,R 1 DE MAIO,11,2065-316,MANIQUE DO INTENDENTE,-8.897964282304883,39.21941141346014
pt.ine.add.PTCONT.2329332,R CAPOA,5,2050-191,AVEIRAS DE CIMA,-8.881803211940321,39.137946127982275
pt.ine.add.PTCONT.2329652,R PRINCIPAL,,2065-101,ALCOENTRE,-8.961692573984983,39.20224009330533
pt.ine.add.PTCONT.2329653,R CAPELA,15,2065-101,ALCOENTRE,-8.964951478316134,39.199793919483604
pt.ine.add.PTCONT.2329654,R FONTE,,2065-101,ALCOENTRE,-8.970980601014727,39.19279711531657
pt.ine.add.PTCONT.2331413,R JOÃO DAMIÃO,2,2065-641,MAÇUSSA,-8.8657126096613,39.18458936447041
pt.ine.add.PTCONT.2331727,R AMEIXOEIRA,90,2050-071,AVEIRAS DE CIMA,-8.902071281395108,39.13833659932318
pt.ine.add.PTCONT.2331728,R MOINHO,,2050-038,AVEIRAS DE BAIXO,-8.845160611314776,39.11486455881787
pt.ine.add.PTCONT.2331730,R D JOÃO I,17,2065-030,ALCOENTRE,-8.959227247910455,39.208211390024985
pt.ine.add.PTCONT.2331731,R B DO BR SOCASA,5,2065-012,ALCOENTRE,-8.957612596766609,39.204782062211855
pt.ine.add.PTCONT.2331732,R SITIO DOS POÇOS,25,2050-180,AVEIRAS DE CIMA,-8.90969016355003,39.15383278194617
pt.ine.add.PTCONT.2331739,R C DO BR SOCASA,,2065-012,ALCOENTRE,-8.959814333682912,39.20397382111348
pt.ine.add.PTCONT.2331740,R CORRIOLA DE BAIXO,17,2050-195,AVEIRAS DE CIMA,-8.922005781549665,39.13058314196432
pt.ine.add.PTCONT.2331741,LG REPUBLICA,5,2050-014,AVEIRAS DE BAIXO,-8.8683782889996,39.11045991692428
pt.ine.add.PTCONT.2331744,R JUVENTUDE ESCOLAR,12,2050-022,AVEIRAS DE BAIXO,-8.868568224614837,39.110936112498436
pt.ine.add.PTCONT.2331745,R LIBERDADE,20,2050-023,AVEIRAS DE BAIXO,-8.870229884214737,39.1117362859288
pt.ine.add.PTCONT.2331746,TV PRATA,6,2050-195,AVEIRAS DE CIMA,-8.920959711505938,39.13426522520176
pt.ine.add.PTCONT.2331747,R PRATAS,5,2050-195,AVEIRAS DE CIMA,-8.920680102161668,39.136158662187434
pt.ine.add.PTCONT.2331751,R CARMO,,2065-281,ALCOENTRE,-8.94400813485248,39.21069623459097
pt.ine.add.PTCONT.2331752,R CARVALHAS,,2065-104,ALCOENTRE,-8.959111944246956,39.19045891121207
pt.ine.add.PTCONT.2331753,R FONTE SANTA,86,2050-112,AVEIRAS DE CIMA,-8.915936566292599,39.131840057459556
pt.ine.add.PTCONT.2331756,ESTR AMEIXOEIRA,6,2050-198,AVEIRAS DE CIMA,-8.913832059651995,39.14443746413826
pt.ine.add.PTCONT.2331760,R RIBEIRINHA,,2065-104,ALCOENTRE,-8.953311365547355,39.1893199382279
pt.ine.add.PTCONT.2331829,R AMEIXOEIRA,166 B,2050-071,AVEIRAS DE CIMA,-8.907544423543419,39.13960643001065
pt.ine.add.PTCONT.2331830,R DOMINGOS SOARES ADRIAO,27,2050-101,AVEIRAS DE CIMA,-8.904845485935116,39.13818315285649
pt.ine.add.PTCONT.2331831,R AUGUSTO,S,2065-323,MANIQUE DO INTENDENTE,-8.892219878895638,39.22039475128165
pt.ine.add.PTCONT.2331832,R VISC DA MERCEANA,5,2050-514,VILA NOVA DA RAINHA,-8.935251913584798,39.037085585854506
pt.ine.add.PTCONT.2331833,R 18 DE DEZEMBRO,43,2050-407,VALE DO PARAÍSO,-8.885064110023917,39.11503733991846
pt.ine.add.PTCONT.2331834,R PEDRO ALVES JALEKO,80,2065-557,VILA NOVA DE SÃO PEDRO,-8.846395900230027,39.214343241025375
pt.ine.add.PTCONT.2331835,R DR FRANCISCO MARIA DE ALMEIDA GRANDELA,49,2050-115,AVEIRAS DE CIMA,-8.898616086922308,39.13648580994171
pt.ine.add.PTCONT.2331836,R VALE DA ADEGA,,2050-281,AZAMBUJA,-8.89454936430011,39.07673018080976
pt.ine.add.PTCONT.2331837,R PEDRO ALVES JALEKO,48,2065-557,VILA NOVA DE SÃO PEDRO,-8.845078795349455,39.2123336673933
pt.ine.add.PTCONT.2331838,R S QUITERIA,47,2050-191,AVEIRAS DE CIMA,-8.87936457853171,39.13921379321218
pt.ine.add.PTCONT.2331839,R ANTÓNIO AMARO DOS SANTOS,107,2050-075,AVEIRAS DE CIMA,-8.902692656663465,39.13485565175311
pt.ine.add.PTCONT.2331840,R MILHARICA,4,2050-142,AVEIRAS DE CIMA,-8.903277834855878,39.13336556923468
pt.ine.add.PTCONT.2331841,R FONTE SANTA,17,2050-112,AVEIRAS DE CIMA,-8.904378723942587,39.13356545944521
pt.ine.add.PTCONT.2331842,CASAIS VALE DO ESPINGARDEIRO,,2050-606,AZAMBUJA,-8.878432925789312,39.09361521180221
pt.ine.add.PTCONT.2331843,CSL OURO,,2050-366,AZAMBUJA,-8.885492878586522,39.092290808656514
pt.ine.add.PTCONT.2331844,R ENG MONIZ DA MAIA,124,2050-356,AZAMBUJA,-8.87187669808192,39.06790457611507
pt.ine.add.PTCONT.2331845,R NOVA DOS SERRADOS,27,2050-148,AVEIRAS DE CIMA,-8.900755032335523,39.13641769791452
pt.ine.add.PTCONT.2331846,R AFONSO VAZ DE AZAMBUJA,,2050-287,AZAMBUJA,-8.87310730475877,39.072886921511774
pt.ine.add.PTCONT.2331847,R BELA VISTA,10,2050-412,VALE DO PARAÍSO,-8.886163034464403,39.115084290589294
pt.ine.add.PTCONT.2331848,BR LIBERDADE,,2050-329,AZAMBUJA,-8.86753566075355,39.07158903805603
pt.ine.add.PTCONT.2331849,R D MARIA I,37,2065-341,MANIQUE DO INTENDENTE,-8.891980059719897,39.219630697498395
pt.ine.add.PTCONT.2331850,R BARRABEL,26,2050-083,AVEIRAS DE CIMA,-8.908122502642032,39.13114466376958
pt.ine.add.PTCONT.2331851,R MURTA,,2050-285,AZAMBUJA,-8.910960686099749,39.08214342967816
pt.ine.add.PTCONT.2331852,R MURTA,,2050-285,AZAMBUJA,-8.910139014925763,39.082040818805005
pt.ine.add.PTCONT.2331853,R TOUREIROS DE AZAMBUJA,39,2050-392,AZAMBUJA,-8.877802763951095,39.076559103352594
pt.ine.add.PTCONT.2331854,R PINA MANIQUE,115,2065-362,MANIQUE DO INTENDENTE,-8.897141378421312,39.218272892883626
pt.ine.add.PTCONT.2331855,R PINHAL DE BAIXO,29,2065-347,MANIQUE DO INTENDENTE,-8.89648635198615,39.21766469412782
pt.ine.add.PTCONT.2331856,R 25 DE ABRIL,2,2050-408,VALE DO PARAÍSO,-8.888620515158452,39.11133931938609
pt.ine.add.PTCONT.2331857,R VAZ MONTEIRO,7,2050-530,VILA NOVA DA RAINHA,-8.93140366945474,39.039967368410316
pt.ine.add.PTCONT.2331858,R FONTE,,2050-109,AVEIRAS DE CIMA,-8.895344149108814,39.13659732719257
pt.ine.add.PTCONT.2331859,R MURTA,52,2050-285,AZAMBUJA,-8.911131158974342,39.0818810761612
pt.ine.add.PTCONT.2331860,R ALVES REDOL,27,2050-391,AZAMBUJA,-8.878273878971191,39.07630388431446
pt.ine.add.PTCONT.2331861,TV B,13,2050-272,AZAMBUJA,-8.877470918406335,39.07247182656653
pt.ine.add.PTCONT.2331862,QTA BERNARDINO,,2050-380,AZAMBUJA,-8.873082204778692,39.0715900029986
pt.ine.add.PTCONT.2331863,R D ROLIM,28,2050-396,AZAMBUJA,-8.871452592973242,39.067123610294765
pt.ine.add.PTCONT.2331864,R D ROLIM,28,2050-396,AZAMBUJA,-8.871452592973242,39.067123610294765
pt.ine.add.PTCONT.2331865,R D ROLIM,28,2050-396,AZAMBUJA,-8.871452592973242,39.067123610294765
pt.ine.add.PTCONT.2331866,R D ROLIM,28,2050-396,AZAMBUJA,-8.871452592973242,39.067123610294765
pt.ine.add.PTCONT.2331867,R D ROLIM,28,2050-396,AZAMBUJA,-8.871452592973242,39.067123610294765
pt.ine.add.PTCONT.2331868,R D ROLIM,28,2050-396,AZAMBUJA,-8.871452592973242,39.067123610294765
pt.ine.add.PTCONT.2331869,R D ROLIM,28,2050-396,AZAMBUJA,-8.871452592973242,39.067123610294765
pt.ine.add.PTCONT.2331870,R D ROLIM,28,2050-396,AZAMBUJA,-8.871452592973242,39.067123610294765
pt.ine.add.PTCONT.2331871,R 25 DE ABRIL,11,2065-552,VILA NOVA DE SÃO PEDRO,-8.82881321679019,39.20666727438781
pt.ine.add.PTCONT.2331872,R 25 DE ABRIL,11,2065-552,VILA NOVA DE SÃO PEDRO,-8.82934075005898,39.20733066282731
pt.ine.add.PTCONT.2331873,R D FRANCISCO CHILD ROLIM DE MOURA,51,2050-003,AZAMBUJA,-8.871502127244451,39.07409509224161
pt.ine.add.PTCONT.2331874,BC ALCOENTRINHO,4,2065-318,MANIQUE DO INTENDENTE,-8.891926160098663,39.222153078699755
pt.ine.add.PTCONT.2331875,BC ALCOENTRINHO,4,2065-318,MANIQUE DO INTENDENTE,-8.891662361136907,39.22238898533131
pt.ine.add.PTCONT.2331999,R VIVENDAS,1B,2065-552,VILA NOVA DE SÃO PEDRO,-8.827231736313854,39.19890340455011
pt.ine.add.PTCONT.2332015,TV 1 DE DEZEMBRO,1,2065-605,MAÇUSSA,-8.863939097253027,39.19214862912812
pt.ine.add.PTCONT.2338215,R GINESTAL DOS SANTOS QUITERIO,20,2050-119,AVEIRAS DE CIMA,-8.899400219817373,39.13733635790442
pt.ine.add.PTCONT.2338219,R CASALEIROS,,2050-360,AZAMBUJA,-8.903030164939459,39.074476670029675
pt.ine.add.PTCONT.2338225,R AFONSO VAZ DE AZAMBUJA,,2050-287,AZAMBUJA,-8.87310730475877,39.072886921511774
pt.ine.add.PTCONT.2338560,R JOSE BEXIGA LEAL,12,2050-195,AVEIRAS DE CIMA,-8.923558777686804,39.13708494843801
pt.ine.add.PTCONT.2338561,R D ROLIM,28,2050-396,AZAMBUJA,-8.871452592973242,39.067123610294765
pt.ine.add.PTCONT.2338569,MATA DAS VIRTUDES,,2050-040,AVEIRAS DE BAIXO,-8.848902516357805,39.096151196262795
pt.ine.add.PTCONT.2338573,R DR FRANCISCO MARIA DE ALMEIDA GRANDELA,142,2050-116,AVEIRAS DE CIMA,-8.899405697442484,39.13997548197814
pt.ine.add.PTCONT.2338670,R VALE VIGÁRIO,,2065-101,ALCOENTRE,-8.97318058949283,39.190274688993455
pt.ine.add.PTCONT.2338672,R RELOGIO,64,2050-190,AVEIRAS DE CIMA,-8.905093658966088,39.1280752309568
pt.ine.add.PTCONT.2338842,R SANTO ANTÓNIO,67,2065-552,VILA NOVA DE SÃO PEDRO,-8.831054910700653,39.20623052287894
pt.ine.add.PTCONT.2340390,AV 25 DE DEZEMBRO,48,2050-195,AVEIRAS DE CIMA,-8.923467953656681,39.13620284260629
pt.ine.add.PTCONT.2340848,R MONTEJUNTO,,2065-107,ALCOENTRE,-8.975100543875863,39.18691269420197
pt.ine.add.PTCONT.2340849,R VALE,SN,2065-104,ALCOENTRE,-8.96694235861177,39.17920709459711
pt.ine.add.PTCONT.2340850,R LIBERDADE,,2050-023,AVEIRAS DE BAIXO,-8.864812734122932,39.115607576291
pt.ine.add.PTCONT.2340851,R CARLOS RIBEIRO,46,2050-507,VILA NOVA DA RAINHA,-8.933527866087754,39.035782332965134
pt.ine.add.PTCONT.2340852,R MANUEL JOAQUIM ALVES DINIS,10,2050-510,VILA NOVA DA RAINHA,-8.932666545056588,39.03826530630742
pt.ine.add.PTCONT.2340853,R VAZ MONTEIRO,36,2050-530,VILA NOVA DA RAINHA,-8.9326716691169,39.040769358469525
pt.ine.add.PTCONT.2340997,PCT 25 DE ABRIL URB DAS VIRTUDES,91,2050-040,AVEIRAS DE BAIXO,-8.830012161155897,39.08768152113601
pt.ine.add.PTCONT.2340998,R SILVA WALLACE,15,2050-040,AVEIRAS DE BAIXO,-8.828896877773188,39.085922715712
pt.ine.add.PTCONT.2340999,R PEDRO ALVES JALEKO,80,2065-557,VILA NOVA DE SÃO PEDRO,-8.846361713167333,39.21439749402401
pt.ine.add.PTCONT.2341000,R PEDRO ALVES JALEKO,,2065-557,VILA NOVA DE SÃO PEDRO,-8.846135537487893,39.21378638363343
pt.ine.add.PTCONT.2341001,R PEDRO ALVES JALEKO,70,2065-557,VILA NOVA DE SÃO PEDRO,-8.845970715340593,39.213517173961
pt.ine.add.PTCONT.2341002,R JOSE LUIS INÁCIO RAIMUNDO,44,2065-556,VILA NOVA DE SÃO PEDRO,-8.841347108774405,39.21659884375397
pt.ine.add.PTCONT.2341122,R CABECO DO SEIXO,13,2050-194,AVEIRAS DE CIMA,-8.933987019766262,39.141814679814
pt.ine.add.PTCONT.2341123,TV LUCAS,7,2050-190,AVEIRAS DE CIMA,-8.920528606410384,39.12359439567655
pt.ine.add.PTCONT.2341124,R COURELAS,2,2065-617,MAÇUSSA,-8.871447338808517,39.199514295558856
pt.ine.add.PTCONT.2341125,R 25 DE ABRIL,6,2065-607,MAÇUSSA,-8.862896532848787,39.19430790994803
pt.ine.add.PTCONT.2341126,R 10 DE JUNHO,5,2065-601,MAÇUSSA,-8.865317962522335,39.19451789981622
pt.ine.add.PTCONT.2341127,R 1 DE MAIO,34A,2065-606,MAÇUSSA,-8.867676093041839,39.19420581497342
pt.ine.add.PTCONT.2341268,R QUINTA DO MOR,38,2050-198,AVEIRAS DE CIMA,-8.9122408712663,39.142799765499404
pt.ine.add.PTCONT.2341269,R CARRASCO,108,2050-095,AVEIRAS DE CIMA,-8.917677468417008,39.131350961346726
pt.ine.add.PTCONT.2341270,R ALMEIDAS E RODRIGUES,,2050-195,AVEIRAS DE CIMA,-8.919797236104515,39.13373263482419
pt.ine.add.PTCONT.2341375,R DR FRANCISCO MARIA DE ALMEIDA GRANDELA,,2050-118,AVEIRAS DE CIMA,-8.89973266052934,39.140261567663345
pt.ine.add.PTCONT.2341376,R DR BESSONE ABREU,60,2050-086,AVEIRAS DE CIMA,-8.900178020169678,39.14079907958459
pt.ine.add.PTCONT.2341377,R DR BESSONE ABREU,60,2050-086,AVEIRAS DE CIMA,-8.900178020169678,39.14079907958459
pt.ine.add.PTCONT.2341378,R S QUITERIA,19,2050-191,AVEIRAS DE CIMA,-8.882261800527232,39.138654764327555
pt.ine.add.PTCONT.2341379,TV CABECA GORDA,9,2050-191,AVEIRAS DE CIMA,-8.889580208850692,39.13621153236888
pt.ine.add.PTCONT.2341380,R CAJU,5,2050-090,AVEIRAS DE CIMA,-8.897150695496105,39.13466692738858
pt.ine.add.PTCONT.2341381,TV ADRO,3,2050-067,AVEIRAS DE CIMA,-8.897862088373499,39.13521171203944
pt.ine.add.PTCONT.2341382,TV SOLDADICO,20,2050-176,AVEIRAS DE CIMA,-8.893697877465423,39.13193325075421
pt.ine.add.PTCONT.2341383,R VALE FOJO QTA DO CARIOCA,,2050-190,AVEIRAS DE CIMA,-8.896296236002135,39.1283673561917
pt.ine.add.PTCONT.2341530,R 25 DE ABRIL,5,2050-063,AVEIRAS DE CIMA,-8.899973948604723,39.13798111537581
pt.ine.add.PTCONT.2341531,R GINESTAL DOS SANTOS QUITERIO,14,2050-119,AVEIRAS DE CIMA,-8.899190289626313,39.13717560517244
pt.ine.add.PTCONT.2341532,R ROSSIO,11,2050-160,AVEIRAS DE CIMA,-8.900455193036876,39.13756360886061
pt.ine.add.PTCONT.2341614,R S MIGUEL,,2050-360,AZAMBUJA,-8.909135961269328,39.068545309687046
pt.ine.add.PTCONT.2341615,,,2050-366,AZAMBUJA,-8.90552221380679,39.10907578481101
pt.ine.add.PTCONT.2341761,R COVÃO,2,2050-317,AZAMBUJA,-8.876119908686121,39.07807408712475
pt.ine.add.PTCONT.2341762,R CASAIS DO FAROL,,2050-378,AZAMBUJA,-8.873925760735093,39.08153790987223
pt.ine.add.PTCONT.2341763,R VÁRZEA DA CABELEIRA,,2050-360,AZAMBUJA,-8.897726277927244,39.07556544350933
pt.ine.add.PTCONT.2341764,R CASALEIROS,,2050-360,AZAMBUJA,-8.903170619651995,39.06613482100982
pt.ine.add.PTCONT.2341867,R FR JERONIMO AZAMBUJA,,2050-332,AZAMBUJA,-8.870838049328345,39.068715716935706
pt.ine.add.PTCONT.2341868,BC MADRE TERESA DE CALCUTA,7,2050-273,AZAMBUJA,-8.876186432873336,39.07339878209973
pt.ine.add.PTCONT.2341869,BC MADRE TERESA DE CALCUTA,7,2050-273,AZAMBUJA,-8.876186432873336,39.07339878209973
pt.ine.add.PTCONT.2341870,BC MADRE TERESA DE CALCUTA,7,2050-273,AZAMBUJA,-8.876186432873336,39.07339878209973
pt.ine.add.PTCONT.2341871,BC MADRE TERESA DE CALCUTA,7,2050-273,AZAMBUJA,-8.876186432873336,39.07339878209973
pt.ine.add.PTCONT.2341872,BC MADRE TERESA DE CALCUTA,7,2050-273,AZAMBUJA,-8.876186432873336,39.07339878209973
pt.ine.add.PTCONT.2341873,BC MADRE TERESA DE CALCUTA,7,2050-273,AZAMBUJA,-8.876186432873336,39.07339878209973
pt.ine.add.PTCONT.2341874,R TOUREIROS DE AZAMBUJA,76,2050-392,AZAMBUJA,-8.879435119519817,39.077935818013245
pt.ine.add.PTCONT.2341875,R 25 DE ABRIL,63,2050-317,AZAMBUJA,-8.875015057023989,39.07519872941214
pt.ine.add.PTCONT.2341997,R ALVES REDOL,26,2050-391,AZAMBUJA,-8.877671490457734,39.07616361268652
pt.ine.add.PTCONT.2341998,ESTR MATABURROS,,2050-378,AZAMBUJA,-8.866496056183196,39.076090316049026
pt.ine.add.PTCONT.2342089,LG ESPÍRITO SANTO,1,2050-314,AZAMBUJA,-8.864975206457338,39.07205551055635
pt.ine.add.PTCONT.2342090,LG ESPÍRITO SANTO,1,2050-314,AZAMBUJA,-8.864975206457338,39.07205551055635
pt.ine.add.PTCONT.2342091,LG ESPÍRITO SANTO,1,2050-314,AZAMBUJA,-8.864975206457338,39.07205551055635
pt.ine.add.PTCONT.2342092,LG ESPÍRITO SANTO,1,2050-314,AZAMBUJA,-8.864975206457338,39.07205551055635
pt.ine.add.PTCONT.2342093,LG ESPÍRITO SANTO,1,2050-314,AZAMBUJA,-8.864975206457338,39.07205551055635
pt.ine.add.PTCONT.2342094,LG ESPÍRITO SANTO,1,2050-314,AZAMBUJA,-8.864975206457338,39.07205551055635
pt.ine.add.PTCONT.2342095,LG ESPÍRITO SANTO,1,2050-314,AZAMBUJA,-8.864975206457338,39.07205551055635
pt.ine.add.PTCONT.2342096,LG ESPÍRITO SANTO,1,2050-314,AZAMBUJA,-8.864975206457338,39.07205551055635
pt.ine.add.PTCONT.2342097,LG ESPÍRITO SANTO,1,2050-314,AZAMBUJA,-8.864975206457338,39.07205551055635
pt.ine.add.PTCONT.2342167,R LAVANDEIRA,8,2050-358,AZAMBUJA,-8.874230213460274,39.070871121007734
pt.ine.add.PTCONT.2342261,R JUNQUEIRA,33,2065-234,ALCOENTRE,-8.985139155064722,39.235136448432364
pt.ine.add.PTCONT.2342262,R VICTOR COUTINHO DA COSTA,,2050-337,AZAMBUJA,-8.870335565907505,39.069706820084974
pt.ine.add.PTCONT.2342263,R VITOR CORDON,71,2050-336,AZAMBUJA,-8.866796804344975,39.06942288407655
pt.ine.add.PTCONT.2342264,R JOSE RAMOS VIDES,25,2050-334,AZAMBUJA,-8.87213238703863,39.068047075850934
pt.ine.add.PTCONT.2342375,TV CANTO,1,2065-121,ALCOENTRE,-8.943343552548876,39.241514558110595
pt.ine.add.PTCONT.2342376,R 1 DE MAIO,,2065-111,ALCOENTRE,-8.943679407135447,39.240503415094594
pt.ine.add.PTCONT.2342377,R ORDEM TERCEIRA DE S FRANCISCO,3,2050-397,AZAMBUJA,-8.871558078707679,39.067267062246046
pt.ine.add.PTCONT.2342378,R ORDEM TERCEIRA DE S FRANCISCO,3,2050-397,AZAMBUJA,-8.871558078707679,39.067267062246046
pt.ine.add.PTCONT.2342379,R ORDEM TERCEIRA DE S FRANCISCO,3,2050-397,AZAMBUJA,-8.871558078707679,39.067267062246046
pt.ine.add.PTCONT.2342380,R IGREJA,49,2065-311,MANIQUE DO INTENDENTE,-8.88948188170706,39.24364221935227
pt.ine.add.PTCONT.2342381,R ANTÓNIO FERREIRA CAMILO,13,2065-322,MANIQUE DO INTENDENTE,-8.892226184389035,39.22098018146938
pt.ine.add.PTCONT.2342496,TV CERRADO,10,2065-020,ALCOENTRE,-8.960078194388966,39.209691546767495
pt.ine.add.PTCONT.2342497,R SALGUEIRAS,,2065-107,ALCOENTRE,-8.99648311901844,39.207202640176156
pt.ine.add.PTCONT.2342498,R PINA MANIQUE,132,2065-362,MANIQUE DO INTENDENTE,-8.897341044081541,39.21853279341975
pt.ine.add.PTCONT.2342499,R 25 DE ABRIL,3,2065-317,MANIQUE DO INTENDENTE,-8.896177003481167,39.22010768612773
pt.ine.add.PTCONT.2342500,R PINA MANIQUE,,2065-362,MANIQUE DO INTENDENTE,-8.895638826404731,39.2195977970763
pt.ine.add.PTCONT.2342501,TV TRAIANO,1,2065-329,MANIQUE DO INTENDENTE,-8.89167131240505,39.219992998560976
pt.ine.add.PTCONT.2342502,R FONTE DA BICA,,2065-333,MANIQUE DO INTENDENTE,-8.894736071070524,39.216424142627446
pt.ine.add.PTCONT.2342614,ESTR PINA MANIQUE,,2065-281,ALCOENTRE,-8.93307459214004,39.21239313367805
pt.ine.add.PTCONT.2342615,R SANTO AMARO,6,2065-044,ALCOENTRE,-8.955781983366201,39.211604478454824
pt.ine.add.PTCONT.2342616,BR JOÃO MARQUES,,2065-048,ALCOENTRE,-8.953973343706997,39.20232748080192
pt.ine.add.PTCONT.2342617,R NOVA DO ROSSIO,10,2050-422,VALE DO PARAÍSO,-8.885895009738022,39.11488785859596
pt.ine.add.PTCONT.2342618,R CHAFARIZ,3,2050-417,VALE DO PARAÍSO,-8.885215918227875,39.11409058199458
pt.ine.add.PTCONT.2342619,TV ROSAS,12,2050-436,VALE DO PARAÍSO,-8.888850915574741,39.114508436406936
pt.ine.add.PTCONT.2342620,R 5 DE OUTUBRO,22,2050-409,VALE DO PARAÍSO,-8.885665184788355,39.11393455649359
pt.ine.add.PTCONT.2342621,ESTR VÁRZEA,53,2050-502,VILA NOVA DA RAINHA,-8.93755716323424,39.036673378887315
pt.ine.add.PTCONT.2347193,R PADRE MOREIRA,94,2065-546,VILA NOVA DE SÃO PEDRO,-8.846858382841186,39.21542128163388
pt.ine.add.PTCONT.2347196,BC MADRE TERESA DE CALCUTA,7,2050-273,AZAMBUJA,-8.876186432873336,39.07339878209973
pt.ine.add.PTCONT.2347219,PCT RAINHA D LEONOR,13,2050-040,AVEIRAS DE BAIXO,-8.831092594239898,39.08707155725475
pt.ine.add.PTCONT.2347286,R S MARTINHO,84,2050-163,AVEIRAS DE CIMA,-8.898243506604592,39.13732594229531
pt.ine.add.PTCONT.2347328,R ORDEM TERCEIRA DE S FRANCISCO,3,2050-397,AZAMBUJA,-8.871558078707679,39.067267062246046
pt.ine.add.PTCONT.2347668,R JOSE ANTÓNIO TELES LUIZ RAMOS,53,2050-132,AVEIRAS DE CIMA,-8.902377075809685,39.13455148419073
pt.ine.add.PTCONT.2347698,LG ESPÍRITO SANTO,1,2050-314,AZAMBUJA,-8.864975206457338,39.07205551055635
pt.ine.add.PTCONT.2347772,R PINHEIRO,,2065-101,ALCOENTRE,-8.966331715944772,39.19610008998796
pt.ine.add.PTCONT.2347773,,,2065-101,ALCOENTRE,-8.96404366440169,39.19544989438758
pt.ine.add.PTCONT.2347774,R SILENCIO,,2065-101,ALCOENTRE,-8.969522568066363,39.185998100494956
pt.ine.add.PTCONT.2347822,R PRINCIPAL,,2065-101,ALCOENTRE,-8.961739511470325,39.20229380294619
pt.ine.add.PTCONT.2347869,R BOA ESPERANÇA,,2065-101,ALCOENTRE,-8.962217746677787,39.19866047855188
pt.ine.add.PTCONT.2347946,TV BELA VISTA,3,2050-525,VILA NOVA DA RAINHA,-8.932199109650387,39.037782104120396
pt.ine.add.PTCONT.2347948,R SANTO ANTÓNIO,32,2065-552,VILA NOVA DE SÃO PEDRO,-8.828701652088094,39.2059203348321
pt.ine.add.PTCONT.2348119,R AMEIXOEIRA,114,2050-071,AVEIRAS DE CIMA,-8.90298730138353,39.13843465765118
pt.ine.add.PTCONT.2349644,R ORDEM TERCEIRA DE S FRANCISCO,3,2050-397,AZAMBUJA,-8.871558078707679,39.067267062246046
pt.ine.add.PTCONT.2349734,R ESPÍRITO SANTO,2,2050-323,AZAMBUJA,-8.865904333970208,39.070275200034345
pt.ine.add.PTCONT.2349841,TV CASADINHA,3,2050-097,AVEIRAS DE CIMA,-8.900174011727279,39.13723218687928
pt.ine.add.PTCONT.2349857,LG ESPÍRITO SANTO,1,2050-314,AZAMBUJA,-8.864975206457338,39.07205551055635
pt.ine.add.PTCONT.2349871,R AMEIXOEIRA,114,2050-071,AVEIRAS DE CIMA,-8.90298730138353,39.13843465765118
pt.ine.add.PTCONT.2350086,R MOINHO,,2050-038,AVEIRAS DE BAIXO,-8.845092419790427,39.11498207192843
pt.ine.add.PTCONT.2350087,R CABECO DO SEIXO,9,2050-194,AVEIRAS DE CIMA,-8.93324527793044,39.14168466408891
pt.ine.add.PTCONT.2350088,R SALGADAS,12,2050-161,AVEIRAS DE CIMA,-8.899190636454124,39.140409249510874
pt.ine.add.PTCONT.2350093,R CONS FREDERICO AROUCA,178,2065-016,ALCOENTRE,-8.959429889727044,39.20969614719226
pt.ine.add.PTCONT.2350094,R FONTE DA SERRA,,2050-141,AVEIRAS DE CIMA,-8.885613643288163,39.15146867203162
pt.ine.add.PTCONT.2350095,R JOSE LOURENÇO,,2065-135,ALCOENTRE,-8.945803019588507,39.24184870285721
pt.ine.add.PTCONT.2350096,R B DO BR SOCASA,50,2065-012,ALCOENTRE,-8.959331626765252,39.204274484672894
pt.ine.add.PTCONT.2350097,R CORRIOLA DE BAIXO,28,2050-195,AVEIRAS DE CIMA,-8.923479157023365,39.13203235495365
pt.ine.add.PTCONT.2350098,TV QUINTA DO MOR,6,2050-198,AVEIRAS DE CIMA,-8.912238936420918,39.14367349232949
pt.ine.add.PTCONT.2350104,R PRINCIPAL,,2065-107,ALCOENTRE,-8.993504777247153,39.216448066950065
pt.ine.add.PTCONT.2350111,TV CARRASCO,5,2050-095,AVEIRAS DE CIMA,-8.918243387110396,39.133364802411734
pt.ine.add.PTCONT.2350114,R VINHA DO FORNO,23,2050-025,AVEIRAS DE BAIXO,-8.867476392594789,39.10488099335052
pt.ine.add.PTCONT.2350115,R CHAES,7,2050-098,AVEIRAS DE CIMA,-8.900118726325424,39.14386197438456
pt.ine.add.PTCONT.2350116,R DR FRANCISCO MARIA DE ALMEIDA GRANDELA,204,2050-117,AVEIRAS DE CIMA,-8.900771545395543,39.14326319029239
pt.ine.add.PTCONT.2350117,R PRATAS,13,2050-195,AVEIRAS DE CIMA,-8.920233382153,39.13654899663124
pt.ine.add.PTCONT.2350123,TV JOGO DA BOLA,,2065-031,ALCOENTRE,-8.958089381091678,39.20892201834345
pt.ine.add.PTCONT.2350124,R QUINTA DO MOR,27,2050-198,AVEIRAS DE CIMA,-8.912611722887817,39.141815483416
pt.ine.add.PTCONT.2350125,R CANTONEIROS,11,2065-104,ALCOENTRE,-8.953413532132911,39.191138687462185
pt.ine.add.PTCONT.2350126,R 25 DE ABRIL,3,2050-038,AVEIRAS DE BAIXO,-8.83769264745893,39.11151413153096
pt.ine.add.PTCONT.2350127,R CONS FREDERICO AROUCA,76,2065-016,ALCOENTRE,-8.955621911912207,39.205822960219166
pt.ine.add.PTCONT.2350207,TV SOLDADICO,12,2050-176,AVEIRAS DE CIMA,-8.89401321562848,39.132219428935585
pt.ine.add.PTCONT.2350208,R ROSAS,,2050-360,AZAMBUJA,-8.915934433950122,39.068932227542184
pt.ine.add.PTCONT.2350209,ESTR D FRANCISCA QTA ALFAKO,,2050-361,AZAMBUJA,-8.899986935614365,39.093313298230335
pt.ine.add.PTCONT.2350210,R LAVANDEIRA,11,2050-358,AZAMBUJA,-8.874991577307686,39.0707491823143
pt.ine.add.PTCONT.2350211,R LAVANDEIRA,11,2050-358,AZAMBUJA,-8.874991577307686,39.0707491823143
pt.ine.add.PTCONT.2350212,R LAVANDEIRA,11,2050-358,AZAMBUJA,-8.874991577307686,39.0707491823143
pt.ine.add.PTCONT.2350213,R LAVANDEIRA,11,2050-358,AZAMBUJA,-8.874991577307686,39.0707491823143
pt.ine.add.PTCONT.2350214,R LAVANDEIRA,11,2050-358,AZAMBUJA,-8.874991577307686,39.0707491823143
pt.ine.add.PTCONT.2350215,TV MESQUITA,16,2050-428,VALE DO PARAÍSO,-8.883959748476377,39.116656785435666
pt.ine.add.PTCONT.2350216,R QUINTA DO SALGUEIRO,15,2050-157,AVEIRAS DE CIMA,-8.886867106432609,39.13232891206628
pt.ine.add.PTCONT.2350217,TV RAINHA,4,2050-343,AZAMBUJA,-8.868970067278848,39.0684003511809
pt.ine.add.PTCONT.2350218,R D JOÃO AFONSO ESTEVES DE AZAMBUJA,34,2050-326,AZAMBUJA,-8.86995231008937,39.06952008514591
pt.ine.add.PTCONT.2350219,R PALANQUE,60,2050-418,VALE DO PARAÍSO,-8.889427552379342,39.11328869572448
pt.ine.add.PTCONT.2350220,R PALANQUE,60,2050-418,VALE DO PARAÍSO,-8.889427552379342,39.11328869572448
pt.ine.add.PTCONT.2350221,R FURRIEL LUIS DA SILVA,38,2050-509,VILA NOVA DA RAINHA,-8.93369798115488,39.036528789013545
pt.ine.add.PTCONT.2350222,R 25 DE ABRIL,46,2050-064,AVEIRAS DE CIMA,-8.900449535676604,39.14023883543748
pt.ine.add.PTCONT.2350223,R MOINHO NOVO,32,2050-143,AVEIRAS DE CIMA,-8.903935805729958,39.13643273497759
pt.ine.add.PTCONT.2350224,R ALFREDO REBELO,,2050-360,AZAMBUJA,-8.909219948816332,39.06460848298935
pt.ine.add.PTCONT.2350225,R 25 DE ABRIL,84,2065-311,MANIQUE DO INTENDENTE,-8.890762219580736,39.24529122491093
pt.ine.add.PTCONT.2350226,QTA MELANIAS,,2050-366,AZAMBUJA,-8.897005793085981,39.09983623843469
pt.ine.add.PTCONT.2350227,R MARTINHO DOS SANTOS,,2050-248,AZAMBUJA,-8.894625823687587,39.084917464820734
pt.ine.add.PTCONT.2350228,R 25 DE ABRIL,05,2050-001,AZAMBUJA,-8.891368205033436,39.113122962815375
pt.ine.add.PTCONT.2350229,R IGREJA,25,2065-311,MANIQUE DO INTENDENTE,-8.88745212048856,39.2433941742866
pt.ine.add.PTCONT.2350230,R GRAZINAS,,2050-361,AZAMBUJA,-8.906517984877574,39.0991530382898
pt.ine.add.PTCONT.2350231,R JOSE RAMOS VIDES,31,2050-334,AZAMBUJA,-8.872234027461005,39.06793857055939
pt.ine.add.PTCONT.2350232,R ALCOENTRINHO,24,2065-319,MANIQUE DO INTENDENTE,-8.893377628669265,39.22252191869504
pt.ine.add.PTCONT.2350233,R PINA MANIQUE,23,2065-361,MANIQUE DO INTENDENTE,-8.889384536023933,39.2216291729743
pt.ine.add.PTCONT.2350234,R PINA MANIQUE,23,2065-361,MANIQUE DO INTENDENTE,-8.889384536023933,39.2216291729743
pt.ine.add.PTCONT.2350235,R OUTEIRO,41,2050-149,AVEIRAS DE CIMA,-8.89962546831755,39.13677641954853
pt.ine.add.PTCONT.2350236,R CUIDADOS,,2050-360,AZAMBUJA,-8.897785569472074,39.07249350696604
pt.ine.add.PTCONT.2350237,R CAPOA,22,2050-191,AVEIRAS DE CIMA,-8.881679833018975,39.13721732255008
pt.ine.add.PTCONT.2350238,R VALE DOS APOSTOLOS,,2050-360,AZAMBUJA,-8.899953798050547,39.06890330053729
pt.ine.add.PTCONT.2350239,R ALVES REDOL,44,2050-391,AZAMBUJA,-8.878440201121117,39.07673518015994
pt.ine.add.PTCONT.2350240,R NOVA DO ROSSIO,18,2050-422,VALE DO PARAÍSO,-8.886319047158615,39.114533830382456
pt.ine.add.PTCONT.2350241,R S PEDRO DE ARRIFANA,50,2065-353,MANIQUE DO INTENDENTE,-8.888856799256375,39.22856817686794
pt.ine.add.PTCONT.2350242,R VALE DO ESTACAL,8,2065-358,MANIQUE DO INTENDENTE,-8.89813270747688,39.22319335119533
pt.ine.add.PTCONT.2350243,R RELOGIO,60,2050-190,AVEIRAS DE CIMA,-8.904992928829692,39.12838214916222
pt.ine.add.PTCONT.2350244,R CASALEIROS,,2050-360,AZAMBUJA,-8.907483997548164,39.081265825702495
pt.ine.add.PTCONT.2350245,ESTR NAC 3,,2050-378,AZAMBUJA,-8.870663787728553,39.083984490599214
pt.ine.add.PTCONT.2350246,R VALE DAS AROEIRAS,,2050-360,AZAMBUJA,-8.912681108903202,39.07044926243877
pt.ine.add.PTCONT.2350247,R D FRANCISCO CHILD ROLIM DE MOURA,53,2050-003,AZAMBUJA,-8.871456846176802,39.07418545379103
pt.ine.add.PTCONT.2350248,TV D,7,2050-272,AZAMBUJA,-8.877709204914707,39.07315487386092
pt.ine.add.PTCONT.2350249,LG ROSSIO,,2050-313,AZAMBUJA,-8.871885993961968,39.06879625884371
pt.ine.add.PTCONT.2350250,R ALCOENTRINHO,19,2065-319,MANIQUE DO INTENDENTE,-8.893364592112265,39.222386895072326
pt.ine.add.PTCONT.2350317,R DESPORTO E RECREIO ALÉM CALENSE,18,2065-552,VILA NOVA DE SÃO PEDRO,-8.823532134419963,39.20530256073193
pt.ine.add.PTCONT.2350318,R VIVENDAS,34,2065-552,VILA NOVA DE SÃO PEDRO,-8.825499610519218,39.20523684021915
pt.ine.add.PTCONT.2350327,R 25 DE ABRIL,,2065-607,MAÇUSSA,-8.867850331943263,39.19537566529627
pt.ine.add.PTCONT.2350335,R VALE MIGUEL,7,2065-636,MAÇUSSA,-8.871807649954787,39.194125648907566
pt.ine.add.PTCONT.2350340,R LONGRAS,4,2065-629,MAÇUSSA,-8.868840804704242,39.19378412993264
pt.ine.add.PTCONT.2350343,TV OLIVAL,2,2065-633,MAÇUSSA,-8.86472828739073,39.19123393817215
pt.ine.add.PTCONT.2811815,EN 1,,2065-107,ALCOENTRE,-8.997566641215856,39.20587054286009
pt.ine.add.PTCONT.2356217,AV 25 DE DEZEMBRO,86,2050-195,AVEIRAS DE CIMA,-8.925241543890044,39.134497417543685
pt.ine.add.PTCONT.2356224,R B DO BR SOCASA,57,2065-012,ALCOENTRE,-8.959409387171705,39.20399470853058
pt.ine.add.PTCONT.2356225,R PEDRO ALVES JALEKO,,2065-557,VILA NOVA DE SÃO PEDRO,-8.844926194818155,39.21212743243863
pt.ine.add.PTCONT.2356226,R VÁRZEA DA CABELEIRA,,2050-360,AZAMBUJA,-8.90087472817709,39.076049173863105
pt.ine.add.PTCONT.2356229,,,2065-557,VILA NOVA DE SÃO PEDRO,-8.862562403126056,39.21908003363166
pt.ine.add.PTCONT.2356594,R CARRASCO,37,2050-095,AVEIRAS DE CIMA,-8.915390945788262,39.133744276640066
pt.ine.add.PTCONT.2356597,R JOSE LUIS SOARES BRITO,8 E,2050-189,AVEIRAS DE CIMA,-8.899365889408305,39.14270497627545
pt.ine.add.PTCONT.2356601,R CASALEIROS,,2050-360,AZAMBUJA,-8.905145844493347,39.07668752562186
pt.ine.add.PTCONT.2356602,R PEDRO ALVES JALEKO,46,2065-557,VILA NOVA DE SÃO PEDRO,-8.845020270636093,39.212270974085754
pt.ine.add.PTCONT.2356637,R PINA MANIQUE,23,2065-361,MANIQUE DO INTENDENTE,-8.889384536023933,39.2216291729743
pt.ine.add.PTCONT.2356691,R MALAPOSTA,,2065-101,ALCOENTRE,-8.961090471659805,39.19729939286863
pt.ine.add.PTCONT.2356807,TV SANTO ANTÓNIO,,2065-204,ALCOENTRE,-8.984282003778752,39.229378112953746
pt.ine.add.PTCONT.2358474,R FONTE SANTA,26,2050-112,AVEIRAS DE CIMA,-8.906969674929806,39.133593322943405
pt.ine.add.PTCONT.2358485,R FRANCISCO ALMEIDA GRANDELLA,201,2065-224,ALCOENTRE,-8.98332915274783,39.23487045231195
pt.ine.add.PTCONT.2358511,R AMEIXOEIRA,87,2050-070,AVEIRAS DE CIMA,-8.902448624327741,39.13793778482361
pt.ine.add.PTCONT.2358512,TV AMEIXOEIRA,11,2050-074,AVEIRAS DE CIMA,-8.90350035926356,39.13680491628061
pt.ine.add.PTCONT.2358684,R 1 DE DEZEMBRO,,2065-203,ALCOENTRE,-8.984267533189819,39.22818026150328
pt.ine.add.PTCONT.2358685,R BOAVISTA,18,2050-195,AVEIRAS DE CIMA,-8.927680646036928,39.13541758149989
pt.ine.add.PTCONT.2358687,R ESTUDANTE,5,2050-038,AVEIRAS DE BAIXO,-8.841571878077037,39.109806229972875
pt.ine.add.PTCONT.2358691,R CONS FREDERICO AROUCA,45,2065-016,ALCOENTRE,-8.954311970822198,39.2028023434907
pt.ine.add.PTCONT.2358692,R C DO BR SOCASA,66,2065-012,ALCOENTRE,-8.95955691895224,39.20374145912122
pt.ine.add.PTCONT.2358693,R 1 DE MAIO,9,2050-038,AVEIRAS DE BAIXO,-8.836402099180134,39.111954281500054
pt.ine.add.PTCONT.2358695,R CARRASCO,72,2050-095,AVEIRAS DE CIMA,-8.915717245665686,39.1339672705009
pt.ine.add.PTCONT.2358697,CASAIS DA AREIA,,2065-103,ALCOENTRE,-8.97230763132214,39.212882721052694
pt.ine.add.PTCONT.2358701,R LAMAS FERNANDES,7,2050-197,AVEIRAS DE CIMA,-8.916540933490268,39.1602812193969
pt.ine.add.PTCONT.2358702,R CARMO,,2065-281,ALCOENTRE,-8.943529333511998,39.21033927677843
pt.ine.add.PTCONT.2358703,R CARMO,,2065-281,ALCOENTRE,-8.941309228753903,39.21058888885267
pt.ine.add.PTCONT.2358707,ESTR GONÇALVES TEIXEIRA,9,2050-198,AVEIRAS DE CIMA,-8.916372079831186,39.1460957895371
pt.ine.add.PTCONT.2358708,R DR FRANCISCO MARIA DE ALMEIDA GRANDELA,166,2050-117,AVEIRAS DE CIMA,-8.899558157928643,39.141235511190544
pt.ine.add.PTCONT.2358710,R PINA MANIQUE,,2065-042,ALCOENTRE,-8.958885460317545,39.20967298600873
pt.ine.add.PTCONT.2358714,R CONS FREDERICO AROUCA,84,2065-016,ALCOENTRE,-8.955844277452268,39.20602855664602
pt.ine.add.PTCONT.2358715,R BOAVISTA,74,2050-192,AVEIRAS DE CIMA,-8.931255844787847,39.14476080439157
pt.ine.add.PTCONT.2358763,R MATIAS SEQUEIRA,,2050-601,AZAMBUJA,-8.880294598405,39.08710892156201
pt.ine.add.PTCONT.2358764,R D ROLIM DE MOURA,,2050-327,AZAMBUJA,-8.868798013734029,39.06963546308975
pt.ine.add.PTCONT.2358765,R QUINTA DA VÁRZEA,,2050-360,AZAMBUJA,-8.910321008914451,39.07545515354525
pt.ine.add.PTCONT.2358766,ESTR BANCO,,2050-361,AZAMBUJA,-8.895926694395717,39.09195278749867
pt.ine.add.PTCONT.2358767,BC CHAFARIZ,3,2065-311,MANIQUE DO INTENDENTE,-8.8894644237591,39.244173758486184
pt.ine.add.PTCONT.2358768,R PROGRESSO,,2065-554,VILA NOVA DE SÃO PEDRO,-8.867046391321193,39.23602152805467
pt.ine.add.PTCONT.2358769,R DR BESSONE ABREU,17,2050-086,AVEIRAS DE CIMA,-8.90002379072594,39.139376930089476
pt.ine.add.PTCONT.2358770,R LUIS DE CAMÕES,24,2065-339,MANIQUE DO INTENDENTE,-8.90053425577343,39.2182866188101
pt.ine.add.PTCONT.2358771,R PADRE MOREIRA,71,2065-546,VILA NOVA DE SÃO PEDRO,-8.8466901807056,39.21481882450515
pt.ine.add.PTCONT.2358772,R 25 DE ABRIL,33,2065-317,MANIQUE DO INTENDENTE,-8.898702149994852,39.22018118966501
pt.ine.add.PTCONT.2358773,R FONTE SANTA,40,2050-112,AVEIRAS DE CIMA,-8.908676089704368,39.13311359742196
pt.ine.add.PTCONT.2358774,TV JULIÃO,14,2050-136,AVEIRAS DE CIMA,-8.910012139082545,39.133663157047394
pt.ine.add.PTCONT.2358775,R GRAZINAS,,2050-361,AZAMBUJA,-8.905571829068371,39.09985185628259
pt.ine.add.PTCONT.2358776,R CASALEIROS,,2050-360,AZAMBUJA,-8.905043024871059,39.07679629591222
pt.ine.add.PTCONT.2358777,R FONTE,11,2065-311,MANIQUE DO INTENDENTE,-8.890171866207591,39.24209750212684
pt.ine.add.PTCONT.2358778,TV EMILIA CONCEIÇÃO SILVA,2,2050-517,VILA NOVA DA RAINHA,-8.934979472180775,39.036483955921526
pt.ine.add.PTCONT.2358779,TV EMILIA CONCEIÇÃO SILVA,2,2050-517,VILA NOVA DA RAINHA,-8.934979472180775,39.036483955921526
pt.ine.add.PTCONT.2358780,QTA S JULIÃO CALDAS E NABAIS,,2050-517,VILA NOVA DA RAINHA,-8.957252903565278,39.03898591449024
pt.ine.add.PTCONT.2358781,R S QUITERIA,34,2050-191,AVEIRAS DE CIMA,-8.88154502914968,39.1386863913549
pt.ine.add.PTCONT.2358782,R VALE DOS APOSTOLOS,,2050-360,AZAMBUJA,-8.896744490995385,39.072392239661305
pt.ine.add.PTCONT.2358783,R MANUEL JOAQUIM ALVES DINIS,48,2050-510,VILA NOVA DA RAINHA,-8.934190956570168,39.03722799014649
pt.ine.add.PTCONT.2358784,TV CABECA GORDA,10,2050-191,AVEIRAS DE CIMA,-8.890473528185854,39.137547830533116
