id,street,house,postcode,city,lon,lat
pt.ine.add.PTCONT.1367638,R 5 DE OUTUBRO,10,7150-100,BORBA,-7.4535131869518,38.80969223253045
pt.ine.add.PTCONT.1367639,R JOSE CARDOSO PIRES,5,7150-150,BORBA,-7.450409216868611,38.804076029572
pt.ine.add.PTCONT.1367640,EN 4,,7150-248,BORBA,-7.468082036092577,38.80962503301842
pt.ine.add.PTCONT.1367663,R BENJAMIM ANTÓNIO FERREIRA,1,7150-113,BORBA,-7.464043475648126,38.80588542203967
pt.ine.add.PTCONT.1367664,R BAIRRO TUJEIRA,22,7150-111,BORBA,-7.497295061281768,38.809304947200644
pt.ine.add.PTCONT.1367665,ESTR STA BARBARA,,7150-123,BORBA,-7.448168604659686,38.805829470136736
pt.ine.add.PTCONT.1367666,QTA DO GENERAL,,7150-105,BORBA,-7.44941927415896,38.80867428736674
pt.ine.add.PTCONT.1367667,AV POVO,5,7150-104,BORBA,-7.455661508421812,38.80628399881472
pt.ine.add.PTCONT.1367668,R DE S FRANCISCO,56,7150-141,BORBA,-7.454013394873054,38.8047478893921
pt.ine.add.PTCONT.1367669,R VISC GIAO,49,7150-149,BORBA,-7.457425665919806,38.80491396169744
pt.ine.add.PTCONT.1367670,R VISC GIAO,47,7150-149,BORBA,-7.457425665919806,38.80491396169744
pt.ine.add.PTCONT.1367671,R VISC GIAO,45,7150-149,BORBA,-7.457425665919806,38.80491396169744
pt.ine.add.PTCONT.1367704,R NOVA DA TUJEIRA,29,7150-344,RIO DE MOINHOS BRB,-7.496428867907,38.80831836613483
pt.ine.add.PTCONT.1367705,R NOVA DA TUJEIRA,6,7150-344,RIO DE MOINHOS BRB,-7.494974785221323,38.807418648481004
pt.ine.add.PTCONT.1367723,R 1 DE MAIO,26,7150-321,RIO DE MOINHOS BRB,-7.482327770497549,38.78532447328865
pt.ine.add.PTCONT.1367724,R 1 DE MAIO,28,7150-379,RIO DE MOINHOS BRB,-7.503258827430752,38.76963677420308
pt.ine.add.PTCONT.1367725,R TRABALHADORES,,7150-377,RIO DE MOINHOS BRB,-7.5060194804295755,38.76756878580163
pt.ine.add.PTCONT.1367726,R MONTE FRANCO,,7150-373,RIO DE MOINHOS BRB,-7.503114325568171,38.76717017822725
pt.ine.add.PTCONT.1367739,,,7150-326,RIO DE MOINHOS BRB,-7.512415208709389,38.786307881205055
pt.ine.add.PTCONT.1367740,VIVENDAS DO SOL,1,7150-321,RIO DE MOINHOS BRB,-7.480836933549526,38.78473965201575
pt.ine.add.PTCONT.1367741,R FORNO,29,7150-321,RIO DE MOINHOS BRB,-7.478510020276354,38.78396334773568
pt.ine.add.PTCONT.1367742,R DA ESTAÇÃO,55 A,7150-368,RIO DE MOINHOS BRB,-7.502009667526832,38.76686697724623
pt.ine.add.PTCONT.1367753,R NUNES DA SILVA,25,7150-161,BORBA,-7.457553907096718,38.80603538910244
pt.ine.add.PTCONT.1368243,TAPADA ANJINHO,,7150-321,RIO DE MOINHOS BRB,-7.477485515869912,38.78338632413477
pt.ine.add.PTCONT.1368309,AV ESTAÇÃO,32,7150-151,BORBA,-7.465441171253256,38.806614050952035
pt.ine.add.PTCONT.1368310,R ESTAÇÃO,,7150-368,RIO DE MOINHOS BRB,-7.502850906385671,38.76606530117421
pt.ine.add.PTCONT.1368345,AV D DINIS DE MELO E CASTRO,2 D,7150-105,BORBA,-7.453415031831067,38.807373437705515
pt.ine.add.PTCONT.1368346,AV D DINIS DE MELO E CASTRO,2 D,7150-105,BORBA,-7.453415031831067,38.807373437705515
pt.ine.add.PTCONT.1368347,AV D DINIS DE MELO E CASTRO,2 D,7150-105,BORBA,-7.453415031831067,38.807373437705515
pt.ine.add.PTCONT.1368441,,,7150-244,BORBA,-7.4647415390350975,38.793694006946325
pt.ine.add.PTCONT.1368434,R S JOAO DE DEUS,18,7150-142,BORBA,-7.456895328730305,38.80456514624109
pt.ine.add.PTCONT.1368435,,,7150-244,BORBA,-7.458812729575047,38.799000322506956
pt.ine.add.PTCONT.1368438,,,7150-244,BORBA,-7.458812729575047,38.799000322506956
pt.ine.add.PTCONT.1368439,,,7150-244,BORBA,-7.459225751275165,38.79914683210272
pt.ine.add.PTCONT.1368448,,,7150-100,BORBA,-7.455478447634308,38.81073636625119
pt.ine.add.PTCONT.1368449,R DO CHAFARIZ,20,7150-375,RIO DE MOINHOS BRB,-7.499389800683771,38.767771616395045
pt.ine.add.PTCONT.1368452,AV CERCA,6,7150-102,BORBA,-7.454236258188596,38.80839424892486
pt.ine.add.PTCONT.1368453,AV CERCA,34,7150-102,BORBA,-7.456207627413575,38.809189802078784
pt.ine.add.PTCONT.1368454,R VISC GIAO,18,7150-146,BORBA,-7.456944627529098,38.805439199618924
pt.ine.add.PTCONT.1368455,R VISC GIAO,48 40,7150-146,BORBA,-7.456944627529098,38.805439199618924
pt.ine.add.PTCONT.1368460,R AZINHAL ABELHO,5,7150-308,ORADA,-7.46600960811439,38.873996150849024
pt.ine.add.PTCONT.1368463,R MOS,11,7150-122,BORBA,-7.456656620392184,38.80911276173544
pt.ine.add.PTCONT.1368466,R MOS,11,7150-122,BORBA,-7.456656620392184,38.80911276173544
pt.ine.add.PTCONT.1368467,R MOS,11,7150-122,BORBA,-7.456656620392184,38.80911276173544
pt.ine.add.PTCONT.1368468,R MOS,11,7150-122,BORBA,-7.456656620392184,38.80911276173544
pt.ine.add.PTCONT.1368469,R MOS,11,7150-122,BORBA,-7.456656620392184,38.80911276173544
pt.ine.add.PTCONT.1368470,R ANTÓNIO JOAQUIM GUERRA,93,7150-119,BORBA,-7.459075753618095,38.80546852645922
pt.ine.add.PTCONT.1368472,R COMÉRCIO,12,7150-321,RIO DE MOINHOS BRB,-7.481214441603505,38.78246274453405
pt.ine.add.PTCONT.1368475,R AZINHAL ABELHO,1,7150-308,ORADA,-7.466354613784337,38.87407018369735
pt.ine.add.PTCONT.1368476,R 1 DE MAIO,33,7150-321,RIO DE MOINHOS BRB,-7.482224932123414,38.78524282891363
pt.ine.add.PTCONT.1368477,TAPADA DO ANJINHO,4,7150-321,RIO DE MOINHOS BRB,-7.477246769129825,38.782161297181815
pt.ine.add.PTCONT.1368480,R COMBATENTES DO ULTRAMAR,49,7150-308,ORADA,-7.466915854472841,38.871965557217905
pt.ine.add.PTCONT.1368484,R DE S SEBASTIÃO,36,7150-143,BORBA,-7.45411808579269,38.80486431712305
pt.ine.add.PTCONT.1368486,R MATEUS PAIS,53,7150-134,BORBA,-7.457560510726403,38.80483666438429
pt.ine.add.PTCONT.1368487,R BOAVISTA,21,7150-366,RIO DE MOINHOS BRB,-7.5021314685759295,38.77263274828566
pt.ine.add.PTCONT.1368488,R VISC GIAO,53,7150-149,BORBA,-7.457560510726403,38.80483666438429
pt.ine.add.PTCONT.1368489,R VISC GIAO,51,7150-149,BORBA,-7.457560510726403,38.80483666438429
pt.ine.add.PTCONT.1368490,R PADRE BENTO PEREIRA,11,7150-139,BORBA,-7.456530708877758,38.80511337421588
pt.ine.add.PTCONT.1368491,R PADRE BENTO PEREIRA,2,7150-139,BORBA,-7.456530708877758,38.80511337421588
pt.ine.add.PTCONT.1368492,R 1 DE MAIO,100,7150-379,RIO DE MOINHOS BRB,-7.50338979282485,38.76824363648637
pt.ine.add.PTCONT.1373037,EN 4,,7150-248,BORBA,-7.476225230821154,38.814467026425106
pt.ine.add.PTCONT.1369016,R S JOAO DEUS,20,7150-142,BORBA,-7.456895328730305,38.80456514624109
pt.ine.add.PTCONT.1369026,R TRES,10,7150-163,BORBA,-7.458317986919828,38.805077814647774
pt.ine.add.PTCONT.1369027,R SILVEIRA MENEZES,90,7150-144,BORBA,-7.457587075042271,38.808256294114784
pt.ine.add.PTCONT.1373060,R ALDEIA,,7150-364,RIO DE MOINHOS BRB,-7.501835196206927,38.80101524136571
pt.ine.add.PTCONT.1369061,BR ESTAÇÃO,,7150-110,BORBA,-7.4659333185618735,38.80568904647808
pt.ine.add.PTCONT.1369092,R COMBATENTES DO ULTRAMAR,49,7150-308,ORADA,-7.466915854472841,38.871965557217905
pt.ine.add.PTCONT.1369114,R POR DO SOL,31,7150-308,ORADA,-7.467692845134101,38.87142930251221
pt.ine.add.PTCONT.1369127,R COMBATENTES DO ULTRAMAR,49,7150-308,ORADA,-7.466915854472841,38.871965557217905
pt.ine.add.PTCONT.1369186,BR PIAO,42,7150-111,BORBA,-7.49120229124279,38.80829877624757
pt.ine.add.PTCONT.1369190,BR POPULAR 1 MAIO,50,7150-112,BORBA,-7.45224471884817,38.80453813839173
pt.ine.add.PTCONT.1369191,BR POPULAR 1 MAIO,49,7150-112,BORBA,-7.45224471884817,38.80453813839173
pt.ine.add.PTCONT.1369192,BR POPULAR 1 MAIO,41,7150-112,BORBA,-7.45224471884817,38.80453813839173
pt.ine.add.PTCONT.1369193,MTE RIBEIRA,,7150-308,ORADA,-7.46781071870063,38.87733030935759
pt.ine.add.PTCONT.1369196,,,7150-100,BORBA,-7.455189857751479,38.811029520958634
pt.ine.add.PTCONT.1369197,R D NUNO ÁLVARES PEREIRA,33,7150-308,ORADA,-7.464246264441229,38.87525616645568
pt.ine.add.PTCONT.1369198,R D NUNO ALVARES PEREIRA,33,7150-308,ORADA,-7.464142727854964,38.87523755776614
pt.ine.add.PTCONT.1369199,HRD CARNEIRA,,7150-318,RIO DE MOINHOS BRB,-7.534317309493954,38.75780617591833
pt.ine.add.PTCONT.1369200,R DR RAMOS D ABREU,51,7150-158,BORBA,-7.4577411211696845,38.80584746818879
pt.ine.add.PTCONT.1369201,R DR RAMOS D ABREU,15,7150-158,BORBA,-7.456887913034111,38.805714401065956
pt.ine.add.PTCONT.1369206,R CASAS NOVAS,11,7150-123,BORBA,-7.451804220071816,38.8061272738587
pt.ine.add.PTCONT.1369207,R CASAS NOVAS,9,7150-123,BORBA,-7.451860828205254,38.806166333462166
pt.ine.add.PTCONT.1369208,,,7150-326,RIO DE MOINHOS BRB,-7.512456401156168,38.78686659399878
pt.ine.add.PTCONT.1369209,,,7150-326,RIO DE MOINHOS BRB,-7.512456401156168,38.78686659399878
pt.ine.add.PTCONT.1369210,MTE PERUZINHA,,7150-308,ORADA,-7.458207922164665,38.90692883719472
pt.ine.add.PTCONT.1369211,MTE PERUZINHA,,7150-308,ORADA,-7.458207922164665,38.90692883719472
pt.ine.add.PTCONT.1369213,R PADRE JOÃO LAPÃO,6,7150-344,RIO DE MOINHOS BRB,-7.502147923903323,38.8058239528204
pt.ine.add.PTCONT.1369214,AV NAVE,10,7150-344,RIO DE MOINHOS BRB,-7.497268183840751,38.804557621254794
pt.ine.add.PTCONT.1369226,R ANTÓNIO SÉRGIO,55,7150-122,BORBA,-7.4575748881519,38.808943040090206
pt.ine.add.PTCONT.1369227,R ANGELICO VELEZ,7,7150-117,BORBA,-7.455998097529832,38.808152104247434
pt.ine.add.PTCONT.1369230,URB HORTA ROSSIO,6,7150-150,BORBA,-7.451481197515387,38.80540878677753
pt.ine.add.PTCONT.1369231,R DR RAMOS D ABREU,56,7150-158,BORBA,-7.458140118104295,38.80593134772455
pt.ine.add.PTCONT.1369232,R DR RAMOS D ABREU,83,7150-158,BORBA,-7.458542857233078,38.80579574797488
pt.ine.add.PTCONT.1369235,R 1 DE MAIO,24,7150-379,RIO DE MOINHOS BRB,-7.50316914473653,38.76978281391709
pt.ine.add.PTCONT.1369237,R BENJAMIM ANTÓNIO FERREIRA,20,7150-113,BORBA,-7.464515425980063,38.80587182470793
pt.ine.add.PTCONT.1369715,R COMBATENTES DO ULTRAMAR,5,7150-344,RIO DE MOINHOS BRB,-7.500900458400722,38.8064870134294
pt.ine.add.PTCONT.1369720,SIT APOIO TEMPORÁRIO,13,7150-244,BORBA,-7.454346330519973,38.79772222442632
pt.ine.add.PTCONT.1369797,URB HORTA DO ROSSIO,4,7150-150,BORBA,-7.451481197515387,38.80540878677753
pt.ine.add.PTCONT.1369834,R POR DO SOL,,7150-308,ORADA,-7.467984701054169,38.872336447463525
pt.ine.add.PTCONT.1369825,R EÇA DE QUEIROZ,3,7150-250,BORBA,-7.455703946489558,38.80151356785033
pt.ine.add.PTCONT.1369835,R MESTRE DIOGO DE BORBA,31-33,7150-159,BORBA,-7.458321576826172,38.80546831152884
pt.ine.add.PTCONT.1369836,R MESTRE DIOGO DE BORBA,31-33,7150-159,BORBA,-7.458321576826172,38.80546831152884
pt.ine.add.PTCONT.1369891,R S JOÃO DE DEUS,29,7150-142,BORBA,-7.457024082484665,38.80434069335072
pt.ine.add.PTCONT.1369894,R NUNES DA SILVA,2,7150-161,BORBA,-7.456478286522783,38.806058046199816
pt.ine.add.PTCONT.1369896,BR POPULAR 1 DE MAIO,2,7150-112,BORBA,-7.452326789848393,38.8038953594158
pt.ine.add.PTCONT.1369897,BR POPULAR 1 DE MAIO,2,7150-112,BORBA,-7.452326789848393,38.8038953594158
pt.ine.add.PTCONT.1369898,BR POPULAR 1 DE MAIO,2,7150-112,BORBA,-7.452326789848393,38.8038953594158
pt.ine.add.PTCONT.1369899,BR POPULAR 1 DE MAIO,2,7150-112,BORBA,-7.452326789848393,38.8038953594158
pt.ine.add.PTCONT.1369900,BR POPULAR 1 DE MAIO,2,7150-112,BORBA,-7.452326789848393,38.8038953594158
pt.ine.add.PTCONT.1369901,AV NAVE,33,7150-344,RIO DE MOINHOS BRB,-7.4994495693077585,38.806524193471795
pt.ine.add.PTCONT.1369906,R JOSE CARDOSO PIRES,8,7150-150,BORBA,-7.450283838509367,38.803880077342306
pt.ine.add.PTCONT.1369907,AV NAVE,40,7150-344,RIO DE MOINHOS BRB,-7.500884757194186,38.805277229586906
pt.ine.add.PTCONT.1369909,MTE DO PAÇO,,7150-150,BORBA,-7.395692909669615,38.80946452388887
pt.ine.add.PTCONT.1369910,R MESTRE DIOGO BORBA,24,7150-159,BORBA,-7.458062438910702,38.80531955229418
pt.ine.add.PTCONT.1369911,R MESTRE DIOGO BORBA,22,7150-159,BORBA,-7.458062438910702,38.80531955229418
pt.ine.add.PTCONT.1369915,R ARY DOS SANTOS,27,7150-165,BORBA,-7.461227966110483,38.80835039081132
pt.ine.add.PTCONT.1369916,MTE DA GREDEIRA,,7150-328,RIO DE MOINHOS BRB,-7.504790553408361,38.78825789392061
pt.ine.add.PTCONT.1369917,R CASTELO,12,7150-321,RIO DE MOINHOS BRB,-7.480478825019484,38.781098436250176
pt.ine.add.PTCONT.1369918,R CASTELO,12,7150-321,RIO DE MOINHOS BRB,-7.480478825019484,38.781098436250176
pt.ine.add.PTCONT.1369919,R CASTELO,12,7150-321,RIO DE MOINHOS BRB,-7.480478825019484,38.781098436250176
pt.ine.add.PTCONT.1369923,R ANGELICO VELEZ,5,7150-117,BORBA,-7.456165493778862,38.80806776209644
pt.ine.add.PTCONT.1369926,R 13 DE JANEIRO,3 B,7150-145,BORBA,-7.4563941260827065,38.806435891265686
pt.ine.add.PTCONT.1369931,LG ZECA AFONSO,3,7150-380,RIO DE MOINHOS BRB,-7.4990838476775625,38.77113894492753
pt.ine.add.PTCONT.1369934,R DR JOAQUIM LUIS PEREIRA TRINDADE,14,7150-114,BORBA,-7.4633858781937885,38.80603478918679
pt.ine.add.PTCONT.1369935,MONTINHO DO BRAZAO,,7150-287,ORADA,-7.484582309597148,38.851473072805064
pt.ine.add.PTCONT.1369936,MONTINHO DO BRAZAO,,7150-287,ORADA,-7.484582309597148,38.851473072805064
pt.ine.add.PTCONT.1369939,BC DO SOL,16-18,7150-369,RIO DE MOINHOS BRB,-7.504824751649917,38.76817049632356
pt.ine.add.PTCONT.1369940,R COMBATENTES DO ULTRAMAR,20,7150-363,RIO DE MOINHOS BRB,-7.501890796328342,38.770729116809896
pt.ine.add.PTCONT.1369941,R 13 DE JANEIRO,86-88,7150-156,BORBA,-7.458734232470384,38.80610712052027
pt.ine.add.PTCONT.1369942,R 13 DE JANEIRO,86-88,7150-156,BORBA,-7.458734232470384,38.80610712052027
pt.ine.add.PTCONT.1369943,R 13 DE JANEIRO,86-88,7150-156,BORBA,-7.458734232470384,38.80610712052027
pt.ine.add.PTCONT.1370500,BR POPULAR 1 DE MAIO,2,7150-112,BORBA,-7.452326789848393,38.8038953594158
pt.ine.add.PTCONT.1370507,R SALGUEIRO MAIA,3,7150-165,BORBA,-7.461758351952125,38.80771893736016
pt.ine.add.PTCONT.1370525,R SILVEIRA MENEZES,37,7150-144,BORBA,-7.456934886594876,38.8071852485469
pt.ine.add.PTCONT.1370526,R SILVEIRA MENEZES,37 A,7150-144,BORBA,-7.456934886594876,38.8071852485469
pt.ine.add.PTCONT.1370613,R ARY DOS SANTOS,27,7150-165,BORBA,-7.461227966110483,38.80835039081132
pt.ine.add.PTCONT.1370627,MTE CANTO,9,7150-308,ORADA,-7.464659361730825,38.87667275843769
pt.ine.add.PTCONT.1370629,EN 4,,7150-253,BORBA,-7.4653718248591625,38.81034293202432
pt.ine.add.PTCONT.1370687,QTA BARREIRO,,7150-231,BORBA,-7.461094188738254,38.799986322383496
pt.ine.add.PTCONT.1370688,,,7150-234,BORBA,-7.495499963736504,38.81695189752809
pt.ine.add.PTCONT.1370689,R 25 DE ABRIL,19,7150-361,RIO DE MOINHOS BRB,-7.500977024002125,38.7683944668777
pt.ine.add.PTCONT.1370690,R 25 DE ABRIL,17,7150-361,RIO DE MOINHOS BRB,-7.500977024002125,38.7683944668777
pt.ine.add.PTCONT.1370691,R NUNES DA SILVA,12,7150-161,BORBA,-7.456694345383989,38.8060715930268
pt.ine.add.PTCONT.1370693,ALDEIA LACERDA,4,7150-202,BORBA,-7.444889953075189,38.81665252961122
pt.ine.add.PTCONT.1370694,SIT APOIO TEMPORÁRIO,3,7150-244,BORBA,-7.455252896271356,38.7980393173045
pt.ine.add.PTCONT.1370695,LG ROSSIO,1,7150-308,ORADA,-7.464518255013511,38.875744145934135
pt.ine.add.PTCONT.1370696,R DR RAMOS D ABREU,28,7150-158,BORBA,-7.4571445985310465,38.80586844355819
pt.ine.add.PTCONT.1370698,,,7150-209,BORBA,-7.460108627853004,38.811753999057125
pt.ine.add.PTCONT.1370699,R PADRE BENTO PEREIRA,54,7150-139,BORBA,-7.458031291075948,38.80422471739719
pt.ine.add.PTCONT.1370702,R CASAS NOVAS,,7150-326,RIO DE MOINHOS BRB,-7.512504514958824,38.78529946298912
pt.ine.add.PTCONT.1370704,R 1 DE MAIO,51,7150-140,BORBA,-7.458580157776053,38.804133496922994
pt.ine.add.PTCONT.1370705,R 1 DE MAIO,51,7150-140,BORBA,-7.458580157776053,38.804133496922994
pt.ine.add.PTCONT.1370706,R 1 DE MAIO,51,7150-140,BORBA,-7.458580157776053,38.804133496922994
pt.ine.add.PTCONT.1370707,AV NAVE,42,7150-344,RIO DE MOINHOS BRB,-7.501134631956813,38.805108808832976
pt.ine.add.PTCONT.1370711,R 5 DE OUTUBRO,59,7150-100,BORBA,-7.4537894991077405,38.81020585439319
pt.ine.add.PTCONT.1370712,HORTA NOVA,,7150-150,BORBA,-7.430329725190666,38.79241884017709
pt.ine.add.PTCONT.1370714,R ALDEIA,15,7150-364,RIO DE MOINHOS BRB,-7.501572829566041,38.80074358533159
pt.ine.add.PTCONT.1370718,MTE PALHOTA,,7150-308,ORADA,-7.467900747503921,38.87385380565828
pt.ine.add.PTCONT.1370719,QTA PALHOTA,,7150-308,ORADA,-7.467900747503921,38.87385380565828
pt.ine.add.PTCONT.1370724,R DE S FRANCISCO,36,7150-141,BORBA,-7.454449461814847,38.80406640139396
pt.ine.add.PTCONT.1370725,AV BOMBEIROS VOLUNTARIOS,30,7150-101,BORBA,-7.454675473415795,38.803220108355006
pt.ine.add.PTCONT.1370726,,,7150-391,RIO DE MOINHOS BRB,-7.503548284392708,38.77377539515497
pt.ine.add.PTCONT.1370727,,,7150-343,RIO DE MOINHOS BRB,-7.504422352755228,38.77776162816645
pt.ine.add.PTCONT.1370730,R HORTA DO MOSTEIRO,,7150-123,BORBA,-7.4483095458796535,38.80914520752494
pt.ine.add.PTCONT.1370731,R QUINTA DA PRATA,8,7150-154,BORBA,-7.462342967669619,38.80619571611434
pt.ine.add.PTCONT.1370732,R TRES,3,7150-163,BORBA,-7.458020812875988,38.80485090002534
pt.ine.add.PTCONT.1370733,MTE MOSTEIRO,,7150-224,BORBA,-7.4434508290398735,38.811566778803304
pt.ine.add.PTCONT.1370734,ZN TAPADA,,7150-224,BORBA,-7.414234854147049,38.814669025567916
pt.ine.add.PTCONT.1370735,R BENJAMIM ANTÓNIO FERREIRA,14,7150-113,BORBA,-7.4642146343168285,38.80604854458326
pt.ine.add.PTCONT.1370736,R MONTES CLAROS,35,7150-138,BORBA,-7.456469385775021,38.8021305417663
pt.ine.add.PTCONT.1370737,R 1 DE MAIO,84,7150-379,RIO DE MOINHOS BRB,-7.503378133803324,38.76889776016635
pt.ine.add.PTCONT.1370738,R O,14,7150-155,BORBA,-7.4592143570222005,38.80524513057461
pt.ine.add.PTCONT.1370740,R FERRENHA,58,7150-369,RIO DE MOINHOS BRB,-7.506029484747539,38.767699333790134
pt.ine.add.PTCONT.1371307,LOTEAM MONTE DA AZINHEIRA,13,7150-381,RIO DE MOINHOS BRB,-7.502914240798528,38.76736729791384
pt.ine.add.PTCONT.1371313,R CRUZ,28,7150-125,BORBA,-7.454802642587505,38.80430079441805
pt.ine.add.PTCONT.1371324,R ESTAÇÃO,,7150-368,RIO DE MOINHOS BRB,-7.50371461125488,38.766271584226054
pt.ine.add.PTCONT.1371407,R DA BOAVISTA,3 A,7150-366,RIO DE MOINHOS BRB,-7.501499871847981,38.77218265312743
pt.ine.add.PTCONT.1371479,,,7150-227,BORBA,-7.464542748460669,38.80173562741892
pt.ine.add.PTCONT.1371480,MTE BORRACHEIRO,,7150-308,ORADA,-7.469225003055457,38.83429887168869
pt.ine.add.PTCONT.1371485,R 5 DE OUTUBRO,1,7150-100,BORBA,-7.45294643906746,38.80969250711878
pt.ine.add.PTCONT.1371487,R CASAS NOVAS,19,7150-123,BORBA,-7.4509889480299805,38.805845969588965
pt.ine.add.PTCONT.1371490,R 5 DE OUTUBRO,51,7150-100,BORBA,-7.454019930427726,38.809975512337786
pt.ine.add.PTCONT.1371491,R CARRASCAL,6,7150-150,BORBA,-7.451094968334132,38.803191160061864
pt.ine.add.PTCONT.1371492,R MONTES CLAROS,76,7150-138,BORBA,-7.456624111121497,38.801802489059114
pt.ine.add.PTCONT.1371493,R MONTES CLAROS,72,7150-138,BORBA,-7.456627760858985,38.80190920273159
pt.ine.add.PTCONT.1371496,HORTA HORA DO RESIO,,7150-123,BORBA,-7.435878352259558,38.80415336750642
pt.ine.add.PTCONT.1371497,R AZINHAL ABELHO,,7150-308,ORADA,-7.466452756327909,38.873544709099285
pt.ine.add.PTCONT.1371498,R LUIS TRINDADE,9,7150-132,BORBA,-7.456313239371317,38.808592457886554
pt.ine.add.PTCONT.1371499,R AZINHAL ABELHO,,7150-308,ORADA,-7.466452756327909,38.873544709099285
pt.ine.add.PTCONT.1371501,R MQ MARIALVA,39,7150-133,BORBA,-7.4561483691835155,38.80379546659086
pt.ine.add.PTCONT.1371502,R TERREIRO DAS SERVAS,27,7150-164,BORBA,-7.4603481628149675,38.80685680790896
pt.ine.add.PTCONT.1371503,R RESTAURACAO,12,7150-321,RIO DE MOINHOS BRB,-7.4809284453533165,38.786064332549614
pt.ine.add.PTCONT.1371505,R ESTREMOZ,6,7150-166,BORBA,-7.46402612008521,38.807740953834376
pt.ine.add.PTCONT.1371506,R STA MARIA,15,7150-174,BORBA,-7.455277166424326,38.80549995375702
pt.ine.add.PTCONT.1371509,MTE ZAMBUJEIRO,,7150-343,RIO DE MOINHOS BRB,-7.509195084515225,38.77546314668677
pt.ine.add.PTCONT.1371511,ESTR STA BARBARA,,7150-123,BORBA,-7.441366736023744,38.80563626355182
pt.ine.add.PTCONT.1371512,R PADRE BENTO PEREIRA,47,7150-139,BORBA,-7.457360264455745,38.8045457910395
pt.ine.add.PTCONT.1371513,R TRABALHADORES,,7150-377,RIO DE MOINHOS BRB,-7.507149421677575,38.768171895612
pt.ine.add.PTCONT.1371514,LG BEATO MARTIR DOMINGOS FERNANDES,1,7150-168,BORBA,-7.459495705184936,38.80522615814999
pt.ine.add.PTCONT.1372075,LOTEAM HORTA DO ROSSIO,,7150-150,BORBA,-7.450157652204863,38.80248116048358
pt.ine.add.PTCONT.1372102,R COMBATENTES DO ULTRAMAR,11,7150-124,BORBA,-7.456677271737955,38.80426276011333
pt.ine.add.PTCONT.1372103,R MQ MARIALVA,24,7150-133,BORBA,-7.456268457725869,38.80387143518245
pt.ine.add.PTCONT.1372184,R EÇA DE QUEIROZ,26,7150-250,BORBA,-7.454957438467484,38.8010661189003
pt.ine.add.PTCONT.1372185,R EÇA DE QUEIROZ,26,7150-250,BORBA,-7.454957438467484,38.8010661189003
pt.ine.add.PTCONT.1377404,R 5 DE OUTUBRO,5,7150-362,RIO DE MOINHOS BRB,-7.500592425243953,38.77100299142065
pt.ine.add.PTCONT.1372370,ALDEIA LACERDA,,7150-202,BORBA,-7.4451082876472245,38.81662745846353
pt.ine.add.PTCONT.1372371,,,7150-100,BORBA,-7.453199894854887,38.80941698190359
pt.ine.add.PTCONT.1372372,MTE MOSTEIRO,,7150-224,BORBA,-7.443771877165745,38.81170379200816
pt.ine.add.PTCONT.1372373,BR POPULAR 1 DE MAIO,48,7150-112,BORBA,-7.452296821824471,38.804440210661944
pt.ine.add.PTCONT.1372374,BR POPULAR 1 DE MAIO,47,7150-112,BORBA,-7.452296821824471,38.804440210661944
pt.ine.add.PTCONT.1372375,R ESTREMOZ,19,7150-133,BORBA,-7.463344112734813,38.807600876300725
pt.ine.add.PTCONT.1372376,R ARY DOS SANTOS,7,7150-165,BORBA,-7.46181597266691,38.80805723012225
pt.ine.add.PTCONT.1372423,BR CASA POVO,5,7150-116,BORBA,-7.46445076146479,38.80541934173521
pt.ine.add.PTCONT.1372424,HORTA DOS FRADES,,7150-216,BORBA,-7.451306558790582,38.80755031903092
pt.ine.add.PTCONT.1372425,AV D DINIS DE MELO E CASTRO,21,7150-105,BORBA,-7.4528487234644265,38.80760434763112
pt.ine.add.PTCONT.1372426,AV D DINIS DE MELO E CASTRO,21,7150-105,BORBA,-7.4528487234644265,38.80760434763112
pt.ine.add.PTCONT.1372470,AV LUIS DE CAMÕES,10,7150-107,BORBA,-7.451902617734634,38.80298678245348
pt.ine.add.PTCONT.1372471,R MONTES CLAROS,37,7150-138,BORBA,-7.456435875011911,38.80202225262981
pt.ine.add.PTCONT.1372472,R MONTES CLAROS,37,7150-138,BORBA,-7.456435875011911,38.80202225262981
pt.ine.add.PTCONT.1372473,QTA S JOÃO,,7150-209,BORBA,-7.452258368386106,38.79584557154684
pt.ine.add.PTCONT.1372511,MTE CANTO,,7150-308,ORADA,-7.464798313366864,38.876601491233394
pt.ine.add.PTCONT.1372512,MTE CANTO,,7150-308,ORADA,-7.464798313366864,38.876601491233394
pt.ine.add.PTCONT.1372513,MTE VALE ZEBRO,,7150-308,ORADA,-7.484220706973113,38.90044658565534
pt.ine.add.PTCONT.1372514,MTE VALE ZEBRO,,7150-308,ORADA,-7.484220706973113,38.90044658565534
pt.ine.add.PTCONT.1372515,MTE VALE ZEBRO,,7150-308,ORADA,-7.484220706973113,38.90044658565534
pt.ine.add.PTCONT.1372516,R AZINHAL ABELHO,32,7150-308,ORADA,-7.465167966937296,38.8749245776131
pt.ine.add.PTCONT.1372517,NAVES DE CIMA,,7150-308,ORADA,-7.460951774693759,38.83596305623416
pt.ine.add.PTCONT.1372556,R FERRENHA,9,7150-369,RIO DE MOINHOS BRB,-7.504596941633962,38.76835823031796
pt.ine.add.PTCONT.1372588,,,7150-326,RIO DE MOINHOS BRB,-7.512603828017288,38.787119600002534
pt.ine.add.PTCONT.1372589,,,7150-326,RIO DE MOINHOS BRB,-7.512603828017288,38.787119600002534
pt.ine.add.PTCONT.1372590,TAPADA DO ANJINHO,2,7150-321,RIO DE MOINHOS BRB,-7.47713094774245,38.78224171874654
pt.ine.add.PTCONT.1372591,R BOAVISTA,30,7150-366,RIO DE MOINHOS BRB,-7.501499202035082,38.77239117716732
pt.ine.add.PTCONT.1372592,R ALDEIA NOVA,32,7150-365,RIO DE MOINHOS BRB,-7.502375864957218,38.76840031287136
pt.ine.add.PTCONT.1372593,R S TIAGO,5,7150-380,RIO DE MOINHOS BRB,-7.49975964050849,38.77062987452177
pt.ine.add.PTCONT.1372620,LG COMBATENTES GRANDE GUERRA,7,7150-152,BORBA,-7.458705678786707,38.80425132445559
pt.ine.add.PTCONT.1372621,LG COMBATENTES GRANDE GUERRA,11,7150-152,BORBA,-7.458705678786707,38.80425132445559
pt.ine.add.PTCONT.1372870,R D ANTÓNIO MELO E CASTRO,11 B,7150-156,BORBA,-7.459270190123144,38.80665068775912
pt.ine.add.PTCONT.1372978,R POETA ANTÓNIO TALHINHAS,21,7150-378,RIO DE MOINHOS BRB,-7.500948182401385,38.76980685382835
pt.ine.add.PTCONT.1373033,,,7150-244,BORBA,-7.458821269183957,38.79931564926508
pt.ine.add.PTCONT.1373034,,,7150-244,BORBA,-7.458821269183957,38.79931564926508
pt.ine.add.PTCONT.1373035,R COMBATENTES DO ULTRAMAR,67,7150-363,RIO DE MOINHOS BRB,-7.500102677198932,38.77043283663007
pt.ine.add.PTCONT.1373038,R JOSE DE SOUSA CARVALHO,8,7150-131,BORBA,-7.456486625649261,38.80395924957951
pt.ine.add.PTCONT.1373039,BR OPERÁRIO,,7150-308,ORADA,-7.463596789400505,38.87692789784547
pt.ine.add.PTCONT.1373040,BR PIAO,16,7150-344,RIO DE MOINHOS BRB,-7.494703160678122,38.80689470471914
pt.ine.add.PTCONT.1373041,R 1 DE MAIO,136,7150-379,RIO DE MOINHOS BRB,-7.502641120282637,38.76702352114808
pt.ine.add.PTCONT.1373044,R PADRE BENTO PEREIRA,81,7150-139,BORBA,-7.458193415205214,38.80400743803099
pt.ine.add.PTCONT.1373045,R PADRE BENTO PEREIRA,79,7150-139,BORBA,-7.458193415205214,38.80400743803099
pt.ine.add.PTCONT.1373046,BR TUJEIRA,4,7150-344,RIO DE MOINHOS BRB,-7.498023337259432,38.806997835525394
pt.ine.add.PTCONT.1373050,AV NAVE,16,7150-344,RIO DE MOINHOS BRB,-7.498612002039975,38.80620437044044
pt.ine.add.PTCONT.1373051,AV NAVE,43,7150-344,RIO DE MOINHOS BRB,-7.501685047041489,38.80566229288516
pt.ine.add.PTCONT.1373059,R CARRASCAL,18,7150-150,BORBA,-7.450900250095245,38.802788344899874
pt.ine.add.PTCONT.1373063,R LUIS TRINDADE,1,7150-132,BORBA,-7.456660775441548,38.80838428798763
pt.ine.add.PTCONT.1373064,R ANTÓNIO SÉRGIO,12,7150-122,BORBA,-7.456985460592107,38.80852442800525
pt.ine.add.PTCONT.1373065,R VIVENDAS SOL,1A,7150-321,RIO DE MOINHOS BRB,-7.482455953005943,38.78388391354717
pt.ine.add.PTCONT.1373067,R SALGUEIRO MAIA,,7150-165,BORBA,-7.461695706346768,38.80774126201741
pt.ine.add.PTCONT.1373068,BR S CRUZ,14,7150-308,ORADA,-7.467325886379102,38.872273440818276
pt.ine.add.PTCONT.1373072,R SALGUEIRO MAIA,11,7150-165,BORBA,-7.46153620247211,38.80779100763624
pt.ine.add.PTCONT.1373073,AV POVO,28,7150-103,BORBA,-7.456306585372546,38.80580714149995
pt.ine.add.PTCONT.1373074,R MQ DE MARIALVA,7 A,7150-133,BORBA,-7.455619267590958,38.804377595729164
pt.ine.add.PTCONT.1373075,BC DE STA CRUZ,8,7150-125,BORBA,-7.45480537553166,38.80401255688533
pt.ine.add.PTCONT.1373083,,,7150-117,BORBA,-7.483281274183926,38.818498821471785
pt.ine.add.PTCONT.1373084,ZN ALDEIA NOVA,,7150-117,BORBA,-7.438467059217606,38.81971642222946
pt.ine.add.PTCONT.1373085,ZN ALDEIA NOVA,,7150-117,BORBA,-7.437843123668204,38.81993790790754
pt.ine.add.PTCONT.1373086,R ESTRADA DE ESTREMOZ,1,7150-166,BORBA,-7.462758413158478,38.80716160534399
pt.ine.add.PTCONT.1373093,R S SEBASTIÃO,30,7150-143,BORBA,-7.4542711771219015,38.80496342900682
pt.ine.add.PTCONT.1373094,R S SEBASTIAO,32,7150-143,BORBA,-7.4542711771219015,38.80496342900682
pt.ine.add.PTCONT.1373655,R ALDEIA NOVA,10,7150-365,RIO DE MOINHOS BRB,-7.501202371015584,38.768023069914
pt.ine.add.PTCONT.1373834,MTE AGUA SONSA,,7150-308,ORADA,-7.430766934948584,38.87329408178416
pt.ine.add.PTCONT.1373786,R 1 DE MAIO,33,7150-140,BORBA,-7.457691180887996,38.80360222773749
pt.ine.add.PTCONT.1373787,R 1 DE MAIO,33,7150-140,BORBA,-7.457691180887996,38.80360222773749
pt.ine.add.PTCONT.1373788,R 1 MAIO,35 A,7150-140,BORBA,-7.457691180887996,38.80360222773749
pt.ine.add.PTCONT.1373789,R 1 DE MAIO,33,7150-140,BORBA,-7.457691180887996,38.80360222773749
pt.ine.add.PTCONT.1373790,R DE S FRANCISCO,26,7150-141,BORBA,-7.454716718023082,38.803685191620495
pt.ine.add.PTCONT.1373791,AV BOMBEIROS VOLUNTARIOS,58,7150-101,BORBA,-7.454438722167408,38.80383026938437
pt.ine.add.PTCONT.1373832,LG ROSSIO,28,7150-308,ORADA,-7.463928559352556,38.87595695578068
pt.ine.add.PTCONT.1373833,MTE AZINHAL VELHO,,7150-308,ORADA,-7.482588420482772,38.90087888402207
pt.ine.add.PTCONT.1373835,R POR DO SOL,11,7150-308,ORADA,-7.4676223240259505,38.8728324586649
pt.ine.add.PTCONT.1373836,R NOVA DA TUJEIRA,10,7150-344,RIO DE MOINHOS BRB,-7.495192431744093,38.807616299928874
pt.ine.add.PTCONT.1373882,R NOVA DA TUJEIRA,10,7150-344,RIO DE MOINHOS BRB,-7.495192431744093,38.807616299928874
pt.ine.add.PTCONT.1373883,BR PIAO,1,7150-344,RIO DE MOINHOS BRB,-7.495547911809346,38.805115746847
pt.ine.add.PTCONT.1373884,R BUSCANHAS,12,7150-371,RIO DE MOINHOS BRB,-7.500800418800209,38.79696507911888
pt.ine.add.PTCONT.1373929,R NOVA DO PISÃO,10,7150-391,RIO DE MOINHOS BRB,-7.50494391058435,38.770101282813954
pt.ine.add.PTCONT.1373930,R 1 MAIO,12,7150-379,RIO DE MOINHOS BRB,-7.503518506378656,38.768697741808865
pt.ine.add.PTCONT.1373931,R MTE FRANCO,,7150-373,RIO DE MOINHOS BRB,-7.504699448955476,38.76585455900079
pt.ine.add.PTCONT.1373978,R BAIRRO NOVO,32,7150-374,RIO DE MOINHOS BRB,-7.499081860143857,38.767463674541794
pt.ine.add.PTCONT.1374012,MTE BRANCO,,7150-117,BORBA,-7.419409461441257,38.83828386802269
pt.ine.add.PTCONT.1374013,ZN ZONA VAQUEIRA,,7150-117,BORBA,-7.461287545413979,38.82820945466116
pt.ine.add.PTCONT.1374014,R JOSE CARDOSO PIRES,14,7150-150,BORBA,-7.450009754385252,38.80389887819575
pt.ine.add.PTCONT.1374015,R NOSSA SENHORA,7,7150-160,BORBA,-7.459229714964888,38.80728100845622
pt.ine.add.PTCONT.1374016,R 13 DE JANEIRO,66,7150-145,BORBA,-7.458378966774281,38.806110502131574
pt.ine.add.PTCONT.1374017,R 13 DE JANEIRO,33,7150-145,BORBA,-7.4576743934760605,38.80618206978334
pt.ine.add.PTCONT.1374046,R DE STA MARIA,10,7150-174,BORBA,-7.455383825381961,38.80551700832119
pt.ine.add.PTCONT.1374393,R FORNO,25,7150-321,RIO DE MOINHOS BRB,-7.4788678168334295,38.78397316762453
pt.ine.add.PTCONT.1374428,R 1 MAIO,10,7150-379,RIO DE MOINHOS BRB,-7.503518506378656,38.768697741808865
pt.ine.add.PTCONT.1374437,R 1 DE MAIO,33,7150-140,BORBA,-7.457691180887996,38.80360222773749
pt.ine.add.PTCONT.1374459,R AZINHAL ABELHO,,7150-308,ORADA,-7.465425470228445,38.87484855503374
pt.ine.add.PTCONT.1374638,AV DA NAVE,6 A,7150-344,RIO DE MOINHOS BRB,-7.497571330585712,38.80569839767086
pt.ine.add.PTCONT.1374479,AV ESTAÇÃO,4,7150-151,BORBA,-7.464170940071454,38.807406106634375
pt.ine.add.PTCONT.1374480,BR ESTAÇÃO,,7150-110,BORBA,-7.466298499872658,38.8060334321391
pt.ine.add.PTCONT.1374487,AV ESTAÇÃO,11,7150-151,BORBA,-7.464367040229516,38.806986240560285
pt.ine.add.PTCONT.1374554,R EÇA DE QUEIROZ,10,7150-250,BORBA,-7.455649974030742,38.801134922149295
pt.ine.add.PTCONT.1374624,BR TUJEIRA,15,7150-111,BORBA,-7.495769547393333,38.8086660806714
pt.ine.add.PTCONT.1374625,MTE NAVES DE CIMA,,7150-308,ORADA,-7.463998161970116,38.83656605754314
pt.ine.add.PTCONT.1374626,MTE NAVES DE CIMA,,7150-308,ORADA,-7.463998161970116,38.83656605754314
pt.ine.add.PTCONT.1374627,MTE NAVES DE CIMA,,7150-308,ORADA,-7.463998161970116,38.83656605754314
pt.ine.add.PTCONT.1374628,BC SOL,,7150-369,RIO DE MOINHOS BRB,-7.504725539861242,38.768481025151424
pt.ine.add.PTCONT.1374629,R 13 DE JANEIRO,76,7150-145,BORBA,-7.458550130681249,38.80609704985882
pt.ine.add.PTCONT.1374631,,,7150-209,BORBA,-7.44590922307029,38.788160668307526
pt.ine.add.PTCONT.1374637,BR PEAO,23,7150-344,RIO DE MOINHOS BRB,-7.494303784190794,38.806496172925726
pt.ine.add.PTCONT.1374642,R ESTREMOZ,31,7150-166,BORBA,-7.463714286028504,38.807847262677285
pt.ine.add.PTCONT.1374644,AV D DINIS MELO E CASTRO,32,7150-105,BORBA,-7.4540233276399634,38.80684451702513
pt.ine.add.PTCONT.1374645,R ALDEIA,29,7150-364,RIO DE MOINHOS BRB,-7.5030628031582625,38.798868968675336
pt.ine.add.PTCONT.1374646,R BUSCANHAS,21,7150-371,RIO DE MOINHOS BRB,-7.5011935984018665,38.796760023292705
pt.ine.add.PTCONT.1374647,R 13 DE JANEIRO,102-106,7150-145,BORBA,-7.459223390318201,38.80591619962511
pt.ine.add.PTCONT.1374648,R 13 DE JANEIRO,102-106,7150-145,BORBA,-7.459223390318201,38.80591619962511
pt.ine.add.PTCONT.1374649,R 13 DE JANEIRO,102-106,7150-145,BORBA,-7.459223390318201,38.80591619962511
pt.ine.add.PTCONT.1374652,AV D DINIS DE MELO E CASTRO,30,7150-105,BORBA,-7.4540233276399634,38.80684451702513
pt.ine.add.PTCONT.1374653,R FERNÃO PENTEADO,12,7150-128,BORBA,-7.454919601708947,38.80653543672353
pt.ine.add.PTCONT.1374654,LG TERREIRO DAS SERVAS,15-17,7150-164,BORBA,-7.460110552044812,38.80695643445947
pt.ine.add.PTCONT.1374655,LG TERREIRO DAS SERVAS,15-17,7150-164,BORBA,-7.460110552044812,38.80695643445947
pt.ine.add.PTCONT.1374658,AV 25 DE ABRIL,20,7150-109,BORBA,-7.4547771240262675,38.805777944714926
pt.ine.add.PTCONT.1374659,R S BARTOLOMEU,83,7150-162,BORBA,-7.461383856371468,38.80624620282173
pt.ine.add.PTCONT.1374661,R MARIA DE BORBA,5,7150-172,BORBA,-7.455949206467111,38.8054747234749
pt.ine.add.PTCONT.1374662,R TAPADA,25,7150-370,RIO DE MOINHOS BRB,-7.505730965590626,38.771643892147196
pt.ine.add.PTCONT.1374663,LG COMBATENTES DA GRANDE GUERRA,41,7150-152,BORBA,-7.459350232324048,38.80474976969559
pt.ine.add.PTCONT.1374665,MTE ALMAS,,7150-308,ORADA,-7.4873403739386495,38.86211604224155
pt.ine.add.PTCONT.1374666,R MONTES CLAROS,10,7150-362,RIO DE MOINHOS BRB,-7.501130049668397,38.77118629740583
pt.ine.add.PTCONT.1374667,HORTA DO MOSTEIRO,,7150-117,BORBA,-7.451420196146675,38.8173695981947
pt.ine.add.PTCONT.1374672,R CASAS NOVAS,12,7150-123,BORBA,-7.450829847325561,38.80562885068447
pt.ine.add.PTCONT.1374674,R QUINTA DA PRATA,26,7150-154,BORBA,-7.465032312708897,38.804783105997174
pt.ine.add.PTCONT.1374675,R COMBATENTES DO ULTRAMAR,16,7150-363,RIO DE MOINHOS BRB,-7.5021240889082765,38.77085813507386
pt.ine.add.PTCONT.1375219,R JOSE CARDOSO PIRES,12,7150-150,BORBA,-7.450111083134869,38.803888075543185
pt.ine.add.PTCONT.1375226,R S BARTOLOMEU,85,7150-162,BORBA,-7.461383856371468,38.80624620282173
pt.ine.add.PTCONT.1375306,R NOSSA SENHORA,2-4,7150-160,BORBA,-7.458491246132091,38.807600506705406
pt.ine.add.PTCONT.1375307,R NOSSA SENHORA,2-4,7150-160,BORBA,-7.458491246132091,38.807600506705406
pt.ine.add.PTCONT.1375372,MTE JANELAS,,7150-308,ORADA,-7.469871223077511,38.82925532951257
pt.ine.add.PTCONT.1375373,R POETA ANTÓNIO TALHINHAS,15,7150-378,RIO DE MOINHOS BRB,-7.500703450761912,38.76959862711927
pt.ine.add.PTCONT.1375376,MTE ARRIFE,,7150-308,ORADA,-7.464623091065973,38.83993857911916
pt.ine.add.PTCONT.1375377,R NOVA DA TUJEIRA,18,7150-344,RIO DE MOINHOS BRB,-7.495715034415931,38.80813394530308
pt.ine.add.PTCONT.1375378,BR PIAO,12,7150-344,RIO DE MOINHOS BRB,-7.494905976905099,38.80648703283433
pt.ine.add.PTCONT.1375379,R MARQUES RATAO,15,7150-344,RIO DE MOINHOS BRB,-7.501241965355265,38.80689622203681
pt.ine.add.PTCONT.1375380,ESTR STA BÁRBARA,,7150-123,BORBA,-7.444839847005791,38.806008082844784
pt.ine.add.PTCONT.1375382,AV 10 DE JUNHO,13,7150-100,BORBA,-7.453415088668641,38.810162841302315
pt.ine.add.PTCONT.1375383,ESTR STA BARBARA,,7150-123,BORBA,-7.445007669264641,38.80651351436401
pt.ine.add.PTCONT.1375384,R 1 DE MAIO,12,7150-140,BORBA,-7.457304588730447,38.80357685370954
pt.ine.add.PTCONT.1375386,R ALDEIA,10,7150-364,RIO DE MOINHOS BRB,-7.501511617367719,38.80115761979277
pt.ine.add.PTCONT.1375389,R SILVEIRA MENEZES,86,7150-144,BORBA,-7.457542359204242,38.80824064735325
pt.ine.add.PTCONT.1375390,R CASTELO,,7150-321,RIO DE MOINHOS BRB,-7.48026223201794,38.78087202735565
pt.ine.add.PTCONT.1375391,R 13 DE JANEIRO,122-124,7150-145,BORBA,-7.459731766194239,38.80575856449091
pt.ine.add.PTCONT.1375392,R 13 DE JANEIRO,122-124,7150-145,BORBA,-7.459731766194239,38.80575856449091
pt.ine.add.PTCONT.1375397,LG GAGO COUTINHO E SACADURA CABRAL,17,7150-153,BORBA,-7.461908158918023,38.80647670549737
pt.ine.add.PTCONT.1375402,AV LUIS DE CAMÕES,28,7150-106,BORBA,-7.4532803108775205,38.80360862862235
pt.ine.add.PTCONT.1375405,QTA LACERDA,,7150-224,BORBA,-7.4438882068332015,38.81516351195564
pt.ine.add.PTCONT.1375406,R NOVA DO PISÃO,12,7150-391,RIO DE MOINHOS BRB,-7.505023978585763,38.7701557610777
pt.ine.add.PTCONT.1375407,R EIRINHA,3,7150-367,RIO DE MOINHOS BRB,-7.505012256090711,38.76889993997785
pt.ine.add.PTCONT.1375408,LG LARGO DAS IGREJAS,,7150-158,BORBA,-7.4592455825143125,38.80559661949222
pt.ine.add.PTCONT.1375413,AV BOMBEIROS VOLUNTARIOS,72,7150-101,BORBA,-7.454171506104847,38.804229111739474
pt.ine.add.PTCONT.1375414,R MANUEL DA FONSECA,13,7150-250,BORBA,-7.454893373341777,38.801396944069126
pt.ine.add.PTCONT.1375415,R COMBATENTES DO ULTRAMAR,15,7150-363,RIO DE MOINHOS BRB,-7.502373343914036,38.77116256148534
pt.ine.add.PTCONT.1375416,R COMBATENTES ULTRAMAR,13,7150-363,RIO DE MOINHOS BRB,-7.502373343914036,38.77116256148534
pt.ine.add.PTCONT.1375937,R MOS,4,7150-122,BORBA,-7.456919916441421,38.80871101242409
pt.ine.add.PTCONT.1375952,MTE SEIXOHERDADE DAS CARVALHAS,,7150-340,RIO DE MOINHOS BRB,-7.503841681505119,38.803723081545634
pt.ine.add.PTCONT.1375983,R ESTAÇÃO,24,7150-368,RIO DE MOINHOS BRB,-7.500871877005271,38.76802285895106
pt.ine.add.PTCONT.1376099,QTA CRUZ DO MOSTEIRO,,7150-234,BORBA,-7.450169842572394,38.81205664227637
pt.ine.add.PTCONT.1376100,R MOS,1,7150-122,BORBA,-7.4576274264250975,38.80871752628455
pt.ine.add.PTCONT.1376101,R ANTÓNIO SÉRGIO,23-29,7150-122,BORBA,-7.456760471338851,38.80787027097932
pt.ine.add.PTCONT.1376102,R ANTÓNIO SÉRGIO,23-29,7150-122,BORBA,-7.456760471338851,38.80787027097932
pt.ine.add.PTCONT.1376103,R ANTÓNIO SÉRGIO,23-29,7150-122,BORBA,-7.456760471338851,38.80787027097932
pt.ine.add.PTCONT.1376104,R CASAS NOVAS,20,7150-123,BORBA,-7.450543398967203,38.80558242541411
pt.ine.add.PTCONT.1376105,R CASAS NOVAS,28,7150-123,BORBA,-7.450203000642762,38.805579005892085
pt.ine.add.PTCONT.1376115,R FERNÃO PENTEADO,15,7150-128,BORBA,-7.454875604447558,38.8063189913679
pt.ine.add.PTCONT.1376116,R 13 JANEIRO,3,7150-145,BORBA,-7.45607162748588,38.8064520387895
pt.ine.add.PTCONT.1376117,R DE S FRANCISCO,46,7150-141,BORBA,-7.453758940927486,38.8046483869333
pt.ine.add.PTCONT.1376129,R MONTES CLAROS,42,7150-138,BORBA,-7.456700349687231,38.80255538201305
pt.ine.add.PTCONT.1376130,R MONTES CLAROS,38,7150-138,BORBA,-7.456709862364111,38.802624850326346
pt.ine.add.PTCONT.1376131,R MONTES CLAROS,38,7150-138,BORBA,-7.456709862364111,38.802624850326346
pt.ine.add.PTCONT.1376132,R MQ MARIALVA,53,7150-133,BORBA,-7.456492418621119,38.80334674455597
pt.ine.add.PTCONT.1376133,R MQ MARIALVA,55,7150-133,BORBA,-7.456492418621119,38.80334674455597
pt.ine.add.PTCONT.1376134,R MQ MARIALVA,57,7150-133,BORBA,-7.456492418621119,38.80334674455597
pt.ine.add.PTCONT.1376150,R D NUNO ÁLVARES PEREIRA,,7150-308,ORADA,-7.465464903559823,38.87556039783903
pt.ine.add.PTCONT.1376151,MTE NAVES,,7150-308,ORADA,-7.455892858712654,38.83991531460007
pt.ine.add.PTCONT.1376165,R COMBATENTES DO ULTRAMAR,33,7150-308,ORADA,-7.4668966721304075,38.87262273757534
pt.ine.add.PTCONT.1376166,MTE FORTE,,7150-308,ORADA,-7.467946221068004,38.83186847742132
pt.ine.add.PTCONT.1376167,MTE RIBEIRO FUNDO,,7150-308,ORADA,-7.479994748384666,38.87318342822512
pt.ine.add.PTCONT.1376168,MTE RIBEIRO FUNDO,,7150-308,ORADA,-7.479994748384666,38.87318342822512
pt.ine.add.PTCONT.1376169,MTE RIBEIRO FUNDO,,7150-308,ORADA,-7.479994748384666,38.87318342822512
pt.ine.add.PTCONT.1376170,MTE CAO,,7150-308,ORADA,-7.46824951058356,38.83516708779528
pt.ine.add.PTCONT.1376171,MTE CAO,,7150-308,ORADA,-7.46824951058356,38.83516708779528
pt.ine.add.PTCONT.1376172,R NOVA DA TUJEIRA,16,7150-344,RIO DE MOINHOS BRB,-7.495601037505493,38.808007212352564
pt.ine.add.PTCONT.1376220,QTA DA BONINA,,7150-340,RIO DE MOINHOS BRB,-7.5072237432178195,38.80088208667241
pt.ine.add.PTCONT.1376221,R DO SOBREIRO,1,7150-391,RIO DE MOINHOS BRB,-7.5046555441788625,38.76954760037621
pt.ine.add.PTCONT.1376273,R BOAVISTA,6,7150-366,RIO DE MOINHOS BRB,-7.5013454796147965,38.77225962510973
pt.ine.add.PTCONT.1376274,R S TIAGO,39,7150-380,RIO DE MOINHOS BRB,-7.501333649271299,38.771763671532064
pt.ine.add.PTCONT.1376311,LG COMBATENTES DA GRANDE GUERRA,4,7150-152,BORBA,-7.458588271996262,38.80449386056583
pt.ine.add.PTCONT.1376312,R SILVEIRA MENEZES,15,7150-144,BORBA,-7.456690023794774,38.80679792131366
pt.ine.add.PTCONT.1376313,R ANTÓNIO JOAQUIM GUERRA,65,7150-119,BORBA,-7.458078852654752,38.80566386849526
pt.ine.add.PTCONT.1376314,R ANTÓNIO JOAQUIM GUERRA,85,7150-119,BORBA,-7.458820248037437,38.805531110215334
pt.ine.add.PTCONT.1376632,R ANTÓNIO SÉRGIO,23-29,7150-122,BORBA,-7.456760471338851,38.80787027097932
pt.ine.add.PTCONT.1376633,R MANUEL DA FONSECA,1,7150-250,BORBA,-7.45540107895707,38.8018901443242
pt.ine.add.PTCONT.1376637,QTA CRUZ DO MOSTEIRO,,7150-234,BORBA,-7.450169842572394,38.81205664227637
pt.ine.add.PTCONT.1376640,R SILVEIRA MENEZES,13,7150-144,BORBA,-7.456690023794774,38.80679792131366
pt.ine.add.PTCONT.1376657,R QUINTA DA PRATA,,7150-207,BORBA,-7.462953763535188,38.80300564991641
pt.ine.add.PTCONT.1376777,R D NUNO ÁLVARES PEREIRA,10,7150-308,ORADA,-7.466653443169188,38.87538703058225
pt.ine.add.PTCONT.1376794,R 25 DE ABRIL,37,7150-361,RIO DE MOINHOS BRB,-7.500571059914229,38.76821039909788
pt.ine.add.PTCONT.1376795,FUSERA MONTE DA FUSERA,,7150-337,RIO DE MOINHOS BRB,-7.483322597908742,38.755594662641805
pt.ine.add.PTCONT.1376822,R MESTRE DIOGO BORBA,4,7150-159,BORBA,-7.457846525425449,38.80502104334391
pt.ine.add.PTCONT.1376823,R MESTRE DIOGO BORBA,4A,7150-159,BORBA,-7.457846525425449,38.80502104334391
pt.ine.add.PTCONT.1376824,R MESTRE DIOGO DE BORBA,4-4A-6,7150-159,BORBA,-7.457846525425449,38.80502104334391
pt.ine.add.PTCONT.1377148,,,7150-100,BORBA,-7.456056796614792,38.81045146606991
pt.ine.add.PTCONT.1377149,ZN ZONA VAQUEIRA,,7150-117,BORBA,-7.461524683576311,38.826472045753384
pt.ine.add.PTCONT.1377242,R MONTES CLAROS,29,7150-138,BORBA,-7.456467341235971,38.802346720061415
pt.ine.add.PTCONT.1377243,R BENTO DE JESUS CARAÇA,,7150-252,BORBA,-7.454686753497847,38.79952592288183
pt.ine.add.PTCONT.1377282,BR TUJEIRA,8,7150-344,RIO DE MOINHOS BRB,-7.498311465391586,38.807166867753146
pt.ine.add.PTCONT.1377283,AV NAVE,27,7150-344,RIO DE MOINHOS BRB,-7.498825853864987,38.80675501543515
pt.ine.add.PTCONT.1377284,R PADRE JOÃO LAPÃO,11,7150-344,RIO DE MOINHOS BRB,-7.5020315579860455,38.80615983466698
pt.ine.add.PTCONT.1377285,R PADRE JOÃO LAPÃO,4,7150-344,RIO DE MOINHOS BRB,-7.502263676624141,38.80575251437235
pt.ine.add.PTCONT.1377286,R 1 DE MAIO,12,7150-321,RIO DE MOINHOS BRB,-7.481954630236724,38.78459275002475
pt.ine.add.PTCONT.1377287,R PORTELA,13,7150-370,RIO DE MOINHOS BRB,-7.5059913007556816,38.76981567659338
pt.ine.add.PTCONT.1377320,AZENHA DOS ATAFIOS,,7150-326,RIO DE MOINHOS BRB,-7.5143787707712795,38.78416538924405
pt.ine.add.PTCONT.1377321,MONTE DA TALISCA,,7150-321,RIO DE MOINHOS BRB,-7.488893233102744,38.779613769959774
pt.ine.add.PTCONT.1377408,LG PARREIRA,20,7150-379,RIO DE MOINHOS BRB,-7.5037821732129855,38.7681106300936
pt.ine.add.PTCONT.1377431,R ESTAÇÃO,22,7150-368,RIO DE MOINHOS BRB,-7.500744758288605,38.76808522716732
pt.ine.add.PTCONT.1377485,R SALGUEIRO MAIA,,7150-165,BORBA,-7.461478473580251,38.807808691634214
pt.ine.add.PTCONT.1377536,SIT APOIO TEMPORÁRIO,22,7150-244,BORBA,-7.454906337797546,38.79771216874965
pt.ine.add.PTCONT.1377537,BR TUJEIRA,1,7150-344,RIO DE MOINHOS BRB,-7.497732466655708,38.80672205089084
pt.ine.add.PTCONT.1377540,AV CERCA,14,7150-102,BORBA,-7.454602124063824,38.80854664867295
pt.ine.add.PTCONT.1377541,R D NUNO ÁLVARES PEREIRA,109,7150-308,ORADA,-7.4644173343294895,38.875446310242445
pt.ine.add.PTCONT.1377542,R D NUNO ÁLVARES PEREIRA,109,7150-308,ORADA,-7.4644173343294895,38.875446310242445
pt.ine.add.PTCONT.1377552,R ALDEIA,,7150-364,RIO DE MOINHOS BRB,-7.500311330327155,38.800205291651245
pt.ine.add.PTCONT.1377554,R MQ DE MARIALVA,21,7150-133,BORBA,-7.455869256184451,38.80411304835133
pt.ine.add.PTCONT.1377559,R RODRIGO CUNHA FERREIRA,16,7150-169,BORBA,-7.45570052641579,38.80552207243858
pt.ine.add.PTCONT.1377560,R DE S FRANCISCO,32,7150-141,BORBA,-7.4545110269696195,38.80397024993172
pt.ine.add.PTCONT.1377561,R DE S FRANCISCO,32,7150-141,BORBA,-7.4545110269696195,38.80397024993172
pt.ine.add.PTCONT.1377567,R ESTREMOZ,8,7150-363,RIO DE MOINHOS BRB,-7.503040681631598,38.77120209035906
pt.ine.add.PTCONT.1377568,R VISC GIÃO,80,7150-148,BORBA,-7.458257892895103,38.80457144771607
pt.ine.add.PTCONT.1377570,R BENJAMIM ANTÓNIO FERREIRA,18,7150-113,BORBA,-7.46441142739182,38.805932568079434
pt.ine.add.PTCONT.1377572,R FERRENHA,12,7150-369,RIO DE MOINHOS BRB,-7.503711793754359,38.76826338697808
pt.ine.add.PTCONT.1378199,MONTE DA TALISCA,,7150-321,RIO DE MOINHOS BRB,-7.489055553144716,38.77947954509827
pt.ine.add.PTCONT.1378200,MONTE DA TALISCA,,7150-321,RIO DE MOINHOS BRB,-7.489055553144716,38.77947954509827
pt.ine.add.PTCONT.1378215,R EÇA DE QUEIROZ,2,7150-250,BORBA,-7.456003571521014,38.801479272861016
pt.ine.add.PTCONT.1378271,,,7150-223,BORBA,-7.464522251701335,38.8014652723419
pt.ine.add.PTCONT.1378272,BR TUJEIRA,7,7150-111,BORBA,-7.494878269214789,38.80791355740178
pt.ine.add.PTCONT.1378273,ALCARAVICA,,7150-308,ORADA,-7.466887567542961,38.82974292757798
pt.ine.add.PTCONT.1378277,BR POPULAR 1 DE MAIO,17,7150-112,BORBA,-7.451851572322002,38.803723227199676
pt.ine.add.PTCONT.1378278,QTA MARIA BRANCA SANCHA DA ARENGA,,7150-209,BORBA,-7.4534035912007965,38.79524870750294
pt.ine.add.PTCONT.1378281,,,7150-253,BORBA,-7.4603763925708595,38.81021518845035
pt.ine.add.PTCONT.1378282,R MARQUES RATAO,9,7150-344,RIO DE MOINHOS BRB,-7.501424556420697,38.80680246120565
pt.ine.add.PTCONT.1378283,,,7150-390,RIO DE MOINHOS BRB,-7.522497054754092,38.78360439769325
pt.ine.add.PTCONT.1378285,R ANTÓNIO SERAFIM DOS SANTOS,5,7150-308,ORADA,-7.4666661437678545,38.875260993655374
pt.ine.add.PTCONT.1378286,R COMBATENTES DO ULTRAMAR,2,7150-344,RIO DE MOINHOS BRB,-7.500981439188907,38.806442411914084
pt.ine.add.PTCONT.1378287,MTE RIBEIRA,,7150-326,RIO DE MOINHOS BRB,-7.512353916418207,38.78673993809259
pt.ine.add.PTCONT.1378288,R ANTÓNIO SÉRGIO,26,7150-122,BORBA,-7.457394905400052,38.80909968462524
pt.ine.add.PTCONT.1378292,R AZINHAL ABELHO,16,7150-308,ORADA,-7.465496457510185,38.874085295377796
pt.ine.add.PTCONT.1378296,MTE HORTA DO CEGO,3,7150-308,ORADA,-7.470059991753936,38.87145156155933
pt.ine.add.PTCONT.1378297,MTE HORTA DO CEGO,3,7150-308,ORADA,-7.470059991753936,38.87145156155933
pt.ine.add.PTCONT.1378298,MTE TALISCA,,7150-326,RIO DE MOINHOS BRB,-7.488231871395795,38.78021365621289
pt.ine.add.PTCONT.1378302,R ANTÓNIO SÉRGIO,39-41,7150-122,BORBA,-7.457030212683683,38.808255367483525
pt.ine.add.PTCONT.1378303,MTE DE S LOURENÇO,,7150-340,RIO DE MOINHOS BRB,-7.499039792471439,38.80080193057204
pt.ine.add.PTCONT.1378304,MTE CARRASCAL,,7150-344,RIO DE MOINHOS BRB,-7.49894269281343,38.80068873138283
pt.ine.add.PTCONT.1378306,R ANTÓNIO SÉRGIO,39-41,7150-122,BORBA,-7.457030212683683,38.808255367483525
pt.ine.add.PTCONT.1378309,R DE S SEBASTIÃO,17,7150-143,BORBA,-7.4546049859701675,38.80517811963542
pt.ine.add.PTCONT.1378310,R BOAVISTA,33,7150-366,RIO DE MOINHOS BRB,-7.502246056406899,38.772687414798156
pt.ine.add.PTCONT.1378315,LOTEAM HORTA DO ROSSIO,22,7150-150,BORBA,-7.449049012929739,38.80533347266693
pt.ine.add.PTCONT.1378840,AV POVO,22,7150-123,BORBA,-7.456293064150752,38.80593527645796
pt.ine.add.PTCONT.1378854,BR POPULAR 1 DE MAIO,17,7150-112,BORBA,-7.451851572322002,38.803723227199676
pt.ine.add.PTCONT.1378859,R STA MARIA,21,7150-174,BORBA,-7.455428954125048,38.8053526125632
pt.ine.add.PTCONT.1378867,LOTEAM DO FORNO,,7150-260,ORADA,-7.467942850947472,38.871809270526974
pt.ine.add.PTCONT.1378869,LG IGREJA,21,7150-363,RIO DE MOINHOS BRB,-7.503247568182697,38.77133261067915
pt.ine.add.PTCONT.1379014,BR POPULAR 1 DE MAIO,63,7150-112,BORBA,-7.452392310060363,38.80475518836139
pt.ine.add.PTCONT.1379015,BR POPULAR 1 DE MAIO,64,7150-112,BORBA,-7.452392310060363,38.80475518836139
pt.ine.add.PTCONT.1379016,BR POPULAR 1 DE MAIO,63,7150-112,BORBA,-7.452392310060363,38.80475518836139
pt.ine.add.PTCONT.1379017,R 13 DE JANEIRO,31,7150-145,BORBA,-7.457512974746157,38.80620816028
pt.ine.add.PTCONT.1379018,R 13 DE JANEIRO,31 B,7150-145,BORBA,-7.457512974746157,38.80620816028
pt.ine.add.PTCONT.1379019,R 13 DE JANEIRO,31,7150-145,BORBA,-7.457512974746157,38.80620816028
pt.ine.add.PTCONT.1379022,R 13 DE JANEIRO,21-23,7150-145,BORBA,-7.457256805185418,38.80626444202478
pt.ine.add.PTCONT.1379023,SIT APOIO TEMPORÁRIO,17,7150-244,BORBA,-7.454599200305222,38.79747133955442
pt.ine.add.PTCONT.1379024,R PADRE BENTO PEREIRA,48,7150-139,BORBA,-7.457910544063995,38.804336811456835
pt.ine.add.PTCONT.1379027,R PADRE BENTO PEREIRA,73,7150-139,BORBA,-7.458056358608597,38.80408952453548
pt.ine.add.PTCONT.1379028,BR TUJEIRA,,7150-344,RIO DE MOINHOS BRB,-7.49827392430853,38.80797709647915
pt.ine.add.PTCONT.1379030,AV CERCA,2,7150-102,BORBA,-7.454039488758234,38.80833248220174
pt.ine.add.PTCONT.1379031,R ANTÓNIO JOAQUIM GUERRA,42,7150-118,BORBA,-7.457544422554037,38.80561977832201
pt.ine.add.PTCONT.1379032,R ANTÓNIO JOAQUIM GUERRA,54-56,7150-118,BORBA,-7.457851490065221,38.805714681728574
pt.ine.add.PTCONT.1379033,R ANTÓNIO JOAQUIM GUERRA,54-56,7150-118,BORBA,-7.457851490065221,38.805714681728574
pt.ine.add.PTCONT.1379036,R 5 DE OUTUBRO,4,7150-100,BORBA,-7.453221633658341,38.80976431648742
pt.ine.add.PTCONT.1379037,BR PIAO,2,7150-344,RIO DE MOINHOS BRB,-7.495824671583033,38.805063209101824
pt.ine.add.PTCONT.1379038,R NOSSA SENHORA,12-14,7150-160,BORBA,-7.458039743146718,38.807724534845185
pt.ine.add.PTCONT.1379039,R NOSSA SENHORA,12-14,7150-160,BORBA,-7.458039743146718,38.807724534845185
pt.ine.add.PTCONT.1379045,R PEDREIRA,2,7150-099,BORBA,-7.458147145515311,38.80366258446248
pt.ine.add.PTCONT.1379050,R MOS,16,7150-122,BORBA,-7.456422144282723,38.80894129043377
pt.ine.add.PTCONT.1379051,CERCA DA SERRA,,7150-321,RIO DE MOINHOS BRB,-7.484183310683282,38.7863076515135
pt.ine.add.PTCONT.1379053,AV POVO,40,7150-103,BORBA,-7.456398948247369,38.80565026313312
pt.ine.add.PTCONT.1379054,R BOAVISTA,38,7150-366,RIO DE MOINHOS BRB,-7.501717715074807,38.77257646579697
pt.ine.add.PTCONT.1379059,BR STA CRUZ,3,7150-308,ORADA,-7.467071215965284,38.87196960153029
pt.ine.add.PTCONT.1379060,R BOM SUCESSO,7,7150-380,RIO DE MOINHOS BRB,-7.499624397362241,38.77116890011572
pt.ine.add.PTCONT.1379062,R DO SOBREIRO,4,7150-391,RIO DE MOINHOS BRB,-7.5043666316665885,38.76969017431589
pt.ine.add.PTCONT.1379063,R ANTÓNIO JOAQUIM GUERRA,78,7150-118,BORBA,-7.458761671220523,38.805638867168845
pt.ine.add.PTCONT.1379067,R DR JOAQUIM LUIS PEREIRA TRINDADE,12,7150-114,BORBA,-7.463305886881474,38.80597127521548
pt.ine.add.PTCONT.1379068,R ANTÓNIO JOAQUIM DA GUERRA,4,7150-121,BORBA,-7.45662690913598,38.80529218261604
pt.ine.add.PTCONT.1379069,R 1 DE MAIO,75,7150-379,RIO DE MOINHOS BRB,-7.503145796925775,38.76851256134002
pt.ine.add.PTCONT.1379072,R FERRENHA,,7150-369,RIO DE MOINHOS BRB,-7.505817256703765,38.76828371450011
pt.ine.add.PTCONT.1379635,MTE FONTE DAS MOCAS,,7150-308,ORADA,-7.4676582332919965,38.83558709116623
pt.ine.add.PTCONT.1379639,R SILVEIRA MENEZES,78,7150-144,BORBA,-7.457397244091596,38.80806204872766
pt.ine.add.PTCONT.1379682,R ESTAÇÃO,70,7150-368,RIO DE MOINHOS BRB,-7.503688286889336,38.76516042680809
pt.ine.add.PTCONT.1379733,R PONTE,7,7150-308,ORADA,-7.467027887578773,38.87354256458257
pt.ine.add.PTCONT.1379735,MTE DO BORRAZEIRO,,7150-308,ORADA,-7.469668255923898,38.83545992283423
pt.ine.add.PTCONT.1379736,MTE DO BORRAZEIRO,,7150-308,ORADA,-7.469668255923898,38.83545992283423
pt.ine.add.PTCONT.1379744,R 1 DE MAIO,2,7150-379,RIO DE MOINHOS BRB,-7.5029913258579,38.770376382649744
pt.ine.add.PTCONT.1379806,R ALDEIA NOVA,13,7150-365,RIO DE MOINHOS BRB,-7.501585703529387,38.76797267030906
pt.ine.add.PTCONT.1379807,R VISC GIÃO,14,7150-146,BORBA,-7.456444532138034,38.80612976722183
pt.ine.add.PTCONT.1379808,R NUNES DA SILVA,36,7150-161,BORBA,-7.457180327481544,38.806080125520566
pt.ine.add.PTCONT.1379810,R NUNES DA SILVA,19,7150-161,BORBA,-7.457311406461089,38.805997380363166
pt.ine.add.PTCONT.1379812,R PADRE BENTO PEREIRA,62,7150-139,BORBA,-7.458212006942431,38.804108851194925
pt.ine.add.PTCONT.1379815,R VITÓRIA,15,7150-344,RIO DE MOINHOS BRB,-7.498122594140551,38.80427401382516
pt.ine.add.PTCONT.1379818,AV 10 DE JUNHO,9,7150-100,BORBA,-7.4532777970905135,38.8100719634365
pt.ine.add.PTCONT.1379819,AV D DINIS DE MELO E CASTRO,27 A,7150-105,BORBA,-7.452477942929168,38.807854409812236
pt.ine.add.PTCONT.1379820,R AZINHAL ABELHO,11,7150-308,ORADA,-7.465695801312198,38.874282607946746
pt.ine.add.PTCONT.1379821,AV NAVE,45,7150-344,RIO DE MOINHOS BRB,-7.501789208774961,38.80559980020073
pt.ine.add.PTCONT.1379822,CONVENTO DA LUZ,,7150-322,RIO DE MOINHOS BRB,-7.478345250014447,38.770267927795466
pt.ine.add.PTCONT.1379823,R ANTÓNIO JOAQUIM GUERRA,60,7150-118,BORBA,-7.458044389543391,38.8057491536209
pt.ine.add.PTCONT.1379826,R PEDREIRA,11,7150-099,BORBA,-7.458707020539004,38.80349437410344
pt.ine.add.PTCONT.1379827,R PEDREIRA,9,7150-099,BORBA,-7.458654915469475,38.80353039778784
pt.ine.add.PTCONT.1379828,R NOSSA SENHORA,16,7150-160,BORBA,-7.458992276869248,38.80746351283886
pt.ine.add.PTCONT.1379829,R MESTRE DIOGO BORBA,34,7150-159,BORBA,-7.4581759396478935,38.80549135843658
pt.ine.add.PTCONT.1379831,R SILVEIRA MENEZES,62,7150-144,BORBA,-7.457107912231952,38.80773256987305
pt.ine.add.PTCONT.1379834,R ALMAS,3,7150-104,BORBA,-7.455499386368356,38.806156362364284
pt.ine.add.PTCONT.1379835,R ALMAS,3,7150-104,BORBA,-7.455499386368356,38.806156362364284
pt.ine.add.PTCONT.1379836,R ALMAS,3,7150-104,BORBA,-7.455499386368356,38.806156362364284
pt.ine.add.PTCONT.1379838,R ANTÓNIO SÉRGIO,21,7150-122,BORBA,-7.45668397417628,38.80774080867958
pt.ine.add.PTCONT.1379839,QTA NOVA DA RUIVINHA,,7150-340,RIO DE MOINHOS BRB,-7.493368112092268,38.783673922025294
pt.ine.add.PTCONT.1379845,R TAPADA,,7150-370,RIO DE MOINHOS BRB,-7.504470642415754,38.77080085596453
pt.ine.add.PTCONT.1379850,R COMBATENTES DO ULTRAMAR,77,7150-363,RIO DE MOINHOS BRB,-7.499272489491911,38.770626512903675
pt.ine.add.PTCONT.1379852,MTE SALGADO,S N,7150-117,BORBA,-7.440772087877803,38.81711781647996
pt.ine.add.PTCONT.1379855,R DR JOAQUIM LUIS PEREIRA TRINDADE,8,7150-114,BORBA,-7.463169349742441,38.805799341944926
pt.ine.add.PTCONT.1379856,R BENJAMIM ANTÓNIO FERREIRA,10,7150-113,BORBA,-7.4640410324859925,38.80614663771679
pt.ine.add.PTCONT.1379857,MONTINHO DO BRAZAO NOVO,,7150-287,ORADA,-7.467638504956669,38.850809808210094
pt.ine.add.PTCONT.1379858,R EIRINHA,32,7150-367,RIO DE MOINHOS BRB,-7.504463841047664,38.76930348874417
pt.ine.add.PTCONT.1379860,HORTA DO REZIO,,7150-206,BORBA,-7.438198960337574,38.80583365580932
pt.ine.add.PTCONT.1379861,R MANUEL DA FONSECA,3,7150-250,BORBA,-7.455310015088931,38.80178152103548
pt.ine.add.PTCONT.1380370,PCT PADRE ANTÓNIO JOAQUIM ANSELMO,9,7150-100,BORBA,-7.4541304986240595,38.81022481377788
pt.ine.add.PTCONT.1380390,R VISC GIÃO,32 A,7150-146,BORBA,-7.456779740259107,38.80556211315773
pt.ine.add.PTCONT.1380391,R MESTRE DIOGO BORBA,34,7150-159,BORBA,-7.4581759396478935,38.80549135843658
pt.ine.add.PTCONT.1380396,R BENJAMIM ANTÓNIO FERREIRA,12,7150-113,BORBA,-7.464122035501121,38.8061020619456
pt.ine.add.PTCONT.1380556,MTE OUTEIRO DE CIMA,,7150-287,ORADA,-7.4667836838931825,38.839212278598275
pt.ine.add.PTCONT.1380559,R TELHEIRO QTA DA VINHA,,7150-376,RIO DE MOINHOS BRB,-7.498824770305867,38.76920982975928
pt.ine.add.PTCONT.1380561,R TOMAZ DEL NEGRO,14,7150-150,BORBA,-7.450876201145116,38.80438974473908
pt.ine.add.PTCONT.1380562,R TOMAZ DEL NEGRO,24,7150-150,BORBA,-7.450856478100573,38.80404361296264
pt.ine.add.PTCONT.1380563,QTA S BOAVENTURA,,7150-123,BORBA,-7.446060944220323,38.80592519049127
pt.ine.add.PTCONT.1380564,R S JOAO DE DEUS,53,7150-142,BORBA,-7.457698125862296,38.803946346123375
pt.ine.add.PTCONT.1380565,R S JOAO DEUS,55,7150-142,BORBA,-7.457698125862296,38.803946346123375
pt.ine.add.PTCONT.1380571,AV D DINIS DE MELO E CASTRO,13,7150-105,BORBA,-7.453106095387426,38.807173466002034
pt.ine.add.PTCONT.1380572,AV D DINIS DE MELO E CASTRO,13,7150-105,BORBA,-7.453106095387426,38.807173466002034
pt.ine.add.PTCONT.1380573,R 1 DE MAIO,2,7150-140,BORBA,-7.456973755502417,38.80346624925516
pt.ine.add.PTCONT.1380574,MTE CALDEIRA,,7150-308,ORADA,-7.477381886624054,38.880393055296274
pt.ine.add.PTCONT.1380575,MTE CALDEIRA,,7150-308,ORADA,-7.477381886624054,38.880393055296274
pt.ine.add.PTCONT.1380576,MTE CALDEIRA,,7150-308,ORADA,-7.477381886624054,38.880393055296274
pt.ine.add.PTCONT.1380577,MTE ATAFIOS,,7150-326,RIO DE MOINHOS BRB,-7.514890968356833,38.783492502049874
pt.ine.add.PTCONT.1380578,R ANTÓNIO JOAQUIM GUERRA,62,7150-118,BORBA,-7.458119718693062,38.805755989851455
pt.ine.add.PTCONT.1380579,MTE FORTE,,7150-308,ORADA,-7.465380251782075,38.86474340102977
pt.ine.add.PTCONT.1380583,QTA NOVA,,7150-123,BORBA,-7.4663349002310015,38.80830363539095
pt.ine.add.PTCONT.1380584,R ALDEIA,,7150-364,RIO DE MOINHOS BRB,-7.501420086275503,38.801094069399745
pt.ine.add.PTCONT.1380586,R CELEIRO,10,7150-126,BORBA,-7.455126713970894,38.80776171505804
pt.ine.add.PTCONT.1380587,R 1 DE MAIO,29,7150-140,BORBA,-7.457570914087892,38.80356416400061
pt.ine.add.PTCONT.1380589,R 1 DE MAIO,22,7150-321,RIO DE MOINHOS BRB,-7.482018565214984,38.785196627795614
pt.ine.add.PTCONT.1380601,R DE S SEBASTIÃO,26,7150-143,BORBA,-7.4543442285621975,38.805005874442685
pt.ine.add.PTCONT.1380602,MTE POÇO BRAVO,,7150-321,RIO DE MOINHOS BRB,-7.4734806275563805,38.778726081950886
pt.ine.add.PTCONT.1380604,R BENJAMIM ANTÓNIO FERREIRA,8,7150-113,BORBA,-7.463879868834052,38.806145714721275
pt.ine.add.PTCONT.1380605,R MONTURO ALTO,33,7150-115,BORBA,-7.455438057091081,38.80234389506194
pt.ine.add.PTCONT.1380606,R FLORBELA ESPANCA,7A,7150-150,BORBA,-7.451244772308801,38.804370164640765
pt.ine.add.PTCONT.1380607,R FLORBELA ESPANCA,7A,7150-150,BORBA,-7.451244772308801,38.804370164640765
pt.ine.add.PTCONT.1380608,R FLORBELA ESPANCA,7,7150-150,BORBA,-7.451244772308801,38.804370164640765
pt.ine.add.PTCONT.1380609,R FLORBELA ESPANCA,7A,7150-150,BORBA,-7.451244772308801,38.804370164640765
pt.ine.add.PTCONT.1380610,MTE RIBEIRO FUNDO,,7150-308,ORADA,-7.48058980206603,38.87363714578986
pt.ine.add.PTCONT.1381120,R FERRENHA,,7150-369,RIO DE MOINHOS BRB,-7.505824283814045,38.7676755910276
pt.ine.add.PTCONT.1381133,R VISC GIAO,96,7150-148,BORBA,-7.458438963449657,38.804456966836234
pt.ine.add.PTCONT.1381139,R FLORES,13,7150-321,RIO DE MOINHOS BRB,-7.480905524639744,38.78277010475956
pt.ine.add.PTCONT.1381146,MTE RIBEIRO FUNDO,,7150-308,ORADA,-7.48058980206603,38.87363714578986
pt.ine.add.PTCONT.1381235,R NUNES DA SILVA,4,7150-161,BORBA,-7.456535759618714,38.80606738693521
pt.ine.add.PTCONT.1381173,AV ESTAÇÃO,7,7150-151,BORBA,-7.464181756003767,38.80710228285049
pt.ine.add.PTCONT.1381210,MTE OUTEIRO DE CIMA,,7150-287,ORADA,-7.4667836838931825,38.839212278598275
pt.ine.add.PTCONT.1381225,MTE FORTE,,7150-308,ORADA,-7.465623361416748,38.864778940326666
pt.ine.add.PTCONT.1381232,R ALDEIA NOVA,4,7150-365,RIO DE MOINHOS BRB,-7.501101751491546,38.768051126221735
pt.ine.add.PTCONT.1381233,R NOSSA SENHORA,8-10,7150-160,BORBA,-7.457901259894658,38.80775976629009
pt.ine.add.PTCONT.1381234,R NOSSA SENHORA,8-10,7150-160,BORBA,-7.457901259894658,38.80775976629009
pt.ine.add.PTCONT.1381236,R ANTONIO JOAQUIM GUERRA,53,7150-119,BORBA,-7.457761659822737,38.80561679235001
pt.ine.add.PTCONT.1381237,R ANTONIO JOAQUIM GUERRA,55,7150-119,BORBA,-7.457761659822737,38.80561679235001
pt.ine.add.PTCONT.1381272,R ANTONIO JOAQUIM GUERRA,53-55-55A,7150-119,BORBA,-7.457761659822737,38.80561679235001
pt.ine.add.PTCONT.1381626,R LUIS TRINDADE,12,7150-132,BORBA,-7.456003218214662,38.80858313282298
pt.ine.add.PTCONT.1381660,R FLORBELA ESPANCA,15,7150-150,BORBA,-7.4511674857916965,38.80370117928297
pt.ine.add.PTCONT.1381661,R FLORBELA ESPANCA,15,7150-150,BORBA,-7.4511674857916965,38.80370117928297
pt.ine.add.PTCONT.1381662,R FLORBELA ESPANCA,15,7150-150,BORBA,-7.4511674857916965,38.80370117928297
pt.ine.add.PTCONT.1381663,R FLORBELA ESPANCA,15,7150-150,BORBA,-7.4511674857916965,38.80370117928297
pt.ine.add.PTCONT.1381664,ESTR STA BARBARA,,7150-123,BORBA,-7.44583071200419,38.80592383643631
pt.ine.add.PTCONT.1381698,R CELEIRO,14,7150-126,BORBA,-7.454986948372177,38.80793205429896
pt.ine.add.PTCONT.1381699,R VISC GIAO,3,7150-147,BORBA,-7.458531700073937,38.804289190202574
pt.ine.add.PTCONT.1381700,LG COMBATENTES GRANDE GUERRA,5,7150-147,BORBA,-7.458531700073937,38.804289190202574
pt.ine.add.PTCONT.1381701,R MONTES CLAROS,84,7150-138,BORBA,-7.456623798561707,38.80162699218816
pt.ine.add.PTCONT.1381746,R POR DO SOL,25,7150-308,ORADA,-7.467654457941003,38.87184365882703
pt.ine.add.PTCONT.1381775,MTE FREIXO,,7150-308,ORADA,-7.464227869499048,38.846476025136546
pt.ine.add.PTCONT.1381776,MTE BOAVISTA,,7150-308,ORADA,-7.46567092820829,38.83626935955963
pt.ine.add.PTCONT.1381777,R NOVA DA TUJEIRA,30,7150-344,RIO DE MOINHOS BRB,-7.496640785347707,38.809085194624764
pt.ine.add.PTCONT.1381778,R MARQUES RATAO,7,7150-344,RIO DE MOINHOS BRB,-7.501482433964646,38.80676674237028
pt.ine.add.PTCONT.1381779,R VIVENDAS DO SOL,1 B,7150-321,RIO DE MOINHOS BRB,-7.481947791944271,38.7840792582182
pt.ine.add.PTCONT.1381805,R S TIAGO,22,7150-380,RIO DE MOINHOS BRB,-7.500817299545534,38.77159873537238
pt.ine.add.PTCONT.1381806,R MONTES CLAROS,14,7150-362,RIO DE MOINHOS BRB,-7.501314371229191,38.77134019194608
pt.ine.add.PTCONT.1381807,R BOM SUCESSO,18,7150-380,RIO DE MOINHOS BRB,-7.49924030843767,38.771312173150484
pt.ine.add.PTCONT.1381870,R MONTURO ALTO,11,7150-115,BORBA,-7.456141622324233,38.8027051502248
pt.ine.add.PTCONT.1381894,QTA SERRADO,,7150-209,BORBA,-7.448683899226613,38.78686179315611
pt.ine.add.PTCONT.1381898,AV D DINIS DE MELO E CASTRO,48,7150-105,BORBA,-7.454316971861374,38.80630858596703
pt.ine.add.PTCONT.1381930,R ESTAÇÃO,71,7150-368,RIO DE MOINHOS BRB,-7.502837675788694,38.76623740234634
pt.ine.add.PTCONT.1381985,MTE CANTINA,,7150-308,ORADA,-7.487609571698407,38.85811061521466
pt.ine.add.PTCONT.1382033,R ANTÓNIO SÉRGIO,10,7150-122,BORBA,-7.456951435309441,38.808470183622454
pt.ine.add.PTCONT.1382034,R ANGELICO VELEZ,19,7150-117,BORBA,-7.455679991669886,38.808544920366096
pt.ine.add.PTCONT.1382035,HORTA DO VICOSO,,7150-117,BORBA,-7.469271824259575,38.82189388793274
pt.ine.add.PTCONT.1382036,ESTR OTAR,,7150-150,BORBA,-7.423782601381287,38.82006957331744
pt.ine.add.PTCONT.1382052,R ESTRADA DE ESTREMOZ,5,7150-166,BORBA,-7.462861091418421,38.80726128149548
pt.ine.add.PTCONT.1382053,BR PIAO,41,7150-111,BORBA,-7.492533523378903,38.807486360999626
pt.ine.add.PTCONT.1382068,R S JOÃO DE DEUS,13,7150-142,BORBA,-7.456575981086123,38.80473130698152
pt.ine.add.PTCONT.1382069,AV LUIS DE CAMÕES,22,7150-107,BORBA,-7.452773867841182,38.80337019132901
pt.ine.add.PTCONT.1382081,MTE POÇO,,7150-209,BORBA,-7.454537876758849,38.78973343508784
pt.ine.add.PTCONT.1382082,R AZINHAL ABELHO,21,7150-308,ORADA,-7.4654016661507985,38.87492948926743
pt.ine.add.PTCONT.1382083,MTE MATINHO,,7150-308,ORADA,-7.479700674140752,38.87761363056169
pt.ine.add.PTCONT.1382093,MTE BOAVISTA ALEGRE,,7150-308,ORADA,-7.471433183054706,38.87317126390374
pt.ine.add.PTCONT.1382094,R PADRE JOÃO LAPÃO,1,7150-344,RIO DE MOINHOS BRB,-7.502621516765021,38.80583873402142
pt.ine.add.PTCONT.1382095,R PADRE JOÃO LAPÃO,16,7150-344,RIO DE MOINHOS BRB,-7.501490606330927,38.806179139602925
pt.ine.add.PTCONT.1382134,R TRABALHADORES,17,7150-377,RIO DE MOINHOS BRB,-7.506494004642993,38.76761980381722
pt.ine.add.PTCONT.1382135,R DE S GREGÓRIO,,7150-390,RIO DE MOINHOS BRB,-7.505766337781359,38.766881628820066
pt.ine.add.PTCONT.1382163,R FLORES,8,7150-321,RIO DE MOINHOS BRB,-7.480764941134539,38.78266863808474
pt.ine.add.PTCONT.1382164,,,7150-329,RIO DE MOINHOS BRB,-7.504416537927818,38.78497698310708
pt.ine.add.PTCONT.1382207,LG GAGO COUTINHO E SACADURA CABRAL,,7150-153,BORBA,-7.461143222860763,38.80702179165777
pt.ine.add.PTCONT.1382208,R S BARTOLOMEU,69,7150-162,BORBA,-7.461176537877418,38.806101705568196
pt.ine.add.PTCONT.1382209,R ANTÓNIO JOAQUIM GUERRA,30,7150-118,BORBA,-7.457220139019224,38.80552186496315
pt.ine.add.PTCONT.1382653,AV BOMBEIROS VOLUNTARIOS,54,7150-101,BORBA,-7.454520378836735,38.80369819753011
pt.ine.add.PTCONT.1382717,R PADRE BENTO PEREIRA,34,7150-139,BORBA,-7.457424428633468,38.80461324679108
pt.ine.add.PTCONT.1382718,R PADRE BENTO PEREIRA,34,7150-139,BORBA,-7.457424428633468,38.80461324679108
pt.ine.add.PTCONT.1382758,R 1 DE MAIO,41,7150-379,RIO DE MOINHOS BRB,-7.503069156700501,38.769376915376974
pt.ine.add.PTCONT.1382813,R TOMAZ DEL NEGRO,2,7150-150,BORBA,-7.451240994727429,38.8047664909271
pt.ine.add.PTCONT.1382814,R CASAS NOVAS,,7150-326,RIO DE MOINHOS BRB,-7.514016585575736,38.78462666095221
pt.ine.add.PTCONT.1382815,R PEDREIRA,,7150-099,BORBA,-7.459377834343869,38.803777782381005
pt.ine.add.PTCONT.1382816,R VISC GIÃO,54-54 A,7150-148,BORBA,-7.457188327762422,38.805233427569455
pt.ine.add.PTCONT.1382819,R VISC GIÃO,54-54 A,7150-148,BORBA,-7.457188327762422,38.805233427569455
pt.ine.add.PTCONT.1382820,R FLORES,5,7150-321,RIO DE MOINHOS BRB,-7.480916213865862,38.78263643311627
pt.ine.add.PTCONT.1382825,SIT VICOSO,,7150-117,BORBA,-7.47155441233167,38.82422008449129
pt.ine.add.PTCONT.1382826,R DR RAMOS D ABREU,74,7150-158,BORBA,-7.4585497101735765,38.80588026198974
pt.ine.add.PTCONT.1382827,R QUINTA DA PRATA,12,7150-154,BORBA,-7.462469138373748,38.806115369113186
pt.ine.add.PTCONT.1382828,R FERRENHA,6,7150-369,RIO DE MOINHOS BRB,-7.503593750503351,38.76868440993307
pt.ine.add.PTCONT.1382832,R TRABALHADORES,22,7150-377,RIO DE MOINHOS BRB,-7.506497763482289,38.76793748908906
pt.ine.add.PTCONT.1383366,AV CERCA,20,7150-102,BORBA,-7.454933726918567,38.8086884100352
pt.ine.add.PTCONT.1383383,QTA NOVA DO MOSTEIRO,,7150-224,BORBA,-7.446709152184252,38.81063553826691
pt.ine.add.PTCONT.1383400,BR STA CRUZ BAIRRO SANTA CRUZ,8,7150-308,ORADA,-7.467377923055344,38.87184208273136
pt.ine.add.PTCONT.1383467,R MONTES CLAROS,20,7150-138,BORBA,-7.4567709163965,38.8029705170193
pt.ine.add.PTCONT.1383468,R MONTES CLAROS,20,7150-138,BORBA,-7.4567709163965,38.8029705170193
pt.ine.add.PTCONT.1383485,R EÇA DE QUEIROZ,18,7150-250,BORBA,-7.455227332649746,38.80096218152554
pt.ine.add.PTCONT.1383543,R FERNANDO NAMORA,7,7150-150,BORBA,-7.450271817238358,38.80361515179502
pt.ine.add.PTCONT.1383554,BR PIAO,34,7150-111,BORBA,-7.492199032900729,38.80798677088625
pt.ine.add.PTCONT.1383576,AV LUIS DE CAMÕES,36,7150-106,BORBA,-7.4536951464748125,38.80376476169245
pt.ine.add.PTCONT.1383577,R D NUNO ÁLVARES PEREIRA,,7150-308,ORADA,-7.465822028698485,38.875571446852774
pt.ine.add.PTCONT.1383596,R 1 DE MAIO,2,7150-321,RIO DE MOINHOS BRB,-7.482396119843795,38.784135803281785
pt.ine.add.PTCONT.1383645,MTE DA LAGOA,,7150-329,RIO DE MOINHOS BRB,-7.501755402866291,38.785268906943145
pt.ine.add.PTCONT.1383646,R COMÉRCIO,3,7150-321,RIO DE MOINHOS BRB,-7.482039162097911,38.78289071645779
pt.ine.add.PTCONT.1383647,,,7150-361,RIO DE MOINHOS BRB,-7.498052488529025,38.78363641663006
pt.ine.add.PTCONT.1383686,R 5 DE OUTUBRO,20,7150-362,RIO DE MOINHOS BRB,-7.500444198235,38.77084905332697
pt.ine.add.PTCONT.1383729,R TRES,30,7150-163,BORBA,-7.458902951396371,38.80530638950986
pt.ine.add.PTCONT.1384032,LG IGREJA,,7150-308,ORADA,-7.467029153091596,38.874641525462884
pt.ine.add.PTCONT.1384105,R 13 DE JANEIRO,114,7150-145,BORBA,-7.4594504160631105,38.80585002237941
pt.ine.add.PTCONT.1384106,R SILVEIRA MENEZES,35,7150-144,BORBA,-7.456912373804147,38.80713107076772
pt.ine.add.PTCONT.1384120,AV ESTAÇÃO,19,7150-151,BORBA,-7.464726095093012,38.80675408922233
pt.ine.add.PTCONT.1384121,AV ESTAÇÃO,19,7150-151,BORBA,-7.464726095093012,38.80675408922233
pt.ine.add.PTCONT.1384127,AV ESTAÇÃO,19,7150-151,BORBA,-7.464726095093012,38.80675408922233
pt.ine.add.PTCONT.1384175,R EÇA DE QUEIROZ,30,7150-250,BORBA,-7.454838826461492,38.801118695178594
pt.ine.add.PTCONT.1384185,R ANTÓNIO JOAQUIM GUERRA,79-79 A,7150-119,BORBA,-7.458646374852607,38.80558029157008
pt.ine.add.PTCONT.1384186,R ANTÓNIO JOAQUIM GUERRA,79-79 A,7150-119,BORBA,-7.458646374852607,38.80558029157008
pt.ine.add.PTCONT.1384187,R ANTÓNIO JOAQUIM GUERRA,79-79 A,7150-119,BORBA,-7.458646374852607,38.80558029157008
pt.ine.add.PTCONT.1384206,TAPADA DO ANJINHO,,7150-321,RIO DE MOINHOS BRB,-7.4767275114772636,38.78231151711903
pt.ine.add.PTCONT.1384207,MTE PEIXE,,7150-321,RIO DE MOINHOS BRB,-7.4800255828819555,38.78032121924005
pt.ine.add.PTCONT.1384208,,,7150-326,RIO DE MOINHOS BRB,-7.492428046157984,38.77940800305697
pt.ine.add.PTCONT.1384209,R ALDEIA NOVA,34,7150-365,RIO DE MOINHOS BRB,-7.502479257736835,38.768418886790315
pt.ine.add.PTCONT.1384210,R POETA ANTÓNIO TALHINHAS,17,7150-378,RIO DE MOINHOS BRB,-7.500795020848074,38.76965317051192
pt.ine.add.PTCONT.1384247,R D ANTÓNIO MELO E CASTRO,13,7150-156,BORBA,-7.459356042168804,38.80680975011366
pt.ine.add.PTCONT.1384248,R 13 DE JANEIRO,37,7150-145,BORBA,-7.458230423132155,38.80604063096437
pt.ine.add.PTCONT.1384283,R TRES,22,7150-163,BORBA,-7.458661506243434,38.80527346832892
pt.ine.add.PTCONT.1384592,AV CERCA,11,7150-102,BORBA,-7.456905088422747,38.809200038225185
pt.ine.add.PTCONT.1384593,AV CERCA,9,7150-102,BORBA,-7.456353231847103,38.808981746676984
pt.ine.add.PTCONT.1384594,FREIZAS,,7150-123,BORBA,-7.444558177385445,38.81254616355202
pt.ine.add.PTCONT.1384627,R ROSSIO,25,7150-150,BORBA,-7.450994101361385,38.805305524774745
pt.ine.add.PTCONT.1384628,R ROSSIO,25A,7150-150,BORBA,-7.450994101361385,38.805305524774745
pt.ine.add.PTCONT.1384629,R QUINTA DA PRATA,22,7150-154,BORBA,-7.462855393339107,38.80589948847884
pt.ine.add.PTCONT.1384667,,,7150-248,BORBA,-7.464770422811184,38.809402670307044
pt.ine.add.PTCONT.1384668,,,7150-248,BORBA,-7.464770422811184,38.809402670307044
pt.ine.add.PTCONT.1384669,R S JOÃO DE DEUS,6,7150-142,BORBA,-7.4566398629914135,38.80479787334486
pt.ine.add.PTCONT.1384711,R PADRE BENTO PEREIRA,65 A,7150-139,BORBA,-7.457773512862882,38.804218916547654
pt.ine.add.PTCONT.1384712,R MONTES CLAROS,82,7150-138,BORBA,-7.456646309462153,38.801681170056256
pt.ine.add.PTCONT.1384771,MTE NAVE CIMA,,7150-308,ORADA,-7.462850838284552,38.83732514908387
pt.ine.add.PTCONT.1384772,MTE DA GREDEIRA,,7150-328,RIO DE MOINHOS BRB,-7.50596075272161,38.78868755429666
pt.ine.add.PTCONT.1384773,R 1 DE MAIO,36,7150-379,RIO DE MOINHOS BRB,-7.503227924653397,38.76956466444194
pt.ine.add.PTCONT.1384774,R TRABALHADORES,48,7150-377,RIO DE MOINHOS BRB,-7.506754731697111,38.76765818282021
pt.ine.add.PTCONT.1384775,R 1 DE MAIO,87,7150-379,RIO DE MOINHOS BRB,-7.503091967695056,38.76807122726786
pt.ine.add.PTCONT.1384816,ZN TAPADINHA,,7150-253,BORBA,-7.413300602709571,38.81464675463099
pt.ine.add.PTCONT.1384871,LOTEAM HORTA DO ROSSIO,,7150-150,BORBA,-7.450773751804225,38.80306126682196
pt.ine.add.PTCONT.1384954,R EÇA DE QUEIROZ,9,7150-250,BORBA,-7.455418391680011,38.801277705984056
pt.ine.add.PTCONT.1384955,R EÇA DE QUEIROZ,1,7150-250,BORBA,-7.455783755503303,38.80159510182652
pt.ine.add.PTCONT.1384963,R AZINHAL ABELHO,15 A,7150-308,ORADA,-7.465668459334606,38.87474185028243
pt.ine.add.PTCONT.1385012,BC RESTAURADORES,13,7150-381,RIO DE MOINHOS BRB,-7.503383432826762,38.76690341546692
pt.ine.add.PTCONT.1385015,R NOVA DA TUJEIRA,13,7150-344,RIO DE MOINHOS BRB,-7.497225318136441,38.80892118663904
pt.ine.add.PTCONT.1385016,R DR RAMOS D ABREU,73,7150-158,BORBA,-7.458179074342827,38.80586644822313
pt.ine.add.PTCONT.1385017,R DR RAMOS D ABREU,61,7150-158,BORBA,-7.457909466509614,38.80586510219663
pt.ine.add.PTCONT.1385018,R DR RAMOS D ABREU,63,7150-158,BORBA,-7.457909466509614,38.80586510219663
pt.ine.add.PTCONT.1385041,R JARDIM,1 C,7150-123,BORBA,-7.45122003885211,38.80575723934137
pt.ine.add.PTCONT.1385021,PCT PADRE ANTÓNIO JOAQUIM ANSELMO,7,7150-100,BORBA,-7.454072338405549,38.81028753113549
pt.ine.add.PTCONT.1385022,LG IGREJA,,7150-308,ORADA,-7.46608664619766,38.874383927003514
pt.ine.add.PTCONT.1385024,R 13 DE JANEIRO,10,7150-145,BORBA,-7.456275763127925,38.80650912642393
pt.ine.add.PTCONT.1385025,R CAL,8,7150-321,RIO DE MOINHOS BRB,-7.480261847877293,38.78470040880444
pt.ine.add.PTCONT.1385027,R ARY DOS SANTOS,5,7150-165,BORBA,-7.461876268916996,38.80803489190545
pt.ine.add.PTCONT.1385035,LG GAGO COUTINHO E SACADURA CABRAL,15,7150-153,BORBA,-7.461839426594786,38.806440278961865
pt.ine.add.PTCONT.1385038,R ESTRADA DE ESTREMOZ,1,7150-166,BORBA,-7.46259117995636,38.8073003477254
pt.ine.add.PTCONT.1385039,R JARDIM,1 A,7150-127,BORBA,-7.45122003885211,38.80575723934137
pt.ine.add.PTCONT.1385040,R JARDIM,1 B,7150-127,BORBA,-7.45122003885211,38.80575723934137
pt.ine.add.PTCONT.1385042,URB HORTA ROSSIO,28,7150-150,BORBA,-7.45122003885211,38.80575723934137
pt.ine.add.PTCONT.1385043,R CASAS NOVAS,B,7150-123,BORBA,-7.45122003885211,38.80575723934137
pt.ine.add.PTCONT.1385044,LG D FERNANDO RODRIGUES SEQUEIRA,58,7150-249,BORBA,-7.453817847009928,38.80496165906028
pt.ine.add.PTCONT.1385045,MTE RIBEIRA,,7150-150,BORBA,-7.4354862134267545,38.81957254999227
pt.ine.add.PTCONT.1385049,R 1 DE MAIO,68,7150-379,RIO DE MOINHOS BRB,-7.5035200232067565,38.769136129290594
pt.ine.add.PTCONT.1385050,QTA MOCHO,,7150-308,ORADA,-7.4656009780661226,38.85977946432217
pt.ine.add.PTCONT.1385051,R 1 MAIO,57,7150-379,RIO DE MOINHOS BRB,-7.503095207697598,38.76905739374223
pt.ine.add.PTCONT.1385052,R 1 DE MAIO,49,7150-379,RIO DE MOINHOS BRB,-7.503104862673603,38.76924198799495
pt.ine.add.PTCONT.1385607,R 1 DE MAIO,68,7150-379,RIO DE MOINHOS BRB,-7.5035200232067565,38.769136129290594
pt.ine.add.PTCONT.1385648,R ESTAÇÃO,14,7150-368,RIO DE MOINHOS BRB,-7.5015272119597025,38.769386608840556
pt.ine.add.PTCONT.1385696,R TOMAZ DEL NEGRO,30,7150-150,BORBA,-7.4508480197352265,38.80372342218429
pt.ine.add.PTCONT.1385697,R CASAS NOVAS,28,7150-123,BORBA,-7.45122003885211,38.80575723934137
pt.ine.add.PTCONT.1385727,R EÇA DE QUEIROZ,42,7150-250,BORBA,-7.454508690083572,38.80130845788972
pt.ine.add.PTCONT.1385738,R AZINHAL ABELHO,22,7150-308,ORADA,-7.465329390875685,38.874483292730325
pt.ine.add.PTCONT.1385824,ALDEIA LACERDA,18,7150-202,BORBA,-7.445325775235663,38.8165321761816
pt.ine.add.PTCONT.1385851,MTE DE S JORGE,,7150-110,BORBA,-7.465999444534347,38.8047706160515
pt.ine.add.PTCONT.1385852,BC DA TORRE,7 A,7150-167,BORBA,-7.455877597094676,38.805212918489374
pt.ine.add.PTCONT.1385853,R DE S FRANCISCO,29,7150-141,BORBA,-7.4541420491014945,38.804765369285874
pt.ine.add.PTCONT.1385854,R MATEUS PAIS,31,7150-136,BORBA,-7.456788389439231,38.80369976700795
pt.ine.add.PTCONT.1385855,R MATEUS PAIS,31,7150-136,BORBA,-7.456788389439231,38.80369976700795
pt.ine.add.PTCONT.1385871,R BENTO JESUS CARACA,6,7150-252,BORBA,-7.456306348927954,38.801111702185224
pt.ine.add.PTCONT.1385872,R BENTO DE JESUS CARACA,,7150-252,BORBA,-7.456306348927954,38.801111702185224
pt.ine.add.PTCONT.1385873,MTE COURELA MIEIRA,,7150-308,ORADA,-7.460839157265314,38.87484926626092
pt.ine.add.PTCONT.1385874,MTE COURELA MIEIRA,,7150-308,ORADA,-7.460839157265314,38.87484926626092
pt.ine.add.PTCONT.1385875,LG IGREJA,28,7150-308,ORADA,-7.4662196152882965,38.87495217880971
pt.ine.add.PTCONT.1385876,LG IGREJA,28,7150-308,ORADA,-7.4662196152882965,38.87495217880971
pt.ine.add.PTCONT.1385877,LG IGREJA,28,7150-308,ORADA,-7.4662196152882965,38.87495217880971
pt.ine.add.PTCONT.1385902,QTA DA PALHOTA,,7150-308,ORADA,-7.468162913937484,38.87416156452065
pt.ine.add.PTCONT.1385903,BR PIAO,6,7150-344,RIO DE MOINHOS BRB,-7.495354411159463,38.80615961097072
pt.ine.add.PTCONT.1385904,R RESTAURACAO,,7150-321,RIO DE MOINHOS BRB,-7.480858737791062,38.78613600714459
pt.ine.add.PTCONT.1385956,R COMÉRCIO,20,7150-321,RIO DE MOINHOS BRB,-7.480981903884327,38.78272267801516
pt.ine.add.PTCONT.1385957,QTA SETIL,,7150-350,RIO DE MOINHOS BRB,-7.510625449336231,38.77903793478579
pt.ine.add.PTCONT.1385958,R S TIAGO,17,7150-380,RIO DE MOINHOS BRB,-7.500201774245071,38.77093782062403
pt.ine.add.PTCONT.1385985,R NOSSA SENHORA,16-18,7150-160,BORBA,-7.458189823177539,38.80768036231053
pt.ine.add.PTCONT.1385986,R ANTÓNIO JOAQUIM GUERRA,35-35 A,7150-119,BORBA,-7.4573702148993775,38.805477693427804
pt.ine.add.PTCONT.1386023,R ANTÓNIO JOAQUIM GUERRA,35-35 A,7150-119,BORBA,-7.4573702148993775,38.805477693427804
pt.ine.add.PTCONT.1386024,R VISC GIÃO,62,7150-148,BORBA,-7.4575660839262135,38.80495769907814
pt.ine.add.PTCONT.1386366,R POR DO SOL,17,7150-308,ORADA,-7.467668231723951,38.87245321993388
pt.ine.add.PTCONT.1386392,R NOSSA SENHORA,16-18,7150-160,BORBA,-7.458189823177539,38.80768036231053
pt.ine.add.PTCONT.1386476,LG IGREJA,28,7150-308,ORADA,-7.4662196152882965,38.87495217880971
pt.ine.add.PTCONT.1386480,R ANTÓNIO SÉRGIO,57,7150-122,BORBA,-7.457610435705654,38.80898830679688
pt.ine.add.PTCONT.1386483,ALDEIA LACERDA,3,7150-202,BORBA,-7.444510932001246,38.8162571394522
pt.ine.add.PTCONT.1386484,MTE JUNTO A ESTRADA DA ALCARAVICA,,7150-117,BORBA,-7.463257896162351,38.82215820894256
pt.ine.add.PTCONT.1386524,R DR JOAQUIM LUIS PEREIRA TRINDADE,4,7150-114,BORBA,-7.4633546321816,38.80568330121907
pt.ine.add.PTCONT.1386525,BR PIAO,20,7150-111,BORBA,-7.493586788603702,38.80760850156515
pt.ine.add.PTCONT.1386570,R COMBATENTES DO ULTRAMAR,18,7150-124,BORBA,-7.456724531062669,38.804365983410854
pt.ine.add.PTCONT.1386571,R DE S FRANCISCO,11 A,7150-141,BORBA,-7.454858723448453,38.8036915937334
pt.ine.add.PTCONT.1386572,R DE S FRANCISCO,38,7150-141,BORBA,-7.454435621825208,38.80411922000736
pt.ine.add.PTCONT.1386573,AV BOMBEIROS VOLUNTARIOS,44,7150-101,BORBA,-7.4545827586861515,38.80361405470776
pt.ine.add.PTCONT.1386601,AV BOMBEIROS VOLUNTARIOS,48,7150-101,BORBA,-7.4545827586861515,38.80361405470776
pt.ine.add.PTCONT.1386602,AV BOMBEIROS VOLUNTARIOS,44,7150-101,BORBA,-7.4545827586861515,38.80361405470776
pt.ine.add.PTCONT.1386631,BR PEAO,21,7150-344,RIO DE MOINHOS BRB,-7.493961407534072,38.80616100708957
pt.ine.add.PTCONT.1386632,R TAPADA,24,7150-370,RIO DE MOINHOS BRB,-7.504552984106492,38.77074511151028
pt.ine.add.PTCONT.1386633,,,7150-326,RIO DE MOINHOS BRB,-7.514797736160565,38.7836271283933
pt.ine.add.PTCONT.1386634,R COMÉRCIO,8,7150-321,RIO DE MOINHOS BRB,-7.48136437256248,38.782427548961
pt.ine.add.PTCONT.1386649,R COMBATENTES ULTRAMAR,39,7150-363,RIO DE MOINHOS BRB,-7.50169206787701,38.77079761561145
pt.ine.add.PTCONT.1386650,R COMBATENTES DO ULTRAMAR,43 41,7150-363,RIO DE MOINHOS BRB,-7.50169206787701,38.77079761561145
pt.ine.add.PTCONT.1386651,R TELHEIRO,15,7150-376,RIO DE MOINHOS BRB,-7.4987223163285,38.767786011213566
pt.ine.add.PTCONT.1386676,R NUNES SILVA,26,7150-161,BORBA,-7.456939911902579,38.8060697499485
pt.ine.add.PTCONT.1386677,R DR RAMOS D ABREU,71,7150-158,BORBA,-7.4581290706010925,38.805862936330755
pt.ine.add.PTCONT.1386678,R DR RAMOS D ABREU,71,7150-158,BORBA,-7.4581290706010925,38.805862936330755
pt.ine.add.PTCONT.1387023,HORTA DO MEDICO,,7150-308,ORADA,-7.4654106481520195,38.838240596171666
pt.ine.add.PTCONT.1386937,ALDEIA LACERDA,3,7150-202,BORBA,-7.444510932001246,38.8162571394522
pt.ine.add.PTCONT.1387027,TAPADA DO ANJINHO,3,7150-321,RIO DE MOINHOS BRB,-7.477035913256528,38.78256547183477
pt.ine.add.PTCONT.1387053,AV D DINIS DE MELO E CASTRO,44,7150-105,BORBA,-7.454237138632534,38.806383901225026
pt.ine.add.PTCONT.1387065,R CARRASCAL,11,7150-150,BORBA,-7.450691147454021,38.8029162298222
pt.ine.add.PTCONT.1387122,SERRADO DA MORGADA,,7150-308,ORADA,-7.4666057007699935,38.8360675157375
pt.ine.add.PTCONT.1387086,R DR RAMOS D ABREU,66,7150-158,BORBA,-7.458381940647945,38.80594350711386
pt.ine.add.PTCONT.1387097,BR ESTAÇÃO,15,7150-110,BORBA,-7.4656197293457724,38.80539423495019
pt.ine.add.PTCONT.1387123,R ESTAÇÃO,10,7150-368,RIO DE MOINHOS BRB,-7.500198580632471,38.768694814102794
pt.ine.add.PTCONT.1387218,MTE SERRANO,,7150-308,ORADA,-7.467301269606075,38.83310789075777
pt.ine.add.PTCONT.1387220,R DE S GREGÓRIO,,7150-390,RIO DE MOINHOS BRB,-7.505862167510546,38.767096917189015
pt.ine.add.PTCONT.1387222,R DR RAMOS D ABREU,24,7150-158,BORBA,-7.457018540649206,38.80583602254148
pt.ine.add.PTCONT.1387225,R D NUNO ÁLVARES PEREIRA,3,7150-308,ORADA,-7.467055313907457,38.8755424562131
pt.ine.add.PTCONT.1387226,R D NUNO ÁLVARES PEREIRA,3,7150-308,ORADA,-7.467055313907457,38.8755424562131
pt.ine.add.PTCONT.1387227,R D NUNO ÁLVARES PEREIRA,3,7150-308,ORADA,-7.467055313907457,38.8755424562131
pt.ine.add.PTCONT.1387230,AV CERCA,22,7150-102,BORBA,-7.4550866777476505,38.808747207793736
pt.ine.add.PTCONT.1387233,AV D DINIS DE MELO E CASTRO,15,7150-105,BORBA,-7.453012544886634,38.807326056023925
pt.ine.add.PTCONT.1387234,R SILVEIRA MENEZES,63,7150-144,BORBA,-7.457703775741243,38.80817894133767
pt.ine.add.PTCONT.1387239,R SILVEIRA MENEZES,32,7150-144,BORBA,-7.456710988896396,38.807086725650365
pt.ine.add.PTCONT.1387241,R ARY DOS SANTOS,3,7150-165,BORBA,-7.461933997896747,38.80801720771235
pt.ine.add.PTCONT.1387242,R AZINHAL ABELHO,20,7150-308,ORADA,-7.4653522119923,38.87441626815818
pt.ine.add.PTCONT.1387243,R COMÉRCIO,21,7150-321,RIO DE MOINHOS BRB,-7.481078485927017,38.78274908690575
pt.ine.add.PTCONT.1387244,R COMÉRCIO,17,7150-321,RIO DE MOINHOS BRB,-7.48118445541544,38.782606406486444
pt.ine.add.PTCONT.1387246,R MQ MARIALVA,4,7150-133,BORBA,-7.455850564958799,38.80442998272635
pt.ine.add.PTCONT.1387252,R ANGELICO VELEZ,13,7150-117,BORBA,-7.4558200297181685,38.808334090423195
pt.ine.add.PTCONT.1387257,,,7150-340,RIO DE MOINHOS BRB,-7.514865675004826,38.78959346731007
pt.ine.add.PTCONT.1387258,R S BARTOLOMEU,55,7150-162,BORBA,-7.460957170539525,38.805993818876004
pt.ine.add.PTCONT.1387261,MTE FORTE,,7150-287,ORADA,-7.468392825580525,38.832141256008875
pt.ine.add.PTCONT.1387797,SIT APOIO TEMPORÁRIO,20,7150-244,BORBA,-7.454757557662988,38.79762122581962
pt.ine.add.PTCONT.1387823,R QUINTA DA PRATA,,7150-207,BORBA,-7.463171801214152,38.803078963669165
pt.ine.add.PTCONT.1387831,R MQ MARIALVA,8,7150-133,BORBA,-7.455850564958799,38.80442998272635
pt.ine.add.PTCONT.1387876,R PADRE BENTO PEREIRA,46,7150-139,BORBA,-7.457822397652391,38.80435035800305
pt.ine.add.PTCONT.1387877,R PADRE BENTO PEREIRA,46,7150-139,BORBA,-7.457822397652391,38.80435035800305
pt.ine.add.PTCONT.1387878,R ANTÓNIO SÉRGIO,1-7,7150-122,BORBA,-7.4563289336332055,38.80722344321529
pt.ine.add.PTCONT.1387879,R ANTÓNIO SÉRGIO,1-7,7150-122,BORBA,-7.4563289336332055,38.80722344321529
pt.ine.add.PTCONT.1387880,R ANTÓNIO SÉRGIO,1-7,7150-122,BORBA,-7.4563289336332055,38.80722344321529
pt.ine.add.PTCONT.1387881,R ANTÓNIO SÉRGIO,1-7,7150-122,BORBA,-7.4563289336332055,38.80722344321529
pt.ine.add.PTCONT.1387892,R ANTÓNIO SÉRGIO,1-7,7150-122,BORBA,-7.4563289336332055,38.80722344321529
pt.ine.add.PTCONT.1387963,MTE DO BURRAZEIRO,,7150-308,ORADA,-7.468231087179657,38.834671549692175
pt.ine.add.PTCONT.1387967,HORTA DO FIDALGO,,7150-209,BORBA,-7.45474686926102,38.79318468878713
pt.ine.add.PTCONT.1387971,R MTE FRANCO,,7150-373,RIO DE MOINHOS BRB,-7.504562728831335,38.76570068787093
pt.ine.add.PTCONT.1387972,R DR RAMOS D ABREU,37,7150-158,BORBA,-7.4574129405985286,38.80583401629307
pt.ine.add.PTCONT.1387976,R JOSE CARDOSO PIRES,2,7150-150,BORBA,-7.450564360686242,38.803870853739554
pt.ine.add.PTCONT.1387978,AV D DINIS DE MELO E CASTRO,25,7150-105,BORBA,-7.452731890967216,38.807783825594626
pt.ine.add.PTCONT.1387979,AV NAVE,50,7150-344,RIO DE MOINHOS BRB,-7.50224131845015,38.804566562880574
pt.ine.add.PTCONT.1387980,MONTE DA GREDEIRA,,7150-328,RIO DE MOINHOS BRB,-7.506710963934564,38.78713320045149
pt.ine.add.PTCONT.1387984,R SILVEIRA MENEZES,60,7150-144,BORBA,-7.457093744485249,38.80771470447636
pt.ine.add.PTCONT.1387985,R 13 JANEIRO,100,7150-145,BORBA,-7.459135483814205,38.80595615434672
pt.ine.add.PTCONT.1387986,R 13 JANEIRO,98,7150-145,BORBA,-7.459135483814205,38.80595615434672
pt.ine.add.PTCONT.1387991,R MOS,10,7150-122,BORBA,-7.456613540343662,38.80883818715315
pt.ine.add.PTCONT.1387995,R TAPADA,,7150-370,RIO DE MOINHOS BRB,-7.50440435371801,38.770636216185764
pt.ine.add.PTCONT.1387996,LG COMBATENTES DA GRANDE GUERRA,21,7150-152,BORBA,-7.4589839754601295,38.80444436225685
pt.ine.add.PTCONT.1388002,BR DA ESTAÇÃO,12,7150-110,BORBA,-7.465750729222265,38.80551685322366
pt.ine.add.PTCONT.1388004,R BOAVISTA,13,7150-366,RIO DE MOINHOS BRB,-7.501760012778231,38.7724054020567
pt.ine.add.PTCONT.1388006,CRISPIM,,7150-154,BORBA,-7.464584038705619,38.80470847860588
pt.ine.add.PTCONT.1388007,LG ARRABALDE,1,7150-379,RIO DE MOINHOS BRB,-7.502894918639793,38.770871302203645
pt.ine.add.PTCONT.1388538,LG DA IGREJA,,7150-363,RIO DE MOINHOS BRB,-7.5033515990162565,38.771279123367016
pt.ine.add.PTCONT.1388620,HORTA DAS FONTES,,7150-123,BORBA,-7.44774562393731,38.80912388510639
pt.ine.add.PTCONT.1388622,R MIGUEL TORGA,1,7150-250,BORBA,-7.455819739595926,38.801943607153575
pt.ine.add.PTCONT.1388623,R MIGUEL TORGA,1,7150-250,BORBA,-7.455819739595926,38.801943607153575
pt.ine.add.PTCONT.1388624,R MIGUEL TORGA,1,7150-250,BORBA,-7.455819739595926,38.801943607153575
pt.ine.add.PTCONT.1388625,R MIGUEL TORGA,1,7150-250,BORBA,-7.455819739595926,38.801943607153575
pt.ine.add.PTCONT.1388665,MTE AZENHA DO JARDIM,,7150-287,ORADA,-7.4750513282493865,38.85318530285676
pt.ine.add.PTCONT.1388669,MONTINHO DO BRAZAO,,7150-308,ORADA,-7.48852463002969,38.857677649664446
pt.ine.add.PTCONT.1388726,R MONTE FRANCO,22,7150-373,RIO DE MOINHOS BRB,-7.50406930394608,38.76686006469422
pt.ine.add.PTCONT.1388730,ALDEIA LACERDA,20,7150-202,BORBA,-7.445235055061339,38.816387515736466
pt.ine.add.PTCONT.1388731,MTE RIBEIRA,,7150-308,ORADA,-7.4678898876351925,38.87872697110971
pt.ine.add.PTCONT.1388734,MTE ESCORREGA,,7150-308,ORADA,-7.46032572861814,38.87430584063752
pt.ine.add.PTCONT.1388735,R ANTÓNIO JOAQUIM GUERRA,40,7150-118,BORBA,-7.457480618380642,38.80560844315225
pt.ine.add.PTCONT.1388736,R FERNANDO NAMORA,3,7150-150,BORBA,-7.450454756140498,38.80361865290776
pt.ine.add.PTCONT.1388737,AV NAVE,39,7150-344,RIO DE MOINHOS BRB,-7.50134371514588,38.80583183183819
pt.ine.add.PTCONT.1388738,MTE NAVES,,7150-308,ORADA,-7.456043776132281,38.83979007935442
pt.ine.add.PTCONT.1388739,MTE NAVES,,7150-308,ORADA,-7.456043776132281,38.83979007935442
pt.ine.add.PTCONT.1388740,MTE FURINHO,,7150-308,ORADA,-7.456089704361031,38.87252786699288
pt.ine.add.PTCONT.1388741,R CAL,12,7150-321,RIO DE MOINHOS BRB,-7.479952357097079,38.78456356000664
pt.ine.add.PTCONT.1388743,R DAS BUSCANHAS,4,7150-371,RIO DE MOINHOS BRB,-7.499645482119674,38.79740021302483
pt.ine.add.PTCONT.1388744,LG GAGO COUTINHO E SACADURA CABRAL,20,7150-153,BORBA,-7.4621109583222465,38.80712471718603
pt.ine.add.PTCONT.1388747,R DA PONTE,3-5,7150-308,ORADA,-7.466936379776953,38.873469980071555
pt.ine.add.PTCONT.1388749,R VISC GIÃO,9 A,7150-147,BORBA,-7.4563678765246,38.80598420662022
pt.ine.add.PTCONT.1388750,R POR DO SOL,7,7150-308,ORADA,-7.4676512454341,38.873130426467064
pt.ine.add.PTCONT.1388753,ZN ZONA DA VAQUEIRA,,7150-117,BORBA,-7.450527626672209,38.83005649974181
pt.ine.add.PTCONT.1388760,R QUINTA DA PRATA,24,7150-154,BORBA,-7.4629132891301575,38.80586378890744
pt.ine.add.PTCONT.1389252,MTE FURINHO,,7150-308,ORADA,-7.456089704361031,38.87252786699288
pt.ine.add.PTCONT.1389253,AV D DINIS DE MELO E CASTRO,2,7150-105,BORBA,-7.453508153656181,38.807265884433924
pt.ine.add.PTCONT.1389255,R ALDEIA NOVA,18,7150-365,RIO DE MOINHOS BRB,-7.5015611833649185,38.768143689662054
pt.ine.add.PTCONT.1389264,AV DA NAVE,21,7150-344,RIO DE MOINHOS BRB,-7.4981724717406895,38.80651226098413
pt.ine.add.PTCONT.1389265,R CHAFARIZ,7,7150-375,RIO DE MOINHOS BRB,-7.499835413521913,38.76812534343511
pt.ine.add.PTCONT.1389311,R ESTAÇÃO,,7150-368,RIO DE MOINHOS BRB,-7.503716640379116,38.765092598844426
pt.ine.add.PTCONT.1389312,R ESTAÇÃO,53,7150-368,RIO DE MOINHOS BRB,-7.501927938807332,38.76700165580916
pt.ine.add.PTCONT.1389313,BR ESTAÇÃO,26,7150-110,BORBA,-7.46514403765032,38.80494522077429
pt.ine.add.PTCONT.1389314,BR ESTAÇÃO,20,7150-110,BORBA,-7.465413224539757,38.805196929174365
pt.ine.add.PTCONT.1389350,R 1 DE MAIO,39,7150-140,BORBA,-7.457919784198455,38.80371857922969
pt.ine.add.PTCONT.1389351,R 1 DE MAIO,39,7150-140,BORBA,-7.457919784198455,38.80371857922969
pt.ine.add.PTCONT.1389352,R 1 DE MAIO,39,7150-140,BORBA,-7.457919784198455,38.80371857922969
pt.ine.add.PTCONT.1389353,AV LUIS DE CAMÕES,16,7150-107,BORBA,-7.452419200967621,38.80321452623927
pt.ine.add.PTCONT.1389354,AV LUIS DE CAMÕES,16,7150-107,BORBA,-7.452419200967621,38.80321452623927
pt.ine.add.PTCONT.1389381,AV LUIS DE CAMÕES,16,7150-107,BORBA,-7.452419200967621,38.80321452623927
pt.ine.add.PTCONT.1389389,R EÇA DE QUEIROZ,8,7150-250,BORBA,-7.45572978256639,38.801216456163225
pt.ine.add.PTCONT.1389396,R CHAFARIZ,22,7150-375,RIO DE MOINHOS BRB,-7.499275541690493,38.76768091688286
pt.ine.add.PTCONT.1389401,LG DAS SERVAS,20-22,7150-164,BORBA,-7.460575461712098,38.80705529707491
pt.ine.add.PTCONT.1389402,LG DAS SERVAS,20-22,7150-164,BORBA,-7.460575461712098,38.80705529707491
pt.ine.add.PTCONT.1389405,MTE RIBEIRA,,7150-308,ORADA,-7.4678898876351925,38.87872697110971
pt.ine.add.PTCONT.1389447,R 13 DE JANEIRO,36,7150-145,BORBA,-7.457373643316484,38.806333465377534
pt.ine.add.PTCONT.1389449,HORTA DO FIDALGO,,7150-209,BORBA,-7.453197782074331,38.795103383231854
pt.ine.add.PTCONT.1389450,R ALDEIA NOVA,,7150-365,RIO DE MOINHOS BRB,-7.501504166831683,38.76793500327218
pt.ine.add.PTCONT.1389453,ALDEIA LACERDA,23,7150-202,BORBA,-7.445018642698243,38.816143028142626
pt.ine.add.PTCONT.1389454,ALDEIA LACERDA,23,7150-202,BORBA,-7.445018642698243,38.816143028142626
pt.ine.add.PTCONT.1389455,AV NAVE,5,7150-344,RIO DE MOINHOS BRB,-7.497130346351341,38.80581798179124
pt.ine.add.PTCONT.1389456,QTA A GUARDA CAES ESTRADA NACIONAL,,7150-216,BORBA,-7.4634007224589185,38.80936780346891
pt.ine.add.PTCONT.1389457,,,7150-204,BORBA,-7.461687759441284,38.81646521171059
pt.ine.add.PTCONT.1389458,R CHAFARIZ,21,7150-375,RIO DE MOINHOS BRB,-7.499171034836518,38.76778844597324
pt.ine.add.PTCONT.1389459,R DR RAMOS D ABREU,47,7150-158,BORBA,-7.457638932735568,38.805843068917724
pt.ine.add.PTCONT.1389461,R S JOÃO DE DEUS,43 A,7150-142,BORBA,-7.457493974854186,38.80404195773681
pt.ine.add.PTCONT.1389462,R S JOÃO DE DEUS,43 A,7150-142,BORBA,-7.457493974854186,38.80404195773681
pt.ine.add.PTCONT.1389463,MONTINHO,,7150-337,RIO DE MOINHOS BRB,-7.484419876827806,38.76146496550773
pt.ine.add.PTCONT.1389470,R COMÉRCIO,27,7150-321,RIO DE MOINHOS BRB,-7.480928478470628,38.78285348534569
pt.ine.add.PTCONT.1389472,R DOS MONTES CLAROS,12,7150-321,RIO DE MOINHOS BRB,-7.4799880244835615,38.781915418939356
pt.ine.add.PTCONT.1389474,R MONTURO ALTO,,7150-115,BORBA,-7.456450548258327,38.802905113956704
pt.ine.add.PTCONT.1389475,R MQ DE MARIALVA,25,7150-133,BORBA,-7.455914044849869,38.8040612223578
pt.ine.add.PTCONT.1389478,R RODRIGO CUNHA FERREIRA,3,7150-169,BORBA,-7.4548428628871335,38.80612963507694
pt.ine.add.PTCONT.1389479,R S BARTOLOMEU,75,7150-162,BORBA,-7.4612643291049,38.80615114683046
pt.ine.add.PTCONT.1389480,R S BARTOLOMEU,77,7150-162,BORBA,-7.4612643291049,38.80615114683046
pt.ine.add.PTCONT.1389485,MTE BRANCO JUNTO ALBUFEIRA BORBA,,7150-117,BORBA,-7.420871297887517,38.83490583695342
pt.ine.add.PTCONT.1389486,AV 25 DE ABRIL,24,7150-109,BORBA,-7.454869985504423,38.80569741255325
pt.ine.add.PTCONT.1389487,ZN ALDEIA NOVA,,7150-117,BORBA,-7.442017929693892,38.81926006317737
pt.ine.add.PTCONT.1389488,R ESTREMOZ,5,7150-166,BORBA,-7.462826977838222,38.807216046210854
pt.ine.add.PTCONT.1389494,MTE DA BOAVISTA,,7150-308,ORADA,-7.470549694917425,38.8740039819268
pt.ine.add.PTCONT.1389495,MTE DA BOAVISTA,,7150-308,ORADA,-7.470549694917425,38.8740039819268
pt.ine.add.PTCONT.1389987,R RODRIGO CUNHA FERREIRA,3,7150-169,BORBA,-7.4548428628871335,38.80612963507694
pt.ine.add.PTCONT.1389999,R DR RAMOS D ABREU,49,7150-158,BORBA,-7.457638932735568,38.805843068917724
pt.ine.add.PTCONT.1390038,R DR RAMOS D ABREU,74-76,7150-158,BORBA,-7.45859838560012,38.80586312258907
pt.ine.add.PTCONT.1390039,R VISC GIÃO,66 A,7150-148,BORBA,-7.457847505273443,38.80480137649475
pt.ine.add.PTCONT.1390040,R SILVEIRA MENEZES,39-39 A,7150-144,BORBA,-7.456957569704599,38.80722141147725
pt.ine.add.PTCONT.1390049,R SILVEIRA MENEZES,39-39 A,7150-144,BORBA,-7.456957569704599,38.80722141147725
pt.ine.add.PTCONT.1390118,R EÇA DE QUEIROZ,32,7150-250,BORBA,-7.454788139896312,38.80114750463522
pt.ine.add.PTCONT.1390206,MTE JANELAS,,7150-308,ORADA,-7.469786262734988,38.829319572388854
pt.ine.add.PTCONT.1390207,MTE JANELAS,,7150-308,ORADA,-7.469786262734988,38.829319572388854
pt.ine.add.PTCONT.1390208,MTE BOAVISTA,,7150-308,ORADA,-7.4668669362741396,38.83498991832327
pt.ine.add.PTCONT.1390209,R COMBATENTES DO ULTRAMAR,16,7150-124,BORBA,-7.456631673401071,38.804446517099116
pt.ine.add.PTCONT.1390210,QTA S JOÃO,,7150-209,BORBA,-7.4532638464123036,38.79541904522952
pt.ine.add.PTCONT.1390216,ALDEIA LACERDA,2,7150-202,BORBA,-7.444489466788061,38.81609487080287
pt.ine.add.PTCONT.1390217,ALDEIA LACERDA,2,7150-202,BORBA,-7.444489466788061,38.81609487080287
pt.ine.add.PTCONT.1390220,EN 4,,7150-248,BORBA,-7.4750454286272285,38.81505490919602
pt.ine.add.PTCONT.1390221,ESTR STA BARBARA,,7150-123,BORBA,-7.440889707006592,38.806155897158106
pt.ine.add.PTCONT.1390222,,,7150-326,RIO DE MOINHOS BRB,-7.512556777944236,38.78723645373047
pt.ine.add.PTCONT.1390225,AV D DINIS DE MELO E CASTRO,,7150-105,BORBA,-7.452925024147885,38.80805518746459
pt.ine.add.PTCONT.1390227,MTE AZINHAL NOVO,,7150-308,ORADA,-7.483913781150765,38.9009132841955
pt.ine.add.PTCONT.1390228,HORTA DO CONVENTO DA LUZ,,7150-322,RIO DE MOINHOS BRB,-7.480620229587579,38.770631962277676
pt.ine.add.PTCONT.1390229,MTE BRANCO,,7150-308,ORADA,-7.456546739684464,38.87059080397923
pt.ine.add.PTCONT.1390230,R MESTRE DIOGO DE BORBA,2,7150-159,BORBA,-7.45778964820556,38.804948651267395
pt.ine.add.PTCONT.1390235,R SILVEIRA MENEZES,96,7150-144,BORBA,-7.457847998195406,38.808594762324844
pt.ine.add.PTCONT.1390236,R ALDEIA,27,7150-364,RIO DE MOINHOS BRB,-7.502959207688695,38.79886841003452
pt.ine.add.PTCONT.1390238,R ARY DOS SANTOS,17,7150-165,BORBA,-7.461538334193071,38.80815462440186
pt.ine.add.PTCONT.1390239,R 13 DE JANEIRO,120 118,7150-145,BORBA,-7.459532819081391,38.805811324725006
pt.ine.add.PTCONT.1390240,R 13 DE JANEIRO,120 118,7150-145,BORBA,-7.459532819081391,38.805811324725006
pt.ine.add.PTCONT.1390241,R 13 JANEIRO,118,7150-145,BORBA,-7.459532819081391,38.805811324725006
pt.ine.add.PTCONT.1390249,MTE DA BICHA,,7150-340,RIO DE MOINHOS BRB,-7.483055980925143,38.78894018973843
pt.ine.add.PTCONT.1390251,MTE DA PARREIRA,,7150-284,ORADA,-7.488043185969935,38.85857241121354
pt.ine.add.PTCONT.1390252,R PORTELA,9,7150-370,RIO DE MOINHOS BRB,-7.505817865378252,38.7708419873156
pt.ine.add.PTCONT.1390260,R MIGUEL TORGA,7,7150-250,BORBA,-7.455537845886554,38.80203506427004
pt.ine.add.PTCONT.1390261,R MIGUEL TORGA,9,7150-250,BORBA,-7.455537845886554,38.80203506427004
pt.ine.add.PTCONT.1390262,AV DO POVO,62,7150-103,BORBA,-7.456596650693757,38.805279143214385
pt.ine.add.PTCONT.1390263,R TERREIROS,2 A,7150-157,BORBA,-7.459286904787341,38.8048762242984
pt.ine.add.PTCONT.1390265,LOTEAM HORTA DO ROSSIO,19,7150-150,BORBA,-7.4493250312032355,38.80536211208063
pt.ine.add.PTCONT.1390266,R DR JOAQUIM LUIS PEREIRA TRINDADE,1,7150-114,BORBA,-7.463655451447246,38.805522882637845
pt.ine.add.PTCONT.1390267,R PADRE BENTO PEREIRA,41,7150-139,BORBA,-7.457261243097552,38.80461505760517
pt.ine.add.PTCONT.1390822,R SILVEIRA MENEZES,45-47,7150-144,BORBA,-7.4570644642380906,38.80737659504212
pt.ine.add.PTCONT.1390864,R DE S FRANCISCO,21,7150-141,BORBA,-7.454621023491582,38.80402950235133
pt.ine.add.PTCONT.1390833,AV ESTAÇÃO,25,7150-151,BORBA,-7.465027084121539,38.806575652275754
pt.ine.add.PTCONT.1390859,EN 4 PÔR DO SOL,,7150-248,BORBA,-7.467064491154833,38.80904539471743
pt.ine.add.PTCONT.1390860,R DE S FRANCISCO,21,7150-141,BORBA,-7.454621023491582,38.80402950235133
pt.ine.add.PTCONT.1390861,R DE S FRANCISCO,21,7150-141,BORBA,-7.454621023491582,38.80402950235133
pt.ine.add.PTCONT.1390862,R DE S FRANCISCO,21,7150-141,BORBA,-7.454621023491582,38.80402950235133
pt.ine.add.PTCONT.1390863,R DE S FRANCISCO,21,7150-141,BORBA,-7.454621023491582,38.80402950235133
pt.ine.add.PTCONT.1390892,EN 4 PÔR DO SOL,,7150-248,BORBA,-7.467064491154833,38.80904539471743
pt.ine.add.PTCONT.1390893,LG GAGO COUTINHO E SACADURA CABRAL,8-12,7150-153,BORBA,-7.461789747932714,38.80731461186684
pt.ine.add.PTCONT.1390894,LG GAGO COUTINHO E SACADURA CABRAL,8-12,7150-153,BORBA,-7.461789747932714,38.80731461186684
pt.ine.add.PTCONT.1390895,LG GAGO COUTINHO E SACADURA CABRAL,8-12,7150-153,BORBA,-7.461789747932714,38.80731461186684
pt.ine.add.PTCONT.1391007,AV D DINIS DE MELO E CASTRO,2,7150-105,BORBA,-7.45242366641549,38.808718853114094
pt.ine.add.PTCONT.1391008,R ANGELICO VELEZ,15,7150-117,BORBA,-7.4557857253784166,38.80839197097906
pt.ine.add.PTCONT.1391009,R CELEIRO,17,7150-126,BORBA,-7.455129020711263,38.808373681004305
pt.ine.add.PTCONT.1391010,R ANGELICO VELEZ,18,7150-117,BORBA,-7.455129020711263,38.808373681004305
pt.ine.add.PTCONT.1391011,R CELEIRO,13,7150-126,BORBA,-7.455199031916579,38.80827500020403
pt.ine.add.PTCONT.1391012,,,7150-117,BORBA,-7.45816554899418,38.82001204441863
pt.ine.add.PTCONT.1391013,ESTR STA BARBARA,,7150-123,BORBA,-7.4412404574065585,38.805599484214845
pt.ine.add.PTCONT.1391039,R QUINTA DA PRATA,32 A,7150-154,BORBA,-7.465416478886688,38.80432589792535
pt.ine.add.PTCONT.1391066,R DE S FRANCISCO,28,7150-141,BORBA,-7.454646724520559,38.80376700319313
pt.ine.add.PTCONT.1391067,R DE S FRANCISCO,28,7150-141,BORBA,-7.454646724520559,38.80376700319313
pt.ine.add.PTCONT.1391094,R D NUNO ÁLVARES PEREIRA,5,7150-308,ORADA,-7.466317933631079,38.87552924038486
pt.ine.add.PTCONT.1391095,MTE BOAVISTA,,7150-308,ORADA,-7.460798457164476,38.83599629845051
pt.ine.add.PTCONT.1391139,R MARQUES RATAO,11,7150-344,RIO DE MOINHOS BRB,-7.50136923260255,38.806824846765714
pt.ine.add.PTCONT.1391140,AV NAVE,12,7150-344,RIO DE MOINHOS BRB,-7.497946478380015,38.805957540255186
pt.ine.add.PTCONT.1391141,R DO SOBREIRO,9,7150-391,RIO DE MOINHOS BRB,-7.504775234671586,38.77033193908553
pt.ine.add.PTCONT.1391142,MTE GIL,,7150-326,RIO DE MOINHOS BRB,-7.512780240073371,38.78801232528785
pt.ine.add.PTCONT.1391182,MONTE DA GREDEIRA,,7150-328,RIO DE MOINHOS BRB,-7.507438862275112,38.78812797607595
pt.ine.add.PTCONT.1391183,R S TIAGO,30,7150-380,RIO DE MOINHOS BRB,-7.501034327882311,38.771780069059346
pt.ine.add.PTCONT.1391184,R 5 DE OUTUBRO,9,7150-362,RIO DE MOINHOS BRB,-7.500592425243953,38.77100299142065
pt.ine.add.PTCONT.1391185,R BAIRRO NOVO,24,7150-374,RIO DE MOINHOS BRB,-7.499634763883738,38.767394608720394
pt.ine.add.PTCONT.1391216,CONVENTO DA LUZ,,7150-322,RIO DE MOINHOS BRB,-7.48209506862919,38.76947007266931
pt.ine.add.PTCONT.1391217,MTE NOVO,,7150-390,RIO DE MOINHOS BRB,-7.5057820930242265,38.76047359039373
pt.ine.add.PTCONT.1391218,R NUNES DA SILVA,35,7150-161,BORBA,-7.457998080674624,38.80603981385887
pt.ine.add.PTCONT.1391490,R CELEIRO,15,7150-126,BORBA,-7.455199031916579,38.80827500020403
pt.ine.add.PTCONT.1391499,LOTEAM PROJETADA,,7150-247,BORBA,-7.465194258712949,38.801000703452324
pt.ine.add.PTCONT.1391518,R DR RAMOS D ABREU,18,7150-158,BORBA,-7.45687223739055,38.80579008944334
pt.ine.add.PTCONT.1391551,BR POPULAR 1 DE MAIO,19,7150-112,BORBA,-7.451748463377048,38.80367091330955
pt.ine.add.PTCONT.1391552,BR POPULAR 1 DE MAIO,19,7150-112,BORBA,-7.451748463377048,38.80367091330955
pt.ine.add.PTCONT.1391590,R 25 DE ABRIL,9,7150-361,RIO DE MOINHOS BRB,-7.501280410560857,38.768329763547555
pt.ine.add.PTCONT.1391764,ALDEIA LACERDA,10,7150-202,BORBA,-7.444587535378997,38.816671954133554
pt.ine.add.PTCONT.1391765,ALDEIA LACERDA,10,7150-202,BORBA,-7.444587535378997,38.816671954133554
pt.ine.add.PTCONT.1391766,PCT PADRE ANTÓNIO JOAQUIM ANSELMO,3,7150-100,BORBA,-7.45396024327938,38.81040189528076
pt.ine.add.PTCONT.1391767,HORTA NOVA DO MOSTEIRO,,7150-224,BORBA,-7.446220894846009,38.81280249260844
pt.ine.add.PTCONT.1391821,R SALGUEIRO MAIA,25,7150-165,BORBA,-7.461076905134596,38.80795372955187
pt.ine.add.PTCONT.1391822,R NOVA DA TUJEIRA,45,7150-111,BORBA,-7.495791162318576,38.81011647478573
pt.ine.add.PTCONT.1391823,R NOVA DA TUJEIRA,45,7150-111,BORBA,-7.495791162318576,38.81011647478573
