id,street,house,postcode,city,lon,lat
pt.ine.add.PTCONT.5286445,EN 311,1,5460-418,DORNELAS BTC,-7.830534525198477,41.65355307140659
pt.ine.add.PTCONT.5286446,R DO POÇO,3,5460-452,GRANJA BTC,-7.655822645021352,41.69468279686276
pt.ine.add.PTCONT.5286447,R DA FONTE,18,5460-473,PINHO BTC,-7.616702326953215,41.67306728603768
pt.ine.add.PTCONT.5286448,R DA ALAMELA,4,5460-471,PINHO BTC,-7.626160086367318,41.66452001010939
pt.ine.add.PTCONT.5286449,R 1 DE MAIO,27,5460-471,PINHO BTC,-7.634425506508765,41.659253073976984
pt.ine.add.PTCONT.5286495,R DO ARRABALDE DE CIMA,15,5460-491,SÃO SALVADOR DE VIVEIRO,-7.807110816384047,41.65871110670864
pt.ine.add.PTCONT.5286496,R DE STO AMARO,2,5460-501,SAPIÃOS,-7.599779466606059,41.722842353751105
pt.ine.add.PTCONT.5286497,EN 103,1,5460-501,SAPIÃOS,-7.591641602747327,41.721624843090794
pt.ine.add.PTCONT.5286527,AV PADRE ARTUR,7,5460-502,SAPIÃOS,-7.639633444529218,41.70990235538103
pt.ine.add.PTCONT.5286528,R DO CRUZEIRO,28,5460-502,SAPIÃOS,-7.640226032231056,41.70940070349031
pt.ine.add.PTCONT.5286529,R DA GAIOSA,10,5460-512,VILAR BTC,-7.738786380344647,41.66833791896857
pt.ine.add.PTCONT.5286722,R DE S JOÃO,16,5460-010,ALTURAS DO BARROSO,-7.822962077728472,41.70551940739528
pt.ine.add.PTCONT.5286723,R DE S JOÃO,,5460-010,ALTURAS DO BARROSO,-7.824930174608513,41.70600188818873
pt.ine.add.PTCONT.5286724,R DAS MILDRAS,4,5460-010,ALTURAS DO BARROSO,-7.8190300476238805,41.70371702914635
pt.ine.add.PTCONT.5286725,R HUMBERTO DELGADO,18,5460-010,ALTURAS DO BARROSO,-7.823213305235073,41.70324219590707
pt.ine.add.PTCONT.5286771,R DIREITA,42,5460-165,BEÇA,-7.733267405102199,41.710275292981734
pt.ine.add.PTCONT.5286772,R DA FONTE,,5460-130,BEÇA,-7.726665313809942,41.68826555680591
pt.ine.add.PTCONT.5286773,TV DAS CARREIRAS,9,5460-130,BEÇA,-7.730163074965347,41.68979946970112
pt.ine.add.PTCONT.5286774,R DO LAJEDO,14,5460-120,BEÇA,-7.7052765883403795,41.696786285960805
pt.ine.add.PTCONT.5286829,EN 311,22,5460-150,BEÇA,-7.694441020891665,41.68261891062238
pt.ine.add.PTCONT.5286830,R DA TORRE,2,5460-155,BEÇA,-7.6873264008617275,41.6815291182266
pt.ine.add.PTCONT.5286886,BC DA TAPADA,,5460-321,BOTICAS,-7.677380694404854,41.69022353129649
pt.ine.add.PTCONT.5286887,R JOÃO DE DEUS,71,5460-309,BOTICAS,-7.672205318000802,41.68830314971127
pt.ine.add.PTCONT.5286888,R DA CAPELA,4,5460-350,CERDEDO,-7.879252889669819,41.70190306964493
pt.ine.add.PTCONT.5286955,COIMBRO,30,5460-350,CERDEDO,-7.886799566046155,41.68881034561501
pt.ine.add.PTCONT.5286956,R DA EIRA,2,5460-350,CERDEDO,-7.903279218068321,41.64834638941165
pt.ine.add.PTCONT.5286957,BR 1 DE MAIO,12,5460-370,CODESSOSO,-7.703756067991334,41.6616848169423
pt.ine.add.PTCONT.5286958,R CENTRAL,61,5460-370,CODESSOSO,-7.709324595394199,41.66389334969875
pt.ine.add.PTCONT.5286959,LG DO CRUZEIRO,5,5460-381,COVAS DO BARROSO,-7.782913535456744,41.63531160289274
pt.ine.add.PTCONT.5286960,ESTR MUNICIPAL,2,5460-381,COVAS DO BARROSO,-7.781612934239631,41.636126962559835
pt.ine.add.PTCONT.5287423,R JOÃO DE DEUS,55,5460-309,BOTICAS,-7.6716528732974,41.68829192934038
pt.ine.add.PTCONT.5287438,TV DA BOAVISTA,,5460-100,ARDÃOS,-7.612824196723914,41.76684786761334
pt.ine.add.PTCONT.5287466,R DA ESCOLA,4,5460-120,BEÇA,-7.7042902395078405,41.695170980831804
pt.ine.add.PTCONT.5287810,R DO EIRÓ,2,5460-120,BEÇA,-7.7057903247680235,41.69358294590679
pt.ine.add.PTCONT.5287811,R INÁCIO ALVES CALVÃO,14,5460-322,BOTICAS,-7.678956598658039,41.68988763583148
pt.ine.add.PTCONT.5287812,R INÁCIO ALVES CALVÃO,14,5460-322,BOTICAS,-7.678956598658039,41.68988763583148
pt.ine.add.PTCONT.5287813,R DAS CARREIRAS,5,5460-417,DORNELAS BTC,-7.842100558929185,41.6390511127367
pt.ine.add.PTCONT.5287814,EN 103,29,5460-501,SAPIÃOS,-7.64124117840507,41.70547953285086
pt.ine.add.PTCONT.5287821,R DIREITA,54,5460-150,BEÇA,-7.693688373704677,41.683795498160144
pt.ine.add.PTCONT.5287833,R 1 DE MAIO,21,5460-150,BEÇA,-7.6921190023188295,41.68144856855454
pt.ine.add.PTCONT.5287834,R 1 DE MAIO,11,5460-150,BEÇA,-7.6909675916899936,41.68297474549195
pt.ine.add.PTCONT.5287835,BC AMARO,1,5460-323,BOTICAS,-7.671336178782528,41.690586554726025
pt.ine.add.PTCONT.5287836,R DA COSTA,1,5460-381,COVAS DO BARROSO,-7.78035571846029,41.63558289437119
pt.ine.add.PTCONT.5287837,LG DA REPÚBLICA,1,5460-412,DORNELAS BTC,-7.889406604668221,41.63453327365619
pt.ine.add.PTCONT.5287838,R CENTRAL,15,5460-471,PINHO BTC,-7.634149151732884,41.660836501091445
pt.ine.add.PTCONT.5287847,R DO ESPINHEIRO,22,5460-135,BEÇA,-7.749516411063535,41.70353303599138
pt.ine.add.PTCONT.5287870,R DA CARREIRA,,5460-432,FIÃES DO TAMEGA,-7.711909858252181,41.59694295071117
pt.ine.add.PTCONT.5287879,R DA LAGE,5,5460-311,BOTICAS,-7.665895994348015,41.68876386370727
pt.ine.add.PTCONT.5287880,R PRINCIPAL,1,5460-400,CURROS BTC,-7.687422506064873,41.643219326511264
pt.ine.add.PTCONT.5287881,R DO CALVÁRIO,13,5460-495,SÃO SALVADOR DE VIVEIRO,-7.771983671692504,41.67550580799455
pt.ine.add.PTCONT.5287890,R DO CAMPO,5,5460-220,BOBADELA BTC,-7.622237642611498,41.74295904836805
pt.ine.add.PTCONT.5287910,R DO ESTREMADOURO DE CIMA,10,5460-350,CERDEDO,-7.884103501901508,41.66218999634186
pt.ine.add.PTCONT.5287911,R DA COSTA,40,5460-350,CERDEDO,-7.880887379673966,41.66176881903815
pt.ine.add.PTCONT.5287919,R CANDO,7,5460-220,BOBADELA BTC,-7.618548928262007,41.74121393025661
pt.ine.add.PTCONT.5287920,R JOÃO DE DEUS,45,5460-309,BOTICAS,-7.670968436011106,41.6882621685846
pt.ine.add.PTCONT.5287921,R DO MURO,11,5460-451,GRANJA BTC,-7.648699400697727,41.694652992870985
pt.ine.add.PTCONT.5287922,R DO BARREIRO,2,5460-451,GRANJA BTC,-7.649701402615087,41.69399095236218
pt.ine.add.PTCONT.5287923,R DO EIRÃO,9,5460-512,VILAR BTC,-7.734046491459889,41.66977113289066
pt.ine.add.PTCONT.5287936,R DO CAMPO,18,5460-100,ARDÃOS,-7.613149324061799,41.76679531915305
pt.ine.add.PTCONT.5287937,R DO OUTEIRO DO MOINHO,6,5460-210,BOBADELA BTC,-7.615384854236048,41.73553655719525
pt.ine.add.PTCONT.5287944,R DO VALE,2,5460-370,CODESSOSO,-7.707404078831534,41.66015877576258
pt.ine.add.PTCONT.5287952,LG DO SOUTO,6,5460-100,ARDÃOS,-7.608740697449632,41.76471350622632
pt.ine.add.PTCONT.5287953,R CAMILO CASTELO BRANCO,4,5460-305,BOTICAS,-7.670691001864583,41.68674846091394
pt.ine.add.PTCONT.5287954,EN 103,1,5460-325,BOTICAS,-7.688020279924088,41.71850920323495
pt.ine.add.PTCONT.5287955,BR 1 DE MAIO,11,5460-370,CODESSOSO,-7.703552800783892,41.66155800752198
pt.ine.add.PTCONT.5287967,BC DO MEIO,2,5460-210,BOBADELA BTC,-7.6187926464615625,41.73176141189861
pt.ine.add.PTCONT.5287968,EN 311,27,5460-471,PINHO BTC,-7.636718155942535,41.664007872800724
pt.ine.add.PTCONT.5287969,R DO REGO,9,5460-471,PINHO BTC,-7.63178754757189,41.661915655319284
pt.ine.add.PTCONT.5287981,R DO CARRIL,3,5460-502,SAPIÃOS,-7.634714810633787,41.707351149663324
pt.ine.add.PTCONT.5287982,R DO CRUZEIRO,5,5460-502,SAPIÃOS,-7.638180938285228,41.70972504270265
pt.ine.add.PTCONT.5287990,TV DO ALTO DA COSTA,6,5460-120,BEÇA,-7.70623042700606,41.69424183822733
pt.ine.add.PTCONT.5287991,R AFONSO ANES BARROSO,6,5460-302,BOTICAS,-7.678686546446982,41.68900422336192
pt.ine.add.PTCONT.5288440,R DA PIA,5,5460-451,GRANJA BTC,-7.648974061100613,41.694870234428684
pt.ine.add.PTCONT.5288471,R DA PORTELA,1,5460-210,BOBADELA BTC,-7.6174878247039155,41.73109831268667
pt.ine.add.PTCONT.5288494,R DO PICOTO,4,5460-432,FIÃES DO TAMEGA,-7.7132896555772845,41.59687596805616
pt.ine.add.PTCONT.5288846,R DO ALTO DO COTO,8,5460-417,DORNELAS BTC,-7.849158696568989,41.638870684654144
pt.ine.add.PTCONT.5288861,AV DO EIRÓ,20,5460-311,BOTICAS,-7.665279195132846,41.69100323047655
pt.ine.add.PTCONT.5288866,R DE STO ALEIXO,39,5460-323,BOTICAS,-7.671567701894725,41.68844464718501
pt.ine.add.PTCONT.5288867,R DO RIO,14,5460-502,SAPIÃOS,-7.639153555070087,41.711376864567455
pt.ine.add.PTCONT.5288880,R DO FORNO,30,5460-020,ALTURAS DO BARROSO,-7.7894730930563,41.70630649206755
pt.ine.add.PTCONT.5288881,R DO LAVANCO,27,5460-381,COVAS DO BARROSO,-7.784921853099105,41.6323285013274
pt.ine.add.PTCONT.5288895,R ENG FERNANDO CAMPOS,7,5460-502,SAPIÃOS,-7.643708316749432,41.70968569083005
pt.ine.add.PTCONT.5288910,R DO AGRO,8,5460-010,ALTURAS DO BARROSO,-7.822883429502466,41.70438475237645
pt.ine.add.PTCONT.5288911,R DO CHARCO,,5460-160,BEÇA,-7.6817916695074615,41.6657783233364
pt.ine.add.PTCONT.5288912,LG DA SENHORA DA LIVRAÇÃO,,5460-303,BOTICAS,-7.66491676002438,41.687976572411266
pt.ine.add.PTCONT.5288920,CAM DA PENA FRANGA,3,5460-010,ALTURAS DO BARROSO,-7.8248913181596915,41.70407503201812
pt.ine.add.PTCONT.5288921,R DO PAPO DE GALO,29,5460-342,,-7.681134816911121,41.68930199044654
pt.ine.add.PTCONT.5288922,LG DO OUTEIRO,1,5460-350,CERDEDO,-7.880032802700674,41.702156888426074
pt.ine.add.PTCONT.5288923,R DE CIMA,3,5460-400,CURROS BTC,-7.688224087033211,41.643600582611626
pt.ine.add.PTCONT.5288924,R PRINCIPAL,12,5460-400,CURROS BTC,-7.6882128274333965,41.64349249591149
pt.ine.add.PTCONT.5288941,LG DO OUTEIRO,32,5460-418,DORNELAS BTC,-7.842708085553554,41.65076634553512
pt.ine.add.PTCONT.5288949,R 5 DE OUTUBRO,24,5460-304,BOTICAS,-7.667343435915306,41.68792340796635
pt.ine.add.PTCONT.5288950,R DA FONTE,22,5460-473,PINHO BTC,-7.617290725588108,41.67306992826049
pt.ine.add.PTCONT.5288951,TV DO CRUZEIRO,1,5460-512,VILAR BTC,-7.736955862670489,41.66725119683808
pt.ine.add.PTCONT.5288964,R CENTRAL,4,5460-145,BEÇA,-7.694353491333602,41.70787343196422
pt.ine.add.PTCONT.5288965,R JOÃO DE DEUS,35,5460-309,BOTICAS,-7.670512209355217,41.68823332255651
pt.ine.add.PTCONT.5288968,R DO CAMPO DA BOLA,4,5460-120,BEÇA,-7.702425675161503,41.69736086562881
pt.ine.add.PTCONT.5288969,BR 1 DE MAIO,19,5460-370,CODESSOSO,-7.703939508280089,41.66118130223775
pt.ine.add.PTCONT.5288978,R DO CERRO,6,5460-210,BOBADELA BTC,-7.6215531031130235,41.73226892383656
pt.ine.add.PTCONT.5288996,R DO VINHOIRO,9,5460-100,ARDÃOS,-7.612744215262391,41.76483974922685
pt.ine.add.PTCONT.5288997,TV DO CALVÁRIO,1,5460-471,PINHO BTC,-7.633953419307645,41.662861451456266
pt.ine.add.PTCONT.5289489,R DR JOSÉ JOAQUIM SOUSA FERNANDES,,5460-100,ARDÃOS,-7.612321075484815,41.76511693713976
pt.ine.add.PTCONT.5289522,BC DA ALBERGARIA,1,5460-326,BOTICAS,-7.675870531042035,41.6914510149179
pt.ine.add.PTCONT.5289922,BC DO AMARO,2,5460-323,BOTICAS,-7.671300917023932,41.69047837082835
pt.ine.add.PTCONT.5289923,TV DAS ESCADAS,6,5460-471,PINHO BTC,-7.633403394241691,41.66101333244145
pt.ine.add.PTCONT.5289931,R DO FUNDO DA VILA,9,5460-381,COVAS DO BARROSO,-7.78485692313489,41.631013775457355
pt.ine.add.PTCONT.5289932,R 1 DE MAIO,23,5460-471,PINHO BTC,-7.634379220710635,41.65902778412942
pt.ine.add.PTCONT.5289939,R DO CÔTO,18,5460-010,ALTURAS DO BARROSO,-7.822623939561076,41.70587863483894
pt.ine.add.PTCONT.5289940,R DA FONTE DE BAIXO,8,5460-155,BEÇA,-7.687251405660881,41.68021431120925
pt.ine.add.PTCONT.5289941,TV PADRE CÂNDIDO LEMOS,2,5460-311,BOTICAS,-7.667267533076513,41.69011995904362
pt.ine.add.PTCONT.5289942,R DA LUZ,14,5460-502,SAPIÃOS,-7.64368517816154,41.7079839336656
pt.ine.add.PTCONT.5289951,R DO VALE,13,5460-010,ALTURAS DO BARROSO,-7.818592712135241,41.70470621968104
pt.ine.add.PTCONT.5289952,R DE SANGUNDEDO,35,5460-330,BOTICAS,-7.668559424306359,41.689197825916246
pt.ine.add.PTCONT.5289953,R ENG CALDEIRA PAIS,31,5460-316,BOTICAS,-7.66931658433097,41.68913785932931
pt.ine.add.PTCONT.5289954,TV DA VALDASNELA,3,5460-383,COVAS DO BARROSO,-7.776421126429213,41.62652211031446
pt.ine.add.PTCONT.5289955,BR DA PORTELA MORGADA,12,5460-383,COVAS DO BARROSO,-7.779629585068999,41.62790057266746
pt.ine.add.PTCONT.5289972,R ENG CALDEIRA PAIS,31,5460-316,BOTICAS,-7.66931658433097,41.68913785932931
pt.ine.add.PTCONT.5289973,R ENG CALDEIRA PAIS,31,5460-316,BOTICAS,-7.66931658433097,41.68913785932931
pt.ine.add.PTCONT.5289974,R ENG CALDEIRA PAIS,31,5460-316,BOTICAS,-7.66931658433097,41.68913785932931
pt.ine.add.PTCONT.5289975,EN 103,35,5460-502,SAPIÃOS,-7.642612479785022,41.706844920809424
pt.ine.add.PTCONT.5289986,R HUMBERTO DELGADO,21,5460-010,ALTURAS DO BARROSO,-7.823057079205497,41.703250778042026
pt.ine.add.PTCONT.5289987,R DA VALDARCA,5,5460-130,BEÇA,-7.728357794581935,41.69227809885658
pt.ine.add.PTCONT.5289988,R DO PAPO DE GALO,15,5460-342,,-7.680988378324228,41.68791487206604
pt.ine.add.PTCONT.5290004,R DIREITA,9,5460-010,ALTURAS DO BARROSO,-7.820567945361787,41.703703214872576
pt.ine.add.PTCONT.5290017,LG DA CAPELA,1,5460-030,ALTURAS DO BARROSO,-7.812681557151654,41.682928357470864
pt.ine.add.PTCONT.5290018,R DOS AFLITOS,2,5460-220,BOBADELA BTC,-7.622718017839342,41.741502627631355
pt.ine.add.PTCONT.5290031,R DO CAMPO,25,5460-100,ARDÃOS,-7.614050953065329,41.76683540963966
pt.ine.add.PTCONT.5290032,EN 312,40,5460-451,GRANJA BTC,-7.643468801966146,41.70324717632465
pt.ine.add.PTCONT.5290038,R DO VALE,8,5460-370,CODESSOSO,-7.707232437159026,41.66069835411021
pt.ine.add.PTCONT.5290047,R DA FONTE DAS HORTAS,3,5460-210,BOBADELA BTC,-7.621145014556973,41.730682499866916
pt.ine.add.PTCONT.5290048,EN 311,22,5460-471,PINHO BTC,-7.631314593219491,41.66561405182133
pt.ine.add.PTCONT.5290062,R DO PAÇO,7,5460-210,BOBADELA BTC,-7.618323471714014,41.73181333161539
pt.ine.add.PTCONT.5290079,R COLEGIO,3,5460-320,BOTICAS,-7.660951810442353,41.69142670571901
pt.ine.add.PTCONT.5290080,R CRUZ ALMAS,,5460-320,BOTICAS,-7.660951810442353,41.69142670571901
pt.ine.add.PTCONT.5290081,R DO CRUZEIRO,1,5460-320,BOTICAS,-7.664799834930804,41.69416151134064
pt.ine.add.PTCONT.5290515,R DA CASTELHANA,2,5460-130,BEÇA,-7.7296445865719265,41.69203952840482
pt.ine.add.PTCONT.5290520,R AFONSO ANES BARROSO,1,5460-302,BOTICAS,-7.67909505414313,41.68898783083721
pt.ine.add.PTCONT.5290555,R DO TORNADOURO,6,5460-502,SAPIÃOS,-7.6431880489221875,41.710160658574786
pt.ine.add.PTCONT.5290955,R DAS RIBAS,3,5460-340,BOTICAS,-7.665911703546006,41.69157302497353
pt.ine.add.PTCONT.5290967,R DO CIMO DE VILA,5,5460-381,COVAS DO BARROSO,-7.784123053128446,41.635801476639635
pt.ine.add.PTCONT.5290968,R ACÚRCIO AMÂNDIO DE CASTRO,20,5460-381,COVAS DO BARROSO,-7.783984768595721,41.634738629716196
pt.ine.add.PTCONT.5290978,AV DE CHAVES,52,5460-301,BOTICAS,-7.6636350855453035,41.68914180149745
pt.ine.add.PTCONT.5290979,R DA EIRA,2,5460-502,SAPIÃOS,-7.644116144357662,41.70977746176518
pt.ine.add.PTCONT.5290980,R DO TORNADOURO,2,5460-502,SAPIÃOS,-7.642351170149446,41.709607875239115
pt.ine.add.PTCONT.5290989,R DA FONTE,5,5460-135,BEÇA,-7.749709598105762,41.70337161751942
pt.ine.add.PTCONT.5290990,R DO SALGUEIRO,5,5460-125,BEÇA,-7.696124681479091,41.68229219377962
pt.ine.add.PTCONT.5290991,R DAS OLIVEIRAS,21,5460-381,COVAS DO BARROSO,-7.787178380969956,41.63002138226662
pt.ine.add.PTCONT.5290992,R DO CAMPO DE FUTEBOL,10,5460-502,SAPIÃOS,-7.645820780886882,41.70998277928419
pt.ine.add.PTCONT.5291005,R DO SANTO,5,5460-135,BEÇA,-7.753182225396477,41.703284111811314
pt.ine.add.PTCONT.5291006,BR DAS CALDAS,9,5460-130,BEÇA,-7.727246330956731,41.69710906871366
pt.ine.add.PTCONT.5291007,R DIREITA,5,5460-383,COVAS DO BARROSO,-7.7766884927851,41.6259106926042
pt.ine.add.PTCONT.5291008,AV PADRE ARTUR,9,5460-502,SAPIÃOS,-7.639824790237775,41.71002022216721
pt.ine.add.PTCONT.5291009,R DA TORRE,6,5460-502,SAPIÃOS,-7.640306973835497,41.70981521084151
pt.ine.add.PTCONT.5291022,BR DAS CALDAS,15,5460-130,BEÇA,-7.726849568854965,41.69716168792171
pt.ine.add.PTCONT.5291023,R DE DENTRO,,5460-160,BEÇA,-7.681159081859094,41.66523562417116
pt.ine.add.PTCONT.5291033,R HUMBERTO DELGADO,19,5460-010,ALTURAS DO BARROSO,-7.8230929051553515,41.70329589227473
pt.ine.add.PTCONT.5291040,BC DO EIRÃO,2,5460-220,BOBADELA BTC,-7.621961915808063,41.74134620826767
pt.ine.add.PTCONT.5291041,R DA TRIGUEIRA,8,5460-220,BOBADELA BTC,-7.622980125863645,41.741800904798666
pt.ine.add.PTCONT.5291042,R DO PAPO DE GALO,7,5460-342,,-7.679419736250265,41.68893509189345
pt.ine.add.PTCONT.5291043,R PRINCIPAL,44,5460-512,VILAR BTC,-7.738389254267701,41.66848061281611
pt.ine.add.PTCONT.5291051,R DO SOUTO,7,5460-220,BOBADELA BTC,-7.6223897083478835,41.740456770810425
pt.ine.add.PTCONT.5291066,EN 311,,5460-125,BEÇA,-7.701196451183037,41.68178015703294
pt.ine.add.PTCONT.5291067,R DO ARRABALDE DE BAIXO,5,5460-491,SÃO SALVADOR DE VIVEIRO,-7.805941588240865,41.65725820730966
pt.ine.add.PTCONT.5291081,R DO PAÇO,16,5460-210,BOBADELA BTC,-7.618189248657906,41.73206482666528
pt.ine.add.PTCONT.5291093,LG DA CAPELA DE SAO CAETANO,8,5460-411,DORNELAS BTC,-7.835861104849851,41.64389709959062
pt.ine.add.PTCONT.5291107,LG DAS ALMAS,3,5460-370,CODESSOSO,-7.717657152315129,41.65085057792267
pt.ine.add.PTCONT.5291108,EN 311,23,5460-471,PINHO BTC,-7.6359146216961165,41.663887353510816
pt.ine.add.PTCONT.5291613,TV DO PAPO DE GALO,13,5460-342,,-7.680771325416337,41.68975073639096
pt.ine.add.PTCONT.5291621,R DIREITA,20,5460-150,BEÇA,-7.691252508154534,41.68346203195007
pt.ine.add.PTCONT.5291644,TV DA BOBIANA,6,5460-495,SÃO SALVADOR DE VIVEIRO,-7.777051303188827,41.67336076528162
pt.ine.add.PTCONT.5291979,R DO CALVÁRIO,10,5460-332,BOTICAS,-7.666924699402852,41.692684570824674
pt.ine.add.PTCONT.5292004,R DIREITA,20,5460-150,BEÇA,-7.6916901781884786,41.684445098632935
pt.ine.add.PTCONT.5292005,R DE STO ALEIXO,37,5460-323,BOTICAS,-7.671397164747251,41.68877709245175
pt.ine.add.PTCONT.5292006,R DA CRUZ DAS ALMAS,15,5460-320,BOTICAS,-7.659511868071232,41.6912227035624
pt.ine.add.PTCONT.5292007,R ACÚRCIO AMÂNDIO DE CASTRO,18,5460-381,COVAS DO BARROSO,-7.7839119347716235,41.634891470020534
pt.ine.add.PTCONT.5292015,R DO FORNO,4,5460-020,ALTURAS DO BARROSO,-7.788149146973807,41.704492820164354
pt.ine.add.PTCONT.5292016,R AFONSO ANES BARROSO,13,5460-302,BOTICAS,-7.679811681556717,41.689566884936774
pt.ine.add.PTCONT.5292017,R 1 DE MAIO,29,5460-471,PINHO BTC,-7.634528140277842,41.65995579691238
pt.ine.add.PTCONT.5292018,R 1 DE MAIO,29,5460-471,PINHO BTC,-7.634528140277842,41.65995579691238
pt.ine.add.PTCONT.5292019,AV PADRE ARTUR,26,5460-502,SAPIÃOS,-7.640301954225644,41.71047244351584
pt.ine.add.PTCONT.5292035,R DA CARREIRA,5,5460-432,FIÃES DO TAMEGA,-7.7117300627222445,41.5969242845378
pt.ine.add.PTCONT.5292047,R DA COSTA,13,5460-010,ALTURAS DO BARROSO,-7.822114299192345,41.70442769114024
pt.ine.add.PTCONT.5292048,R DE S JOSÉ,23,5460-383,COVAS DO BARROSO,-7.777129062167798,41.62653330835441
pt.ine.add.PTCONT.5292049,LG DO CRUZEIRO,4,5460-502,SAPIÃOS,-7.638985667161234,41.70976451964106
pt.ine.add.PTCONT.5292060,EN 312,7,5460-451,GRANJA BTC,-7.646737693363147,41.69832714080192
pt.ine.add.PTCONT.5292061,TV DA COSTA,5,5460-495,SÃO SALVADOR DE VIVEIRO,-7.779255236115087,41.67439397731126
pt.ine.add.PTCONT.5292071,R DA BELAVISTA,3,5460-010,ALTURAS DO BARROSO,-7.822740383975611,41.70415027475598
pt.ine.add.PTCONT.5292072,TV DA PIPA,2,5460-220,BOBADELA BTC,-7.622733575801739,41.74257410486303
pt.ine.add.PTCONT.5292073,R DA NAVALHEIRA,1,5460-333,BOTICAS,-7.65944168094905,41.684415753178584
pt.ine.add.PTCONT.5292082,R DA PIPA,4,5460-220,BOBADELA BTC,-7.622318902685803,41.741806970718855
pt.ine.add.PTCONT.5292089,R DOS AFLITOS,6,5460-220,BOBADELA BTC,-7.6226104716372,41.74142111899297
pt.ine.add.PTCONT.5292090,R DO BARREIRO,6,5460-451,GRANJA BTC,-7.650322328185065,41.69448875546187
pt.ine.add.PTCONT.5292091,R DO PENEDO,5,5460-512,VILAR BTC,-7.73306347505364,41.66950661241648
pt.ine.add.PTCONT.5292098,EN 312,59,5460-451,GRANJA BTC,-7.657494319605442,41.69116035065808
pt.ine.add.PTCONT.5292110,R DO CEMITÉRIO,5,5460-512,VILAR BTC,-7.735724153680508,41.66642762064447
pt.ine.add.PTCONT.5292119,TV DA MOTA,1,5460-210,BOBADELA BTC,-7.620411354348211,41.73225483174859
pt.ine.add.PTCONT.5292120,R PRINCIPAL,7,5460-501,SAPIÃOS,-7.597042022012923,41.72397305469614
pt.ine.add.PTCONT.5292131,BR DA CISTERNA,34,5460-120,BEÇA,-7.701880664280459,41.69622437933859
pt.ine.add.PTCONT.5292132,R CENTRAL,2,5460-370,CODESSOSO,-7.705088409497117,41.65811536873237
pt.ine.add.PTCONT.5292133,R DA CASA DA FLORESTA,1,5460-418,DORNELAS BTC,-7.851025187550957,41.65397433108147
pt.ine.add.PTCONT.5292141,TV DO ALTO DA FONTE,16,5460-120,BEÇA,-7.7044592499693,41.695045562125664
pt.ine.add.PTCONT.5292142,R DA LOURA,5,5460-210,BOBADELA BTC,-7.617739286873358,41.731216485587204
pt.ine.add.PTCONT.5292143,R CENTRAL,15,5460-370,CODESSOSO,-7.718675428928161,41.64930563678187
pt.ine.add.PTCONT.5292613,R CENTRAL DO BARREIRO,10 A,5460-350,CERDEDO,-7.880712135292206,41.66052593924956
pt.ine.add.PTCONT.5292628,R CENTRAL,8,5460-145,BEÇA,-7.695288198133032,41.7082371365875
pt.ine.add.PTCONT.5292691,R DIREITA,15,5460-400,CURROS BTC,-7.667519433269421,41.63349757934282
pt.ine.add.PTCONT.5292692,BC DO ALTO DO COTO,3,5460-417,DORNELAS BTC,-7.849912268414506,41.63945777890837
pt.ine.add.PTCONT.5292752,R DA SEARA,10,5460-451,GRANJA BTC,-7.6537511484989995,41.693782827749565
pt.ine.add.PTCONT.5292753,EN 312,23 A,5460-451,GRANJA BTC,-7.64919493787173,41.69585254691937
pt.ine.add.PTCONT.5292754,TV DA CALÇADA,5,5460-472,PINHO BTC,-7.626977317743711,41.64142045305156
pt.ine.add.PTCONT.5292805,TV DO CANTO,5,5460-495,SÃO SALVADOR DE VIVEIRO,-7.776592051051764,41.673890551561485
pt.ine.add.PTCONT.5292806,R DO OUTEIRO,,5460-495,SÃO SALVADOR DE VIVEIRO,-7.775782590773697,41.67260052898993
pt.ine.add.PTCONT.5292807,R DO ATOLEIRO,29,5460-501,SAPIÃOS,-7.597841383652727,41.72322949430952
pt.ine.add.PTCONT.5292808,R DO CANTO,3,5460-501,SAPIÃOS,-7.598684469120349,41.723008332032784
pt.ine.add.PTCONT.5292809,R DA FRAGA,2,5460-501,SAPIÃOS,-7.591001214443122,41.722035982733644
pt.ine.add.PTCONT.5292868,R PRINCIPAL,5,5460-512,VILAR BTC,-7.738011125049618,41.66747991822483
pt.ine.add.PTCONT.5292867,TV DA GAIOSA,2,5460-512,VILAR BTC,-7.739769193694724,41.67258196257424
pt.ine.add.PTCONT.5293295,CAM DA VEIGA,4,5460-030,ALTURAS DO BARROSO,-7.807004238634492,41.67983317509523
pt.ine.add.PTCONT.5293296,R DO OUTEIRO,11,5460-100,ARDÃOS,-7.6110664160977555,41.767091988960004
pt.ine.add.PTCONT.5293345,R DA IGREJA,6,5460-100,ARDÃOS,-7.611251178354266,41.76655262498765
pt.ine.add.PTCONT.5293346,R DO CASAL,27,5460-100,ARDÃOS,-7.611564722784588,41.76496044856129
pt.ine.add.PTCONT.5293347,BR DA CISTERNA,20,5460-120,BEÇA,-7.701901817691494,41.69485592456287
pt.ine.add.PTCONT.5293392,R DA ESCOLA,2,5460-120,BEÇA,-7.70383305005419,41.69527731618577
pt.ine.add.PTCONT.5293393,R DE SARABAGO,4,5460-120,BEÇA,-7.704409471068172,41.69349677161674
pt.ine.add.PTCONT.5293394,R DIREITA,22,5460-150,BEÇA,-7.691762302004426,41.68443637209265
pt.ine.add.PTCONT.5293395,EM 527,14,5460-210,BOBADELA BTC,-7.619145892509221,41.735697496615344
pt.ine.add.PTCONT.5293442,R DA SEPARRA,17,5460-325,BOTICAS,-7.676495051406943,41.6931641658628
pt.ine.add.PTCONT.5293443,R DO FONTÃO,4,5460-326,BOTICAS,-7.674410737443668,41.69065288826664
pt.ine.add.PTCONT.5293444,R CAMILO CASTELO BRANCO,44,5460-305,BOTICAS,-7.673818195137491,41.687832420015006
pt.ine.add.PTCONT.5293495,LG DA SENHORA DA LIVRAÇÃO,11,5460-303,BOTICAS,-7.664455245637345,41.68867696592005
pt.ine.add.PTCONT.5293545,TV DO CAMPO DA BOLA,9,5460-512,VILAR BTC,-7.7408919336770055,41.669623628994934
pt.ine.add.PTCONT.5293594,R DURA,6,5460-502,SAPIÃOS,-7.6386821186807285,41.71017737421739
pt.ine.add.PTCONT.5293606,TV DA PONTE,8,5460-381,COVAS DO BARROSO,-7.780168737457501,41.63245806417836
pt.ine.add.PTCONT.5293940,R AFONSO ANES BARROSO,4,5460-302,BOTICAS,-7.678868551252616,41.68874384074992
pt.ine.add.PTCONT.5293949,R DIREITA,13,5460-020,ALTURAS DO BARROSO,-7.791421079226055,41.70827506493725
pt.ine.add.PTCONT.5293950,R 5 DE OUTUBRO,9,5460-471,PINHO BTC,-7.636101405417239,41.66145720133051
pt.ine.add.PTCONT.5293961,R MANUEL LOURENÇO DE CARVALHO,5,5460-471,PINHO BTC,-7.634771584124271,41.66108229749842
pt.ine.add.PTCONT.5293968,R DO TORRÃO,1,5460-135,BEÇA,-7.753776146678476,41.700350929160095
pt.ine.add.PTCONT.5293969,R DO FUNDO DA VILA,10,5460-381,COVAS DO BARROSO,-7.7869289251933065,41.62954343904596
pt.ine.add.PTCONT.5293986,TV DA ABELEIRA,2,5460-452,GRANJA BTC,-7.655452197793499,41.69442015602012
pt.ine.add.PTCONT.5293987,R CENTRAL,9,5460-472,PINHO BTC,-7.626573964314252,41.640815435951424
pt.ine.add.PTCONT.5294006,R CAMILO CASTELO BRANCO,65,5460-305,BOTICAS,-7.675768078802378,41.68895663257134
pt.ine.add.PTCONT.5294007,R DO CABO,6,5460-495,SÃO SALVADOR DE VIVEIRO,-7.777042470322597,41.6727845101536
pt.ine.add.PTCONT.5294008,EN 103,,5460-502,SAPIÃOS,-7.626609522792483,41.71898421561631
pt.ine.add.PTCONT.5294018,R CAMILO CASTELO BRANCO,55,5460-305,BOTICAS,-7.6750277917691925,41.68833244133206
pt.ine.add.PTCONT.5294019,R DO PICOTINHO,6,5460-418,DORNELAS BTC,-7.843208649288872,41.65425200149101
pt.ine.add.PTCONT.5294027,R DIREITA,9,5460-030,ALTURAS DO BARROSO,-7.812289019652175,41.68216196084104
pt.ine.add.PTCONT.5294028,R JOÃO DE DEUS,79,5460-309,BOTICAS,-7.672445988937593,41.68824108999618
pt.ine.add.PTCONT.5294029,R FRANCA,11,5460-418,DORNELAS BTC,-7.842446321574168,41.65291754406127
pt.ine.add.PTCONT.5294042,LG DA SENHORA DA GUADALUPE,6,5460-370,CODESSOSO,-7.706041345568996,41.6610720845956
pt.ine.add.PTCONT.5294043,BR 1 DE MAIO,22,5460-370,CODESSOSO,-7.70432310550269,41.66127276957701
pt.ine.add.PTCONT.5294044,R DA PASSARAMILHARA,10,5460-473,PINHO BTC,-7.611576762583381,41.6742956333938
pt.ine.add.PTCONT.5294045,R DA PORTELA,17,5460-493,SÃO SALVADOR DE VIVEIRO,-7.764401448624995,41.655250713932936
pt.ine.add.PTCONT.5294051,TV GONÇALVES,3,5460-100,ARDÃOS,-7.611701153215669,41.765933434057395
pt.ine.add.PTCONT.5294052,R CENTRAL,13,5460-145,BEÇA,-7.693640942499784,41.70841091886434
pt.ine.add.PTCONT.5294061,R DO RELÓGIO,2,5460-473,PINHO BTC,-7.613592510770018,41.67301725713167
pt.ine.add.PTCONT.5294062,R DO RELÓGIO,2,5460-473,PINHO BTC,-7.613592510770018,41.67301725713167
pt.ine.add.PTCONT.5294069,R DO CERRO,2,5460-210,BOBADELA BTC,-7.621317150753226,41.7317096595596
pt.ine.add.PTCONT.5294070,BR DA RAPOSEIRA,24,5460-320,BOTICAS,-7.6625894122814,41.69747477722141
pt.ine.add.PTCONT.5294071,EN 311,9,5460-471,PINHO BTC,-7.632147178540479,41.66508647422684
pt.ine.add.PTCONT.5294083,TV DA CISTERNA,5,5460-120,BEÇA,-7.703049963998655,41.695616522013346
pt.ine.add.PTCONT.5294084,R DO CIMO DE VILA,2,5460-381,COVAS DO BARROSO,-7.7837023205518685,41.63592624920924
pt.ine.add.PTCONT.5294094,R ACURCIO AMANDIO CASTRO,32,5460-381,COVAS DO BARROSO,-7.783498894868145,41.63359369323609
pt.ine.add.PTCONT.5294095,R DIREITA,24,5460-417,DORNELAS BTC,-7.846720790650033,41.63919777066303
pt.ine.add.PTCONT.5294586,R DA EIRA DOS FERNANDES,6,5460-370,CODESSOSO,-7.703359864376317,41.66168333625522
pt.ine.add.PTCONT.5294593,R DA NAVALHEIRA,4,5460-333,BOTICAS,-7.659931597546188,41.684759905229754
pt.ine.add.PTCONT.5294627,R DA FONTE,,5460-130,BEÇA,-7.726797039871372,41.68832904728292
pt.ine.add.PTCONT.5294651,R DA ESCOLA,11,5460-400,CURROS BTC,-7.671014198190049,41.6331605403577
pt.ine.add.PTCONT.5294658,R CENTRAL,5,5460-472,PINHO BTC,-7.626645060849211,41.640932795870384
pt.ine.add.PTCONT.5295181,TV DO MASTRO,1,5460-010,ALTURAS DO BARROSO,-7.821095914769386,41.7038397022572
pt.ine.add.PTCONT.5295182,R DIREITA,5,5460-030,ALTURAS DO BARROSO,-7.8118925959710594,41.682178860675116
pt.ine.add.PTCONT.5295183,TV DO BARREIRO,3,5460-100,ARDÃOS,-7.606183973087437,41.76413459519626
pt.ine.add.PTCONT.5295184,R JOÃO PAULO II,17,5460-100,ARDÃOS,-7.612521502314469,41.76561303200442
pt.ine.add.PTCONT.5295185,R DIREITA,26,5460-165,BEÇA,-7.733392075255261,41.709546443523365
pt.ine.add.PTCONT.5295186,R DO PAPO DE GALO,12,5460-342,,-7.68071061132107,41.68812986355382
pt.ine.add.PTCONT.5295187,R JOÃO DE DEUS,52,5460-309,BOTICAS,-7.672108008240166,41.688473826318955
pt.ine.add.PTCONT.5295188,R DO PAPO DE GALO,25,5460-342,,-7.681089544930002,41.688905657461824
pt.ine.add.PTCONT.5295189,R AFONSO ANES BARROSO,7,5460-302,BOTICAS,-7.679238619071999,41.68906942958406
pt.ine.add.PTCONT.5295190,R ACÚRCIO AMÂNDIO DE CASTRO,15,5460-381,COVAS DO BARROSO,-7.783673610555955,41.63457561911873
pt.ine.add.PTCONT.5295191,LG DE S BRÁS,1,5460-400,CURROS BTC,-7.699590196776399,41.643725043508226
pt.ine.add.PTCONT.5295192,R PRINCIPAL,3,5460-400,CURROS BTC,-7.687771762707447,41.64304961186356
pt.ine.add.PTCONT.5295193,,35,5460-400,CURROS BTC,-7.668957149143612,41.63383652693858
pt.ine.add.PTCONT.5295194,ESTR MUNICIPAL,11,5460-415,DORNELAS BTC,-7.84075957055012,41.62239099107996
pt.ine.add.PTCONT.5295195,R DA PORTELA,7,5460-493,SÃO SALVADOR DE VIVEIRO,-7.764001991688864,41.65582566130922
pt.ine.add.PTCONT.5295196,R DA SURREIRA,14,5460-501,SAPIÃOS,-7.599778052063203,41.723013412842576
pt.ine.add.PTCONT.5295197,R DA BARREIRA,1,5460-502,SAPIÃOS,-7.639500108357192,41.71005484193279
pt.ine.add.PTCONT.5295198,R DA LUZ,16,5460-502,SAPIÃOS,-7.643614524271993,41.707794559525475
pt.ine.add.PTCONT.5295199,R DO COUTO,10,5460-512,VILAR BTC,-7.7373242276462815,41.667882715267474
pt.ine.add.PTCONT.5295206,R DA CALHELHA,1,5460-135,BEÇA,-7.751514129028879,41.70499825488785
pt.ine.add.PTCONT.5295207,R CENTRAL,24,5460-135,BEÇA,-7.752066201927357,41.70509912528979
pt.ine.add.PTCONT.5295208,R DO SOUTO,4,5460-135,BEÇA,-7.747695489916993,41.706678170365244
pt.ine.add.PTCONT.5295209,BR DAS CALDAS,,5460-130,BEÇA,-7.7276288741225505,41.69740753505027
pt.ine.add.PTCONT.5295210,BR DAS CALDAS,1,5460-130,BEÇA,-7.7267194117806355,41.6968461047072
pt.ine.add.PTCONT.5295211,R 25 DE ABRIL,1,5460-120,BEÇA,-7.704129531629064,41.69585464816905
pt.ine.add.PTCONT.5295212,R DO FORNO,4,5460-120,BEÇA,-7.705404684943546,41.6937705852291
pt.ine.add.PTCONT.5295213,TV DA CRUZ DAS ALMAS,3,5460-301,BOTICAS,-7.663421451534542,41.69374172475176
pt.ine.add.PTCONT.5295214,R DO OLIVAL,3,5460-311,BOTICAS,-7.6676974773813695,41.69046383463292
pt.ine.add.PTCONT.5295215,SIT DA CORGA DE VALBOM,,5460-350,CERDEDO,-7.882134678199766,41.702305554202724
pt.ine.add.PTCONT.5295216,R DO SOUTO,18,5460-451,GRANJA BTC,-7.650411761424984,41.6953804783723
pt.ine.add.PTCONT.5295217,LG DO CHÃO DE CIMA,5,5460-473,PINHO BTC,-7.613881426349319,41.67442311412477
pt.ine.add.PTCONT.5295574,LG DA SENHORA DA GUADALUPE,3,5460-370,CODESSOSO,-7.706474989997309,41.66085760936295
pt.ine.add.PTCONT.5295575,EN 312,32,5460-502,SAPIÃOS,-7.6416973755847435,41.70552650197305
pt.ine.add.PTCONT.5295611,AV NOVA,7,5460-417,DORNELAS BTC,-7.842650636531231,41.63950268491952
pt.ine.add.PTCONT.5295623,TV DO CAMPO DA BOLA,10,5460-512,VILAR BTC,-7.741372350919214,41.6696072602804
pt.ine.add.PTCONT.5295984,R PRINCIPAL DO ALTO DO COTO,5,5460-417,DORNELAS BTC,-7.848809408269601,41.63914893352924
pt.ine.add.PTCONT.5296002,R DIREITA,18,5460-150,BEÇA,-7.691594218237063,41.68442672297081
pt.ine.add.PTCONT.5296013,R DO ESPINHEIRO,28,5460-135,BEÇA,-7.749598422713092,41.703884446502755
pt.ine.add.PTCONT.5296014,R DO PAPO DE GALO,4,5460-342,,-7.679574364152768,41.68915178670954
pt.ine.add.PTCONT.5296015,R CENTRAL,10,5460-431,FIÃES DO TAMEGA,-7.68445654634593,41.61050664427874
pt.ine.add.PTCONT.5296016,TV DO CALHAU RACHADO,2,5460-502,SAPIÃOS,-7.645803666240144,41.7106579679195
pt.ine.add.PTCONT.5296028,R 1 DE MAIO,10,5460-471,PINHO BTC,-7.634126009625147,41.657613125912604
pt.ine.add.PTCONT.5296029,R DA EIRA,20,5460-502,SAPIÃOS,-7.6445883921354545,41.707708668729744
pt.ine.add.PTCONT.5296036,R DA TORRE,7,5460-155,BEÇA,-7.687583451315306,41.68082783926969
pt.ine.add.PTCONT.5296037,R COR XAVIER TEIXEIRA,2,5460-328,BOTICAS,-7.674507351149342,41.6888885840668
pt.ine.add.PTCONT.5296045,R CENTRAL,4,5460-400,CURROS BTC,-7.700156921394936,41.64334002488623
pt.ine.add.PTCONT.5296046,TV DA COSTA,1,5460-495,SÃO SALVADOR DE VIVEIRO,-7.77817900904175,41.67356233155618
pt.ine.add.PTCONT.5296047,AV PADRE ARTUR,5,5460-502,SAPIÃOS,-7.6395489261239335,41.70995601330658
pt.ine.add.PTCONT.5296057,R DAS CALDAS,1,5460-130,BEÇA,-7.727149359158213,41.693426287367195
pt.ine.add.PTCONT.5296068,TV DO MURO,1,5460-451,GRANJA BTC,-7.648517460530824,41.69488631703632
pt.ine.add.PTCONT.5296071,LG DA CAPELA,4,5460-030,ALTURAS DO BARROSO,-7.812611506003784,41.682523002505846
pt.ine.add.PTCONT.5296072,R DO PORTO,10,5460-030,ALTURAS DO BARROSO,-7.813601597380293,41.681463340450826
pt.ine.add.PTCONT.5296082,EN 311,24,5460-125,BEÇA,-7.700699102674793,41.68251657676641
pt.ine.add.PTCONT.5296083,R 5 DE OUTUBRO,40,5460-304,BOTICAS,-7.667656435452976,41.687825637299206
pt.ine.add.PTCONT.5296084,R DO ARRABALDE,25,5460-418,DORNELAS BTC,-7.843842011758252,41.65221878424793
pt.ine.add.PTCONT.5296085,EN 312,53,5460-451,GRANJA BTC,-7.6565176607749885,41.6916605014349
pt.ine.add.PTCONT.5296091,R DO CAMPO,20,5460-100,ARDÃOS,-7.613377446945988,41.76684136828046
pt.ine.add.PTCONT.5296092,R DO PAÇO,18,5460-210,BOBADELA BTC,-7.618285042162579,41.73211027311631
pt.ine.add.PTCONT.5296093,R DOS PARDIEIROS,3,5460-494,SÃO SALVADOR DE VIVEIRO,-7.76437359820331,41.65381905436284
pt.ine.add.PTCONT.5296123,R DE STO ANTÓNIO,18,5460-100,ARDÃOS,-7.612522885123647,41.7654419738349
pt.ine.add.PTCONT.5296124,LG DO VINHOIRO,2,5460-100,ARDÃOS,-7.613297375565129,41.764842253242385
pt.ine.add.PTCONT.5296133,R DA ARGUDA,30,5460-020,ALTURAS DO BARROSO,-7.789501208499098,41.710052034312696
pt.ine.add.PTCONT.5296134,TV DO ALTO DA COSTA,,5460-120,BEÇA,-7.706170782639481,41.694178592050484
pt.ine.add.PTCONT.5296135,R DA CASTANHEIRA,6,5460-502,SAPIÃOS,-7.638482831465765,41.70952826588726
pt.ine.add.PTCONT.5296148,R DO BARREIRO,9,5460-100,ARDÃOS,-7.605575930102665,41.763492564062304
pt.ine.add.PTCONT.5296548,BC DA EIRA DO CIRURGIÃO,,5460-370,CODESSOSO,-7.707529326624728,41.66119465005661
pt.ine.add.PTCONT.5296574,R DO MUNICÍPIO,32,5460-307,BOTICAS,-7.666937987104716,41.68751660563188
pt.ine.add.PTCONT.5296581,R DO ATOLEIRO,2,5460-501,SAPIÃOS,-7.592446523573493,41.721655643466455
pt.ine.add.PTCONT.5296596,R DO BOCAL,33,5460-030,ALTURAS DO BARROSO,-7.811209948159863,41.68178979815671
pt.ine.add.PTCONT.5296616,R DA LUZ,4,5460-502,SAPIÃOS,-7.643509595165981,41.708955562155516
pt.ine.add.PTCONT.5297063,R DIREITA,24,5460-150,BEÇA,-7.691846374665086,41.6844366949145
pt.ine.add.PTCONT.5297051,TV DA ÁGUA LONGA,7,5460-417,DORNELAS BTC,-7.8505560949877795,41.63769465363523
pt.ine.add.PTCONT.5297052,R CENTRAL,41,5460-471,PINHO BTC,-7.633457856072494,41.66173385378057
pt.ine.add.PTCONT.5297064,TV DAS ESCADAS,10,5460-471,PINHO BTC,-7.633185755606087,41.661210464303466
pt.ine.add.PTCONT.5297080,R CENTRAL,3,5460-150,BEÇA,-7.691116637485027,41.68401072489847
pt.ine.add.PTCONT.5297091,R DO ESPINHEIRO,6,5460-135,BEÇA,-7.750160413669825,41.704336495937646
pt.ine.add.PTCONT.5297092,R DO PICOTO,3,5460-432,FIÃES DO TAMEGA,-7.7143569037507245,41.59691587491096
pt.ine.add.PTCONT.5297093,R 1 DE MAIO,1,5460-471,PINHO BTC,-7.634606638059226,41.657561190041555
pt.ine.add.PTCONT.5297103,R 25 DE ABRIL,5,5460-010,ALTURAS DO BARROSO,-7.822401384891861,41.704689569595374
pt.ine.add.PTCONT.5297104,R DO POÇO,1,5460-452,GRANJA BTC,-7.6557858095574485,41.69479068598097
pt.ine.add.PTCONT.5297105,LG DO CRUZEIRO,3,5460-502,SAPIÃOS,-7.6390813735938,41.709818952017116
pt.ine.add.PTCONT.5297114,R CENTRAL,40,5460-495,SÃO SALVADOR DE VIVEIRO,-7.778110272622849,41.672958880841854
pt.ine.add.PTCONT.5297121,R DO PAPO DE GALO,13,5460-342,,-7.680977880211552,41.687698746208575
pt.ine.add.PTCONT.5297122,SIT DE CELORIZ,,5460-350,CERDEDO,-7.881242835493808,41.70302388490092
pt.ine.add.PTCONT.5297123,R DA PIA,2,5460-451,GRANJA BTC,-7.648728479640508,41.69558047665387
pt.ine.add.PTCONT.5297132,R DA PIA,1,5460-451,GRANJA BTC,-7.648310547928583,41.69524558465611
pt.ine.add.PTCONT.5297141,BR DA SENHORA DO ALÍVIO,1,5460-220,BOBADELA BTC,-7.619383528508521,41.73755326742768
pt.ine.add.PTCONT.5297142,R DO PENEDO,5,5460-512,VILAR BTC,-7.7328833042666725,41.66951498873509
pt.ine.add.PTCONT.5297147,EM 1039,2,5460-370,CODESSOSO,-7.709825098341894,41.6644714220982
pt.ine.add.PTCONT.5297175,EN 311,21,5460-471,PINHO BTC,-7.635710996834089,41.663823447621226
pt.ine.add.PTCONT.5297185,R DO CIMO DE VILA,2,5460-381,COVAS DO BARROSO,-7.783893955803801,41.63599886048216
pt.ine.add.PTCONT.5297205,R DO BOLHÃO,13,5460-020,ALTURAS DO BARROSO,-7.789350693078009,41.706729290868104
pt.ine.add.PTCONT.5297674,R 25 DE ABRIL,4,5460-381,COVAS DO BARROSO,-7.785695392312457,41.635779228526985
pt.ine.add.PTCONT.5298009,R DO BONFIM,8,5460-020,ALTURAS DO BARROSO,-7.790608984054146,41.70734528636747
pt.ine.add.PTCONT.5298010,TV DA ARGUDA,8,5460-020,ALTURAS DO BARROSO,-7.7897153864797986,41.708188949224464
pt.ine.add.PTCONT.5298011,R DO CAMPO,11,5460-100,ARDÃOS,-7.6129352633776675,41.7664972383294
pt.ine.add.PTCONT.5298012,R DO BARREIRO,6,5460-100,ARDÃOS,-7.60430024982488,41.763612747166746
pt.ine.add.PTCONT.5298013,R CAMILO CASTELO BRANCO,16,5460-305,BOTICAS,-7.671447165843129,41.68682352907587
pt.ine.add.PTCONT.5298014,R PADRE CÂNDIDO LEMOS,15,5460-338,BOTICAS,-7.6670150987919286,41.69014594610406
pt.ine.add.PTCONT.5298015,R PADRE CÂNDIDO LEMOS,9,5460-338,BOTICAS,-7.667005297066282,41.689839786748024
pt.ine.add.PTCONT.5298016,R DO FUNDO DA VILA,11,5460-350,CERDEDO,-7.881308153938107,41.65854645661523
pt.ine.add.PTCONT.5298017,R DO FUNDO DA VILA,14,5460-350,CERDEDO,-7.88102099762155,41.65829372661623
pt.ine.add.PTCONT.5298034,R JOÃO PAULO II,7,5460-100,ARDÃOS,-7.611837659693588,41.76541185679977
pt.ine.add.PTCONT.5298035,R DA CASA DA FLORESTA,2,5460-100,ARDÃOS,-7.613790264606192,41.76486248896657
pt.ine.add.PTCONT.5298036,R DO LAMEIRÃO,10,5460-130,BEÇA,-7.7239515054194285,41.686248140141245
pt.ine.add.PTCONT.5298037,R DO LAJEDO,1,5460-120,BEÇA,-7.705038841820565,41.69640725310177
pt.ine.add.PTCONT.5298038,R DO ALTO DA FONTE,20,5460-120,BEÇA,-7.703862821619998,41.69441308990066
pt.ine.add.PTCONT.5298039,R DA NOGUEIRA,4,5460-120,BEÇA,-7.706216569284842,41.6945208957658
pt.ine.add.PTCONT.5298040,R DO EIRÓ,9,5460-120,BEÇA,-7.706033127750131,41.69319669717177
pt.ine.add.PTCONT.5298041,R DO EIRÓ,4,5460-120,BEÇA,-7.705875243587192,41.69345721237368
pt.ine.add.PTCONT.5298042,R DO LAVANCO,16,5460-381,COVAS DO BARROSO,-7.7801663309170594,41.63289923428855
pt.ine.add.PTCONT.5298043,R DE FRANÇA,14,5460-418,DORNELAS BTC,-7.8429874634391155,41.65271182843782
pt.ine.add.PTCONT.5298044,R OUTEIRO,30,5460-418,DORNELAS BTC,-7.840232651338852,41.648671229229045
pt.ine.add.PTCONT.5298045,R OUTEIRO,7 A,5460-418,DORNELAS BTC,-7.840232651338852,41.648671229229045
pt.ine.add.PTCONT.5298046,R OUTEIRO,7B,5460-418,DORNELAS BTC,-7.840232651338852,41.648671229229045
pt.ine.add.PTCONT.5298089,R CENTRAL,18,5460-150,BEÇA,-7.691384866641659,41.68342652661078
pt.ine.add.PTCONT.5298090,LG DO SOUTO,18,5460-220,BOBADELA BTC,-7.621091974492529,41.74038797132085
pt.ine.add.PTCONT.5298091,R DE CAMÕES,2,5460-313,BOTICAS,-7.667808231524985,41.68842948786176
pt.ine.add.PTCONT.5298092,R DE CAMÕES,2,5460-313,BOTICAS,-7.667808231524985,41.68842948786176
pt.ine.add.PTCONT.5298093,R DO SOUTO DO BRÁS,7,5460-451,GRANJA BTC,-7.6473093252734285,41.69579957408284
pt.ine.add.PTCONT.5298094,R CENTRAL,28,5460-471,PINHO BTC,-7.63242833392838,41.661342220788285
pt.ine.add.PTCONT.5298095,R CENTRAL,7,5460-471,PINHO BTC,-7.634562490895967,41.66017203133804
pt.ine.add.PTCONT.5298096,R DO CALVÁRIO,23,5460-495,SÃO SALVADOR DE VIVEIRO,-7.774640123212212,41.675063946171555
pt.ine.add.PTCONT.5298644,R DE BAIXO,2,5460-415,DORNELAS BTC,-7.840313462462579,41.62021097324473
pt.ine.add.PTCONT.5298685,TV DOS CERVOS,1,5460-100,ARDÃOS,-7.612009807403243,41.76643002085476
pt.ine.add.PTCONT.5298720,TV DA PONTE,8,5460-413,DORNELAS BTC,-7.835845296522984,41.64733643699452
pt.ine.add.PTCONT.5299210,R DIREITA,30,5460-010,ALTURAS DO BARROSO,-7.821682002374595,41.70438150289382
pt.ine.add.PTCONT.5299211,R DO BOCAL,22,5460-030,ALTURAS DO BARROSO,-7.811125428950295,41.681879596893324
pt.ine.add.PTCONT.5299265,R DO VINHOIRO,8,5460-100,ARDÃOS,-7.613079685627783,41.76499432580364
pt.ine.add.PTCONT.5299266,R DIREITA,6,5460-135,BEÇA,-7.752777381174954,41.70470532688362
pt.ine.add.PTCONT.5299323,R DA TORRE,32,5460-155,BEÇA,-7.687651199107643,41.67971166341006
pt.ine.add.PTCONT.5299324,TV DA JARELA,6,5460-220,BOBADELA BTC,-7.622241820785978,41.740915288402384
pt.ine.add.PTCONT.5299325,R DA ALBERGARIA,6,5460-326,BOTICAS,-7.674428300766658,41.69156231359435
pt.ine.add.PTCONT.5299326,R DO PINHEIRO,6,5460-324,BOTICAS,-7.6726063789799275,41.691014816678845
pt.ine.add.PTCONT.5299367,R DE STO ALEIXO,17,5460-323,BOTICAS,-7.671671278033856,41.69075896749505
pt.ine.add.PTCONT.5299368,R CAMILO CASTELO BRANCO,75,5460-305,BOTICAS,-7.6777061991680515,41.688352089336256
pt.ine.add.PTCONT.5299369,R CAMILO CASTELO BRANCO,58,5460-305,BOTICAS,-7.679906692549345,41.688009650414166
pt.ine.add.PTCONT.5299370,BR DA RAPOSEIRA,26,5460-320,BOTICAS,-7.6627324501066365,41.697628422350604
pt.ine.add.PTCONT.5299371,R DO CRUZEIRO,3,5460-320,BOTICAS,-7.664540011106644,41.69354821351081
pt.ine.add.PTCONT.5299415,R DO RABO DA GATA,17,5460-350,CERDEDO,-7.879538145205016,41.70268700590618
pt.ine.add.PTCONT.5299416,R CENTRAL,30,5460-370,CODESSOSO,-7.708331243932014,41.66340349036968
pt.ine.add.PTCONT.5299417,ESTR MUNICIPAL,,5460-381,COVAS DO BARROSO,-7.78243488644244,41.63947881760902
pt.ine.add.PTCONT.5299469,R DE FRANÇA,16,5460-418,DORNELAS BTC,-7.842890981390161,41.65281062444941
pt.ine.add.PTCONT.5299470,LG DO GUITEIRO,7,5460-417,DORNELAS BTC,-7.849186246034949,41.64079752704138
pt.ine.add.PTCONT.5299517,LG DO MEIO DA ALDEIA,6,5460-451,GRANJA BTC,-7.6501762289522945,41.69474924334975
pt.ine.add.PTCONT.5299575,R DA LIBERDADE,4,5460-501,SAPIÃOS,-7.592150021918336,41.721186068284325
pt.ine.add.PTCONT.5299576,R CASTANHEIRA,7,5460-502,SAPIÃOS,-7.638448650107462,41.70928502471657
pt.ine.add.PTCONT.5299611,R DA COSTA,9,5460-512,VILAR BTC,-7.737750873262701,41.67076532279426
pt.ine.add.PTCONT.5299660,R DO CALVÁRIO,3,5460-495,SÃO SALVADOR DE VIVEIRO,-7.77246769417061,41.67485006827061
pt.ine.add.PTCONT.5299679,R DO MURO,3,5460-451,GRANJA BTC,-7.647987500815314,41.69507315482044
pt.ine.add.PTCONT.5300114,TV DO ALTO DO COTO,2,5460-417,DORNELAS BTC,-7.847057289751039,41.63909956870834
pt.ine.add.PTCONT.5300115,TV DO VAL,1,5460-502,SAPIÃOS,-7.640561601435777,41.71266140233128
pt.ine.add.PTCONT.5300140,R ÂNGELA DE SOUSA,4,5460-327,BOTICAS,-7.674367616703546,41.68995944523893
pt.ine.add.PTCONT.5300151,R DO SANTO,6,5460-135,BEÇA,-7.753282417069584,41.702591172786825
pt.ine.add.PTCONT.5300152,R PADRE CÂNDIDO LEMOS,13,5460-338,BOTICAS,-7.667003672308511,41.690064868104145
pt.ine.add.PTCONT.5300162,LG DO CRUZEIRO,6,5460-502,SAPIÃOS,-7.638756071553922,41.7099345983573
pt.ine.add.PTCONT.5300185,TV DA BOBIANA,8,5460-495,SÃO SALVADOR DE VIVEIRO,-7.777184140074869,41.67322612334335
pt.ine.add.PTCONT.5300192,R DO SOUTO,4,5460-451,GRANJA BTC,-7.650379494353751,41.694876146437636
pt.ine.add.PTCONT.5300193,R DO CABO,14,5460-495,SÃO SALVADOR DE VIVEIRO,-7.776475394804758,41.673268944146486
pt.ine.add.PTCONT.5300209,TV DO BARREIRO,4,5460-451,GRANJA BTC,-7.649352714830819,41.69403450268836
pt.ine.add.PTCONT.5300221,EN 311,55,5460-125,BEÇA,-7.7045447031261105,41.68036112869949
pt.ine.add.PTCONT.5300222,R DA PORTELA,2,5460-493,SÃO SALVADOR DE VIVEIRO,-7.764121529519023,41.65591608095158
pt.ine.add.PTCONT.5300231,R DO CAMPO DA BOLA,5,5460-494,SÃO SALVADOR DE VIVEIRO,-7.766665749689956,41.65396143845476
pt.ine.add.PTCONT.5300237,R CAMILO CASTELO BRANCO,26,5460-305,BOTICAS,-7.672276360182023,41.68676383226816
pt.ine.add.PTCONT.5300246,R DA CASA DA FLORESTA,,5460-416,DORNELAS BTC,-7.849891532440178,41.64419362949331
pt.ine.add.PTCONT.5300263,R CENTRAL,1,5460-417,DORNELAS BTC,-7.842626955510469,41.639430596132954
pt.ine.add.PTCONT.5300740,R HUMBERTO DELGADO,11,5460-010,ALTURAS DO BARROSO,-7.822706030069799,41.70379904487446
pt.ine.add.PTCONT.5300775,TV DO CANTO,5,5460-300,BOTICAS,-7.66819634577039,41.6879088543432
pt.ine.add.PTCONT.5300777,R DO SANTO,13,5460-135,BEÇA,-7.752963481365777,41.70370655333285
pt.ine.add.PTCONT.5300823,R CENTRAL,8,5460-472,PINHO BTC,-7.626946876855406,41.64070903557552
pt.ine.add.PTCONT.5300833,R CENTRAL,17,5460-472,PINHO BTC,-7.627164042240785,41.640565934217186
pt.ine.add.PTCONT.5301127,R DO VINHAL,3,5460-502,SAPIÃOS,-7.6392778169407,41.70927058389619
pt.ine.add.PTCONT.5301140,EN 311,2,5460-150,BEÇA,-7.689494233048317,41.68939758623894
pt.ine.add.PTCONT.5301141,R DO MURO,2,5460-502,SAPIÃOS,-7.638029149240537,41.71384798238023
pt.ine.add.PTCONT.5301142,EN 103,34,5460-502,SAPIÃOS,-7.642455265782101,41.71013952522992
pt.ine.add.PTCONT.5301153,R DA COSTA,20,5460-381,COVAS DO BARROSO,-7.780750098568301,41.63589022692736
pt.ine.add.PTCONT.5301165,TV DE INFESTA,4,5460-020,ALTURAS DO BARROSO,-7.7908565854970435,41.70596848734856
pt.ine.add.PTCONT.5301166,R DO FUNDO DA VILA,1,5460-381,COVAS DO BARROSO,-7.784587090594274,41.6320933926529
pt.ine.add.PTCONT.5301174,R DIREITA,17 A,5460-135,BEÇA,-7.752055197647504,41.70492802219121
pt.ine.add.PTCONT.5301175,R ENG CALDEIRA PAIS,10,5460-316,BOTICAS,-7.668920020016458,41.68916326884981
pt.ine.add.PTCONT.5301182,BR DAS CALDAS,,5460-130,BEÇA,-7.727580200578649,41.69750640196769
pt.ine.add.PTCONT.5301183,R CENTRAL,3,5460-472,PINHO BTC,-7.626704084944508,41.64105910614656
pt.ine.add.PTCONT.5301191,R DA CASTELHANA,1,5460-130,BEÇA,-7.729273176452774,41.69188516401935
pt.ine.add.PTCONT.5301192,R DO BR NOVO,3,5460-495,SÃO SALVADOR DE VIVEIRO,-7.77263938532908,41.67636320400426
pt.ine.add.PTCONT.5301208,R DA PIA,14,5460-451,GRANJA BTC,-7.649731439492547,41.694792390937394
pt.ine.add.PTCONT.5301217,R DO PORTO,32,5460-030,ALTURAS DO BARROSO,-7.81375932987283,41.68113965103765
pt.ine.add.PTCONT.5301218,R DA CAPELA,12,5460-220,BOBADELA BTC,-7.622887165504908,41.74139533768343
pt.ine.add.PTCONT.5301219,R JOÃO DE DEUS,53,5460-309,BOTICAS,-7.671448685217386,41.68829110930241
pt.ine.add.PTCONT.5301220,R CENTRAL DO BARREIRO,16,5460-350,CERDEDO,-7.880889944374516,41.66111156279417
pt.ine.add.PTCONT.5301221,TV DO EIRÃO,4,5460-492,SÃO SALVADOR DE VIVEIRO,-7.796506877443493,41.65922976127318
pt.ine.add.PTCONT.5301222,R DO PENEDO,10,5460-512,VILAR BTC,-7.733255430611471,41.66953429105025
pt.ine.add.PTCONT.5301245,R CENTRAL,13,5460-145,BEÇA,-7.6939335267342575,41.70779079634186
pt.ine.add.PTCONT.5301246,LG DA SENHORA DA GUADALUPE,2,5460-370,CODESSOSO,-7.706355227000926,41.66081214691985
pt.ine.add.PTCONT.5301265,R DE STO ANTÓNIO,,5460-411,DORNELAS BTC,-7.83454912396925,41.64208397341227
pt.ine.add.PTCONT.5301277,R DO CARRIL,17,5460-120,BEÇA,-7.7069024579579235,41.69434337114726
pt.ine.add.PTCONT.5301278,R CENTRAL,14,5460-370,CODESSOSO,-7.718206526050393,41.64942099185689
pt.ine.add.PTCONT.5301279,R DO ALTO DOS CORTELHOS,1,5460-417,DORNELAS BTC,-7.851616625150586,41.63945296155253
pt.ine.add.PTCONT.5301280,R DO CALVÁRIO,15,5460-471,PINHO BTC,-7.6351720244463825,41.663650046413096
pt.ine.add.PTCONT.5301290,R DO CARRIL,9,5460-120,BEÇA,-7.706610714347689,41.69486449276838
pt.ine.add.PTCONT.5301291,R DA COSTA,8,5460-381,COVAS DO BARROSO,-7.780056861790154,41.635365890051
pt.ine.add.PTCONT.5302193,R 5 DE OUTUBRO,31,5460-471,PINHO BTC,-7.638251459330314,41.662907047337235
pt.ine.add.PTCONT.5302194,EN 103,19,5460-501,SAPIÃOS,-7.640871065567443,41.70832305012795
pt.ine.add.PTCONT.5302202,TV DO PAPO DE GALO,5,5460-342,,-7.6804527623635,41.688930161733204
pt.ine.add.PTCONT.5302217,R DE INFESTA,4,5460-020,ALTURAS DO BARROSO,-7.79092719277446,41.70624780637494
pt.ine.add.PTCONT.5302218,R DO COUTO,3,5460-471,PINHO BTC,-7.63234575683564,41.66115278634681
pt.ine.add.PTCONT.5302227,R DO FUNDO DA VILA,6,5460-381,COVAS DO BARROSO,-7.785952213661782,41.63041384544395
pt.ine.add.PTCONT.5302228,R 1 DE MAIO,9,5460-471,PINHO BTC,-7.634079447983877,41.65742384893933
pt.ine.add.PTCONT.5302238,EN 103,48,5460-502,SAPIÃOS,-7.6432018721305655,41.706757400070266
pt.ine.add.PTCONT.5302257,BR DAS CALDAS,14,5460-130,BEÇA,-7.727086710376663,41.69765771928263
pt.ine.add.PTCONT.5302267,R DO LAMEIRÃO,14,5460-130,BEÇA,-7.724791405295728,41.68638618017286
pt.ine.add.PTCONT.5302268,R COR XAVIER TEIXEIRA,11,5460-328,BOTICAS,-7.674677361286286,41.68862816024098
pt.ine.add.PTCONT.5302269,TV POCA CRUZ,,5460-319,BOTICAS,-7.6752085325122,41.68825212989824
pt.ine.add.PTCONT.5302281,R DO OUTEIRO,5,5460-495,SÃO SALVADOR DE VIVEIRO,-7.77572045758591,41.6729784852878
pt.ine.add.PTCONT.5302282,R DO PICOTO,2,5460-492,SÃO SALVADOR DE VIVEIRO,-7.7954647809425825,41.661063435362344
pt.ine.add.PTCONT.5302289,R DO ARRABALDE DE CIMA,1,5460-491,SÃO SALVADOR DE VIVEIRO,-7.807078431859896,41.65799072803935
pt.ine.add.PTCONT.5302297,R PASCOAL,11,5460-318,BOTICAS,-7.6706091360525015,41.68811666688314
pt.ine.add.PTCONT.5302298,R DOS BARREIROS,6,5460-370,CODESSOSO,-7.705792075341249,41.660638986837355
pt.ine.add.PTCONT.5302299,LG DA RUA,3,5460-493,SÃO SALVADOR DE VIVEIRO,-7.764597891845961,41.65448603910548
pt.ine.add.PTCONT.5302300,TV DA IGREJA,7,5460-512,VILAR BTC,-7.736776802987903,41.66707951183638
pt.ine.add.PTCONT.5302310,R CENTRAL,13,5460-145,BEÇA,-7.693593435027289,41.7083297057414
pt.ine.add.PTCONT.5302322,LG DO ARADO,9,5460-100,ARDÃOS,-7.610745910908124,41.76509177958885
pt.ine.add.PTCONT.5302347,R CENTRAL,,5460-370,CODESSOSO,-7.718339204379113,41.64932243121667
pt.ine.add.PTCONT.5302348,R DA CASA DA FLORESTA,7,5460-417,DORNELAS BTC,-7.84914747177778,41.64142768441187
pt.ine.add.PTCONT.5302358,R DO BOLHÃO,1,5460-020,ALTURAS DO BARROSO,-7.789194262481532,41.706773840370865
pt.ine.add.PTCONT.5302359,R DA CASA DA FLORESTA,6,5460-417,DORNELAS BTC,-7.848608622050044,41.64113823631413
pt.ine.add.PTCONT.5302806,R COR XAVIER TEIXEIRA,11,5460-328,BOTICAS,-7.674677361286286,41.68862816024098
pt.ine.add.PTCONT.5302807,EN 103,17,5460-502,SAPIÃOS,-7.641670979086786,41.708992731555256
pt.ine.add.PTCONT.5303206,TV DA COROA DA RUA,,5460-165,BEÇA,-7.734388940601469,41.709612931042514
pt.ine.add.PTCONT.5303207,R DO CANTO DO AMEDO,5,5460-320,BOTICAS,-7.667223502012505,41.69289286331257
pt.ine.add.PTCONT.5303215,R DIREITA,5,5460-165,BEÇA,-7.731022498062064,41.70609884051319
pt.ine.add.PTCONT.5303216,R AFONSO ANES BARROSO,21,5460-302,BOTICAS,-7.6802745034137345,41.69037002273858
pt.ine.add.PTCONT.5303217,R DO BARREIRO,19,5460-381,COVAS DO BARROSO,-7.78173392763616,41.63594726011797
pt.ine.add.PTCONT.5303228,R DIREITA,8,5460-135,BEÇA,-7.7527285282235505,41.704840217788266
pt.ine.add.PTCONT.5303229,R DO FUNDO DA VILA,3,5460-381,COVAS DO BARROSO,-7.784335996046886,41.6319215622455
pt.ine.add.PTCONT.5303240,R ENG CALDEIRA PAIS,8,5460-316,BOTICAS,-7.668872428228054,41.68910005198117
pt.ine.add.PTCONT.5303241,TV DO MURO,4,5460-382,COVAS DO BARROSO,-7.771546966386892,41.62691204678511
pt.ine.add.PTCONT.5303242,TV DO FORNO,11,5460-432,FIÃES DO TAMEGA,-7.713467585159448,41.597182742410766
pt.ine.add.PTCONT.5303252,R DA FRAGA,5,5460-160,BEÇA,-7.6815348063526665,41.666452581233465
pt.ine.add.PTCONT.5303253,R DO CEMITÉRIO,,5460-160,BEÇA,-7.678739429761254,41.667828112053435
pt.ine.add.PTCONT.5303254,R DE SANGUNDEDO,55,5460-330,BOTICAS,-7.669012680219648,41.68964082957288
pt.ine.add.PTCONT.5303274,R DIREITA,6,5460-400,CURROS BTC,-7.666893376395249,41.63377415370496
pt.ine.add.PTCONT.5303275,R DO BR NOVO,20,5460-495,SÃO SALVADOR DE VIVEIRO,-7.775473412588463,41.67422020781935
pt.ine.add.PTCONT.5303276,TV DA GAIOSA,1,5460-512,VILAR BTC,-7.739373360402304,41.67250857880021
pt.ine.add.PTCONT.5303281,R DAS FONTELAS,10,5460-413,DORNELAS BTC,-7.841602175057416,41.653761744430525
pt.ine.add.PTCONT.5303282,R DO MURO,2,5460-451,GRANJA BTC,-7.648225920741453,41.69531725568386
pt.ine.add.PTCONT.5303288,BC DA JARELA,4,5460-220,BOBADELA BTC,-7.622954823397246,41.740441274366816
pt.ine.add.PTCONT.5303289,R JOÃO DE DEUS,69,5460-309,BOTICAS,-7.672121047714297,41.6883298222866
pt.ine.add.PTCONT.5303290,R JOÃO DE DEUS,49,5460-309,BOTICAS,-7.671088482166357,41.68827165476754
pt.ine.add.PTCONT.5303291,R DE FRANÇA,12,5460-418,DORNELAS BTC,-7.8426626088616755,41.65287307279958
pt.ine.add.PTCONT.5303302,R DOS CASTANHEIROS,6,5460-494,SÃO SALVADOR DE VIVEIRO,-7.765001445551087,41.65529765492555
pt.ine.add.PTCONT.5303303,R DO CABANAL,2,5460-494,SÃO SALVADOR DE VIVEIRO,-7.764540946824895,41.65394564131234
pt.ine.add.PTCONT.5303304,TV DA IGREJA,2,5460-512,VILAR BTC,-7.736850944193423,41.66673763205348
pt.ine.add.PTCONT.5303312,BC DA EIRA DO CIRURGIÃO,5,5460-370,CODESSOSO,-7.707491826232778,41.66141960041094
pt.ine.add.PTCONT.5303322,LG DO ARADO,1,5460-100,ARDÃOS,-7.610372250716922,41.76519812081513
pt.ine.add.PTCONT.5303323,R DO TORREIO,8,5460-210,BOBADELA BTC,-7.618677053170273,41.73118467394423
pt.ine.add.PTCONT.5303324,BR DA RAPOSEIRA,1,5460-320,BOTICAS,-7.662201463604824,41.69631173591262
pt.ine.add.PTCONT.5303325,EN 311,40,5460-471,PINHO BTC,-7.634169097315572,41.664474024020755
pt.ine.add.PTCONT.5303326,R PRINCIPAL,1,5460-501,SAPIÃOS,-7.596366790283279,41.72424000629022
pt.ine.add.PTCONT.5303327,R DA FRAGA,9,5460-501,SAPIÃOS,-7.591631701205475,41.72280424908248
pt.ine.add.PTCONT.5303344,AV NOVA,14,5460-417,DORNELAS BTC,-7.84382588937208,41.639721735378124
pt.ine.add.PTCONT.5303345,EN 311,20,5460-471,PINHO BTC,-7.62839891612967,41.66534918611936
pt.ine.add.PTCONT.5303352,R DA FONTE,32,5460-381,COVAS DO BARROSO,-7.783594514327899,41.63366601297661
pt.ine.add.PTCONT.5303362,LG DO ARADO,3,5460-100,ARDÃOS,-7.61105995451668,41.76492214252878
pt.ine.add.PTCONT.5303819,EN 311,2,5460-418,DORNELAS BTC,-7.838010620564715,41.65421176325632
pt.ine.add.PTCONT.5303837,R DO SOBREIRO,8,5460-100,ARDÃOS,-7.612996481776026,41.7663624646306
pt.ine.add.PTCONT.5304219,R DO EIRÓ,7,5460-120,BEÇA,-7.705454522606744,41.69350066516584
pt.ine.add.PTCONT.5304220,AV DE S BARTOLOMEU,10,5460-120,BEÇA,-7.703444489861361,41.694096403590486
pt.ine.add.PTCONT.5304221,R DO ALTO DA FONTE,3,5460-120,BEÇA,-7.702950610163487,41.69430163696094
pt.ine.add.PTCONT.5304222,R DO CRUZEIRO,5,5460-320,BOTICAS,-7.664478970698173,41.69368301729771
pt.ine.add.PTCONT.5304223,R 5 DE OUTUBRO,21,5460-471,PINHO BTC,-7.637246730401628,41.66240752159987
pt.ine.add.PTCONT.5304232,R DA ARGUDA,21,5460-020,ALTURAS DO BARROSO,-7.789616199732847,41.708764877105246
pt.ine.add.PTCONT.5304233,TV DO SOUTO DA LAMA,6,5460-165,BEÇA,-7.733041613576902,41.70793359791137
pt.ine.add.PTCONT.5304234,R DO PAPO DE GALO,16,5460-342,,-7.680731605935378,41.688562115268184
pt.ine.add.PTCONT.5304235,R PROFÍRIO MAIA AGOSTINHO,4,5460-326,BOTICAS,-7.674689814609149,41.690257846992395
pt.ine.add.PTCONT.5304236,R DO CANTO DO AMEDO,11,5460-320,BOTICAS,-7.66700364774182,41.69339616857195
pt.ine.add.PTCONT.5304246,R 1 DE MAIO,7,5460-150,BEÇA,-7.690737364675596,41.68327097612033
pt.ine.add.PTCONT.5304247,R DA CRUZ DAS ALMAS,10,5460-320,BOTICAS,-7.662008571111882,41.691467056482495
pt.ine.add.PTCONT.5304248,R CENTRAL,19,5460-471,PINHO BTC,-7.633331776372853,41.66095899970907
pt.ine.add.PTCONT.5304266,R DIREITA,9,5460-135,BEÇA,-7.751599559678947,41.70477345087979
pt.ine.add.PTCONT.5304267,R DO ADRO,,5460-432,FIÃES DO TAMEGA,-7.711743930835926,41.5966362179296
pt.ine.add.PTCONT.5304279,R DE S JOSÉ,18,5460-383,COVAS DO BARROSO,-7.776707236232101,41.62686513569506
pt.ine.add.PTCONT.5304280,R CENTRAL,1,5460-472,PINHO BTC,-7.626702816148893,41.64122116513455
pt.ine.add.PTCONT.5304284,R DA LAGE,1,5460-311,BOTICAS,-7.665813089121343,41.688601463289075
pt.ine.add.PTCONT.5304288,R DO LAMEIRÃO,12,5460-130,BEÇA,-7.724503317144076,41.686358145699955
pt.ine.add.PTCONT.5304289,R DA ESCOLA,1,5460-350,CERDEDO,-7.87867858405711,41.70435075751478
pt.ine.add.PTCONT.5304290,TV DO COUTO,9,5460-511,VILAR BTC,-7.7481687519897475,41.68574657459435
pt.ine.add.PTCONT.5304304,R CAMILO CASTELO BRANCO,57,5460-305,BOTICAS,-7.675074942016498,41.688458678555946
pt.ine.add.PTCONT.5304315,TV DO PEREIRO,1,5460-512,VILAR BTC,-7.733866439070216,41.66781673503063
pt.ine.add.PTCONT.5304323,R DA FONTE,20,5460-473,PINHO BTC,-7.616942273868255,41.67309537449934
pt.ine.add.PTCONT.5304332,R CARVALHAL,23,5460-413,DORNELAS BTC,-7.832076392711292,41.64727260687407
pt.ine.add.PTCONT.5304342,R DO FORNO,7,5460-210,BOBADELA BTC,-7.620255176906046,41.73224513135708
pt.ine.add.PTCONT.5304352,R DO SOBREIRO,1,5460-100,ARDÃOS,-7.612830161339993,41.766109616652905
pt.ine.add.PTCONT.5304353,BR DA CISTERNA,18,5460-120,BEÇA,-7.701891128355279,41.694657807117295
pt.ine.add.PTCONT.5304354,R DA FONTE DAS HORTAS,5,5460-210,BOBADELA BTC,-7.621035557722867,41.73084407418112
pt.ine.add.PTCONT.5304361,AV NOVA,9,5460-417,DORNELAS BTC,-7.842746088610083,41.63962897672326
pt.ine.add.PTCONT.5304362,EN 103,15,5460-501,SAPIÃOS,-7.588966494660697,41.72105399242554
pt.ine.add.PTCONT.5304374,R DO OUTEIRO DA MILHERA,1,5460-100,ARDÃOS,-7.614648489366878,41.76132803056123
pt.ine.add.PTCONT.5304850,R DAS OLIVEIRAS,8,5460-381,COVAS DO BARROSO,-7.789064073568406,41.62972091801223
pt.ine.add.PTCONT.5304866,LG DA PORTELA,15,5460-220,BOBADELA BTC,-7.621210981733496,41.74356671216746
pt.ine.add.PTCONT.5304912,TV DO ALTO DA FONTE,18,5460-120,BEÇA,-7.704578835849488,41.695127039736136
pt.ine.add.PTCONT.5305399,CAM DA VEIGA,20,5460-030,ALTURAS DO BARROSO,-7.809654006550997,41.68071400735792
pt.ine.add.PTCONT.5305440,R DO CAMPO,5,5460-100,ARDÃOS,-7.612467068297692,41.76639608032498
pt.ine.add.PTCONT.5305441,R DIREITA,24,5460-165,BEÇA,-7.732629422050913,41.70852639310363
pt.ine.add.PTCONT.5305442,EN 311,23,5460-125,BEÇA,-7.699962933389645,41.68125330973776
pt.ine.add.PTCONT.5305494,R DA FONTE DE BAIXO,3,5460-155,BEÇA,-7.687271882656577,41.680727592174804
pt.ine.add.PTCONT.5305495,R DO PENEDO,2,5460-160,BEÇA,-7.681582723787552,41.66303141692747
pt.ine.add.PTCONT.5305496,R DA PIPA,14,5460-220,BOBADELA BTC,-7.622981622276508,41.74161183940842
pt.ine.add.PTCONT.5305497,R LOURA,9,5460-210,BOBADELA BTC,-7.617979738006525,41.73120856033512
pt.ine.add.PTCONT.5305498,R DO PAPO DE GALO,24,5460-342,,-7.680810386570328,41.68931872113958
pt.ine.add.PTCONT.5305538,R DA TRANCADA,4,5460-306,BOTICAS,-7.664937191535382,41.69344179005685
pt.ine.add.PTCONT.5305539,R DO OLIVAL,4,5460-311,BOTICAS,-7.665941198784783,41.69081684955332
pt.ine.add.PTCONT.5305540,R DO OLIVAL,5,5460-311,BOTICAS,-7.668106515451954,41.690375455195706
pt.ine.add.PTCONT.5305541,AV DA NORA,5,5460-331,BOTICAS,-7.664848350084213,41.68747209652682
pt.ine.add.PTCONT.5305611,R DA NAVALHEIRA,3,5460-333,BOTICAS,-7.659621307725881,41.6844885215537
pt.ine.add.PTCONT.5305612,R CENTRAL,,5460-370,CODESSOSO,-7.706470590525868,41.65970513608843
pt.ine.add.PTCONT.5305613,R CENTRAL,12,5460-370,CODESSOSO,-7.71830388574841,41.64921426070271
pt.ine.add.PTCONT.5305614,R DO CIMO DE VILA,29,5460-381,COVAS DO BARROSO,-7.784488694704394,41.63699106357408
pt.ine.add.PTCONT.5305615,R DA FONTE,15,5460-381,COVAS DO BARROSO,-7.784038651592557,41.633649355271594
pt.ine.add.PTCONT.5305616,R DAS OLIVEIRAS,17,5460-381,COVAS DO BARROSO,-7.78695046946952,41.63000268893862
pt.ine.add.PTCONT.5305617,R DA VEIGA,3,5460-383,COVAS DO BARROSO,-7.775937161156759,41.62724089812588
pt.ine.add.PTCONT.5305618,R DIREITA,4,5460-383,COVAS DO BARROSO,-7.776472945869059,41.62582899141061
pt.ine.add.PTCONT.5305685,TV DA PORTELA,6,5460-418,DORNELAS BTC,-7.841704625664658,41.652339435883306
pt.ine.add.PTCONT.5305686,R DO OUTEIRO,35,5460-413,DORNELAS BTC,-7.833369325053134,41.64802328481231
pt.ine.add.PTCONT.5305687,R DE STO ANTÓNIO,36,5460-411,DORNELAS BTC,-7.8349879122512025,41.64323757465788
pt.ine.add.PTCONT.5305688,R DA CASA DA FLORESTA,37,5460-417,DORNELAS BTC,-7.849764659889882,41.65123413680039
pt.ine.add.PTCONT.5305689,EM DAS LOUSAS,7,5460-417,DORNELAS BTC,-7.849527249599472,41.639672916573545
pt.ine.add.PTCONT.5305690,R DAS BOUÇAS,3,5460-417,DORNELAS BTC,-7.850522567032473,41.63712734301172
pt.ine.add.PTCONT.5305691,R DE CHAVES,,5460-431,FIÃES DO TAMEGA,-7.6842526657866195,41.61049684479302
pt.ine.add.PTCONT.5305745,TV DO CANTO DO BARREIRO,2,5460-451,GRANJA BTC,-7.649832996409096,41.69406353388178
pt.ine.add.PTCONT.5305746,TV DO BARREIRO,3,5460-451,GRANJA BTC,-7.649652814917634,41.694062776047524
pt.ine.add.PTCONT.5305747,EN 312,36,5460-451,GRANJA BTC,-7.643190024292946,41.70357011395248
pt.ine.add.PTCONT.5305748,R DA FONTE,31,5460-473,PINHO BTC,-7.615984721376344,41.67270391807509
pt.ine.add.PTCONT.5305749,R DA FONTE,15,5460-473,PINHO BTC,-7.6141808363477,41.673028918481435
pt.ine.add.PTCONT.5305750,EN 311,3,5460-471,PINHO BTC,-7.631449742827361,41.66521848555587
pt.ine.add.PTCONT.5305814,TV DO CANTO,11,5460-495,SÃO SALVADOR DE VIVEIRO,-7.776553441645305,41.67435861676215
pt.ine.add.PTCONT.5305815,LG DA RUA,2,5460-493,SÃO SALVADOR DE VIVEIRO,-7.764382214033526,41.65441331874427
pt.ine.add.PTCONT.5305816,R PRINCIPAL,16,5460-501,SAPIÃOS,-7.59740127779314,41.724127788804516
pt.ine.add.PTCONT.5305817,R DO ATOLEIRO,36,5460-501,SAPIÃOS,-7.597947448776463,41.72348208505466
pt.ine.add.PTCONT.5305818,R CASTANHEIRA,3,5460-502,SAPIÃOS,-7.638423653971866,41.70941096588225
pt.ine.add.PTCONT.5305819,BR COTULO,22,5460-502,SAPIÃOS,-7.639226291020162,41.71286275121691
pt.ine.add.PTCONT.5305820,TV ENTRE ESTRADAS,2,5460-502,SAPIÃOS,-7.641392304576076,41.7092976579359
pt.ine.add.PTCONT.5305894,R DO PENEDO,12,5460-512,VILAR BTC,-7.733397796206448,41.66981389656218
pt.ine.add.PTCONT.5306044,R DA ESCOLA,7,5460-472,PINHO BTC,-7.625128967489071,41.641412299657546
pt.ine.add.PTCONT.5306328,TV DE INFESTA,2,5460-020,ALTURAS DO BARROSO,-7.790976587591226,41.70599585519887
pt.ine.add.PTCONT.5306329,R DA COSTA,4,5460-010,ALTURAS DO BARROSO,-7.822028072765902,41.704868629960885
pt.ine.add.PTCONT.5306330,R DO FORNO,18,5460-100,ARDÃOS,-7.611593726400227,41.76583390918061
pt.ine.add.PTCONT.5306331,R DO COLÉGIO,7,5460-320,BOTICAS,-7.6640336089203105,41.693807249537386
pt.ine.add.PTCONT.5306332,R DR JOÃO BAPTISTA QUEIROGA,3,5460-301,BOTICAS,-7.6633332577428535,41.69100429617578
pt.ine.add.PTCONT.5306333,R DO VALE,4,5460-370,CODESSOSO,-7.707403367285229,41.66026681596861
pt.ine.add.PTCONT.5306334,R CENTRAL,39,5460-370,CODESSOSO,-7.7160481107776775,41.652780521656375
pt.ine.add.PTCONT.5306335,R DA OLIVEIRA,3,5460-502,SAPIÃOS,-7.639024469737779,41.70940454716407
pt.ine.add.PTCONT.5306336,TV DA EIRA,4,5460-502,SAPIÃOS,-7.644831526760626,41.71050978573063
pt.ine.add.PTCONT.5306337,R DA CORTINHA,5,5460-502,SAPIÃOS,-7.6433396663215225,41.71076453816442
pt.ine.add.PTCONT.5306338,EN 103,46,5460-502,SAPIÃOS,-7.642968126981632,41.707476682345145
pt.ine.add.PTCONT.5306367,R DIREITA,41,5460-165,BEÇA,-7.733445905136037,41.71055502225701
pt.ine.add.PTCONT.5306368,R DO CARREIRÃO,4,5460-130,BEÇA,-7.729324132362885,41.68949940883197
pt.ine.add.PTCONT.5306369,R ACURCIO AMANDIO CASTRO,1,5460-381,COVAS DO BARROSO,-7.78364435569077,41.63554792104806
pt.ine.add.PTCONT.5306370,R DA CORGA DO REGO,8,5460-418,DORNELAS BTC,-7.845360785704537,41.65352811795636
pt.ine.add.PTCONT.5306371,R DA VINHA,,5460-418,DORNELAS BTC,-7.842598469010962,41.65111720896066
pt.ine.add.PTCONT.5306372,R DO FUNDO DA RUA,5,5460-412,DORNELAS BTC,-7.888950926771089,41.63443326678123
pt.ine.add.PTCONT.5306373,R DA RAPOSEIRA,6,5460-431,FIÃES DO TAMEGA,-7.6868474991212,41.61173144222827
pt.ine.add.PTCONT.5306374,R DA RAPOSEIRA,11,5460-431,FIÃES DO TAMEGA,-7.68603370090373,41.61144016376645
pt.ine.add.PTCONT.5306375,R DA RAPOSEIRA,7,5460-431,FIÃES DO TAMEGA,-7.685097948943607,41.611436520934035
pt.ine.add.PTCONT.5306407,R CENTRALAL,16,5460-160,BEÇA,-7.681049887123136,41.6653972588028
pt.ine.add.PTCONT.5306408,R DA PEDREIRA,16,5460-220,BOBADELA BTC,-7.622149324748679,41.74196827848492
pt.ine.add.PTCONT.5306409,R DA CAPELA,10,5460-220,BOBADELA BTC,-7.622947768673203,41.741332582758645
pt.ine.add.PTCONT.5306410,R AFONSO ANES BARROSO,4,5460-302,BOTICAS,-7.678220582894412,41.68865124266409
pt.ine.add.PTCONT.5306411,R DA RAPOSEIRA,7,5460-431,FIÃES DO TAMEGA,-7.685097948943607,41.611436520934035
pt.ine.add.PTCONT.5306412,EN 312,17,5460-451,GRANJA BTC,-7.648808648920862,41.69610301786275
pt.ine.add.PTCONT.5306413,R CENTRAL,56,5460-471,PINHO BTC,-7.633426221428452,41.664272718667945
pt.ine.add.PTCONT.5306414,R DO COUTO,18,5460-471,PINHO BTC,-7.632080997839279,41.66123266456309
pt.ine.add.PTCONT.5306415,R DO CALVÁRIO,5,5460-495,SÃO SALVADOR DE VIVEIRO,-7.772395340259248,41.67490386254822
pt.ine.add.PTCONT.5306416,TV DA BOBIANA,1,5460-495,SÃO SALVADOR DE VIVEIRO,-7.776895937984346,41.67322523049335
pt.ine.add.PTCONT.5307048,TV DO LAMEIRÃO,7,5460-130,BEÇA,-7.725274623136032,41.685946722864365
pt.ine.add.PTCONT.5307137,R DIREITA,28,5460-165,BEÇA,-7.733465336954953,41.70935762489595
pt.ine.add.PTCONT.5307138,R DA GAIOSA,46,5460-512,VILAR BTC,-7.739999377265056,41.67224961854788
pt.ine.add.PTCONT.5307456,R DA LAGE,14,5460-381,COVAS DO BARROSO,-7.782790441768865,41.633663565388424
pt.ine.add.PTCONT.5307457,BC DO ALTO DO COTO,1,5460-417,DORNELAS BTC,-7.850453273873275,41.63925202722746
pt.ine.add.PTCONT.5307458,LG DA VEZEIRA,1,5460-502,SAPIÃOS,-7.640145573109191,41.70892317373504
pt.ine.add.PTCONT.5307469,TV DE SILVAR,2,5460-020,ALTURAS DO BARROSO,-7.782064469538681,41.70768864688257
pt.ine.add.PTCONT.5307470,R DE SILVAR,10,5460-020,ALTURAS DO BARROSO,-7.781766843669837,41.707183541030055
pt.ine.add.PTCONT.5307471,R DA TRANCADA,5,5460-306,BOTICAS,-7.665046996677781,41.69320814600119
pt.ine.add.PTCONT.5307472,LG JOÃO BATISTA DE OLIVEIRA,37,5460-471,PINHO BTC,-7.633531632141744,41.66150908554861
pt.ine.add.PTCONT.5307473,R CONDE BONFIM,6,5460-471,PINHO BTC,-7.633360484956743,41.66190449803016
pt.ine.add.PTCONT.5307482,R DIREITA,12,5460-150,BEÇA,-7.691893924121207,41.68450890570767
pt.ine.add.PTCONT.5307483,R ENG FERNANDO CAMPOS,13,5460-502,SAPIÃOS,-7.643990943940192,41.710443186676464
pt.ine.add.PTCONT.5307493,R DO TORNADOURO,6,5460-502,SAPIÃOS,-7.643272906333948,41.71006198200264
pt.ine.add.PTCONT.5307512,R DO ADRO,8,5460-432,FIÃES DO TAMEGA,-7.711707187125582,41.596753130967706
pt.ine.add.PTCONT.5307521,R DO SANTO,,5460-135,BEÇA,-7.7514824159528,41.702234072635136
pt.ine.add.PTCONT.5307522,R DA FRAGA,2,5460-160,BEÇA,-7.681445042630343,41.6655518727905
pt.ine.add.PTCONT.5307553,R DO TURGUEIL,7,5460-220,BOBADELA BTC,-7.6233821323500015,41.744170590497646
pt.ine.add.PTCONT.5307554,R DO OUTEIRO,1,5460-350,CERDEDO,-7.879706482808502,41.7026513631212
pt.ine.add.PTCONT.5307555,SIT DA CORGA DE VALBOM,,5460-350,CERDEDO,-7.882747005311833,41.70240592855846
pt.ine.add.PTCONT.5307563,R DA BESSADA,5,5460-130,BEÇA,-7.731341451424148,41.69153227209608
pt.ine.add.PTCONT.5307564,R DA COSTA,26,5460-350,CERDEDO,-7.88004664918745,41.66183899979621
pt.ine.add.PTCONT.5307565,R DA ESCOLA,1,5460-400,CURROS BTC,-7.67037577212925,41.63349110563874
pt.ine.add.PTCONT.5307566,PRINCIPAL,24,5460-512,VILAR BTC,-7.736566676434751,41.67001394795416
pt.ine.add.PTCONT.5307577,LG DO SOUTO,8,5460-220,BOBADELA BTC,-7.621508196162808,41.74095704146806
pt.ine.add.PTCONT.5307578,R DA COSTA,17,5460-350,CERDEDO,-7.8793758095003135,41.66145036663727
pt.ine.add.PTCONT.5307579,LG DA SENHORA DA GUADALUPE,4,5460-370,CODESSOSO,-7.706317247170088,41.66110912367092
pt.ine.add.PTCONT.5307580,TV DO EIRÃO,5,5460-492,SÃO SALVADOR DE VIVEIRO,-7.796555510214,41.65911285710588
pt.ine.add.PTCONT.5307584,R DO ESTÁDIO,5,5460-100,ARDÃOS,-7.611003714135488,41.76889238148421
pt.ine.add.PTCONT.5307585,TV DA LIBERDADE,7,5460-100,ARDÃOS,-7.612176052590013,41.76669187305158
pt.ine.add.PTCONT.5307586,R 5 DE OUTUBRO,28,5460-304,BOTICAS,-7.667439718594494,41.68789678756718
pt.ine.add.PTCONT.5307587,TV DO CANTO,1,5460-300,BOTICAS,-7.667849065054612,41.68776339263275
pt.ine.add.PTCONT.5307588,R DA VINHA,9,5460-418,DORNELAS BTC,-7.843366306298925,41.65121818660648
pt.ine.add.PTCONT.5307600,R DA FONTE,6,5460-473,PINHO BTC,-7.614214329932559,41.67334419344703
pt.ine.add.PTCONT.5307601,R CENTRAL,3,5460-473,PINHO BTC,-7.613036368752169,41.67348292577656
pt.ine.add.PTCONT.5307615,R DO ATOLEIRO,31,5460-501,SAPIÃOS,-7.597912815852779,41.72331085812008
pt.ine.add.PTCONT.5307639,R DE STO ANTÓNIO,7,5460-100,ARDÃOS,-7.612007325611095,41.76525056540995
pt.ine.add.PTCONT.5307649,R DO COLÉGIO,15,5460-320,BOTICAS,-7.6645960858371005,41.694097656320366
pt.ine.add.PTCONT.5308189,R DO VOLFRÂMIO,7,5460-130,BEÇA,-7.731161425428507,41.68957787749968
pt.ine.add.PTCONT.5308202,R PRINCIPAL,15,5460-160,BEÇA,-7.6811551781531895,41.66579382942298
pt.ine.add.PTCONT.5308216,R DA PORTELA,5,5460-210,BOBADELA BTC,-7.616643855218551,41.729924074401985
pt.ine.add.PTCONT.5308217,R DO VALE,3,5460-370,CODESSOSO,-7.7074748099054124,41.6603571162488
pt.ine.add.PTCONT.5308225,TV DO OUTEIRO,17,5460-320,BOTICAS,-7.665208971515297,41.69572078500381
pt.ine.add.PTCONT.5308994,R CENTRAL,5,5460-145,BEÇA,-7.694376969913606,41.70795455304586
pt.ine.add.PTCONT.5308995,R DO CAMPO DA BOLA,3,5460-120,BEÇA,-7.702871948971325,41.69709243185432
pt.ine.add.PTCONT.5308996,R DO CABO,,5460-120,BEÇA,-7.704542201647866,41.69340723148042
pt.ine.add.PTCONT.5308997,R DIREITA,4,5460-150,BEÇA,-7.691171760324162,41.684731219281446
pt.ine.add.PTCONT.5308998,R DA TRANCADA,3,5460-306,BOTICAS,-7.664709681844691,41.693341824387154
pt.ine.add.PTCONT.5308999,R DAS RIBAS,1,5460-340,BOTICAS,-7.665817108899323,41.691365559535875
pt.ine.add.PTCONT.5309000,BR 1 DE MAIO,10,5460-370,CODESSOSO,-7.703659360605116,41.661783494894074
pt.ine.add.PTCONT.5309023,R DA TORRE,18,5460-155,BEÇA,-7.687859488285613,41.68085591959213
pt.ine.add.PTCONT.5309024,LG DO SOUTO,24,5460-220,BOBADELA BTC,-7.620415236022415,41.74083512530725
pt.ine.add.PTCONT.5309025,R DAS FONTELAS,1,5460-413,DORNELAS BTC,-7.84185910398189,41.65269096772224
pt.ine.add.PTCONT.5309026,R DO EIRÃO,1,5460-418,DORNELAS BTC,-7.842550653738076,41.65107207010317
pt.ine.add.PTCONT.5309027,R DO OUTEIRO,45,5460-413,DORNELAS BTC,-7.834265990747235,41.64880893299575
pt.ine.add.PTCONT.5309028,R 25 DE ABRIL,1,5460-431,FIÃES DO TAMEGA,-7.682601483655563,41.611588830628584
pt.ine.add.PTCONT.5309029,R DO EIRÃO,16,5460-512,VILAR BTC,-7.734329447711557,41.66867368070142
pt.ine.add.PTCONT.5309051,R DIREITA,39,5460-165,BEÇA,-7.733400242147658,41.71016771314922
pt.ine.add.PTCONT.5309052,R DR ROGERIO MARTINS,10,5460-317,BOTICAS,-7.669595879796872,41.68871582066833
pt.ine.add.PTCONT.5309053,R DR ROGERIO MARTINS,1,5460-317,BOTICAS,-7.669595879796872,41.68871582066833
pt.ine.add.PTCONT.5309054,R DR ROGERIO MARTINS,10,5460-317,BOTICAS,-7.669595879796872,41.68871582066833
pt.ine.add.PTCONT.5309055,R DO PAPO DE GALO,19,5460-342,,-7.681021764024705,41.68829315135622
pt.ine.add.PTCONT.5309056,R TOURAL,6,5460-305,BOTICAS,-7.6702677855096155,41.687142912315686
pt.ine.add.PTCONT.5309057,BR DA RAPOSEIRA,8,5460-320,BOTICAS,-7.66266555678118,41.696916871585
pt.ine.add.PTCONT.5309058,R DA FONTE DO VALE,8,5460-320,BOTICAS,-7.665797103658385,41.69412955676845
pt.ine.add.PTCONT.5309059,R DO QUINTEIRO,2,5460-431,FIÃES DO TAMEGA,-7.6864941640253726,41.6090379802542
pt.ine.add.PTCONT.5309060,R DO REGO,1,5460-471,PINHO BTC,-7.632305274455369,41.661728837609125
pt.ine.add.PTCONT.5309061,TV DE COIMBRO,2,5460-495,SÃO SALVADOR DE VIVEIRO,-7.776717400920485,41.67293656314255
pt.ine.add.PTCONT.5309102,LG DO POÇO,2,5460-501,SAPIÃOS,-7.596304678860484,41.724482809378
pt.ine.add.PTCONT.5309162,R DR ROGERIO MARTINS,10,5460-317,BOTICAS,-7.669595879796872,41.68871582066833
pt.ine.add.PTCONT.5309163,TV DA COSTA,3,5460-495,SÃO SALVADOR DE VIVEIRO,-7.778752650988044,41.6740683008243
pt.ine.add.PTCONT.5309166,R DA TORRE,1,5460-502,SAPIÃOS,-7.639778450899096,41.70979493618314
pt.ine.add.PTCONT.5309174,R DA ARGUDA,2,5460-020,ALTURAS DO BARROSO,-7.78979274512166,41.707198794692786
pt.ine.add.PTCONT.5309175,AV NOVA,1,5460-381,COVAS DO BARROSO,-7.785225742108652,41.63384202994217
pt.ine.add.PTCONT.5309324,R DA ARGUDA,34,5460-020,ALTURAS DO BARROSO,-7.79008607884576,41.7085231859875
pt.ine.add.PTCONT.5309325,R DO SOL,11,5460-020,ALTURAS DO BARROSO,-7.789957552513023,41.70783853587551
pt.ine.add.PTCONT.5309326,R DO OUTEIRO,6,5460-010,ALTURAS DO BARROSO,-7.821141577835361,41.70433501954696
pt.ine.add.PTCONT.5309327,CC DA JOURICA,3,5460-010,ALTURAS DO BARROSO,-7.822649943694428,41.702970569879376
pt.ine.add.PTCONT.5309391,R DA IGREJA,5,5460-100,ARDÃOS,-7.611576013780437,41.76653609320957
pt.ine.add.PTCONT.5309392,RJA PIAS,9,5460-100,ARDÃOS,-7.614730193665934,41.76312907859007
pt.ine.add.PTCONT.5309393,R DO SANTO,4,5460-100,ARDÃOS,-7.611014189207207,41.76463382601872
pt.ine.add.PTCONT.5309394,TV DA COROA DA RUA,,5460-165,BEÇA,-7.734244870342758,41.70959442409363
pt.ine.add.PTCONT.5309395,R DO VOLFRÂMIO,31,5460-130,BEÇA,-7.7356571810190715,41.68902629076876
pt.ine.add.PTCONT.5309396,R DA FONTE,,5460-130,BEÇA,-7.729133640085163,41.689228633576306
pt.ine.add.PTCONT.5309397,EN 311,,5460-125,BEÇA,-7.7013289814075465,41.68171763026017
pt.ine.add.PTCONT.5309436,R DA FRAGA,3,5460-160,BEÇA,-7.6816951112341645,41.6658499726088
pt.ine.add.PTCONT.5309437,R DO CANDÃO,4,5460-220,BOBADELA BTC,-7.617958756526667,41.741355340703464
pt.ine.add.PTCONT.5309438,R DA FONTE DAS HORTAS,13,5460-210,BOBADELA BTC,-7.620701817621672,41.73200403093312
pt.ine.add.PTCONT.5309439,R AFONSO ANES BARROSO,15,5460-302,BOTICAS,-7.679967007280969,41.6896845432352
pt.ine.add.PTCONT.5309482,R DOS CASAIS,7,5460-327,BOTICAS,-7.673728899935957,41.69025401007131
pt.ine.add.PTCONT.5309483,R JOÃO DE DEUS,10,5460-309,BOTICAS,-7.669133073441611,41.68793064688821
pt.ine.add.PTCONT.5309484,R JOÃO DE DEUS,62,5460-309,BOTICAS,-7.672976015104311,41.68802712876094
pt.ine.add.PTCONT.5309485,R CENTRAL DO BARREIRO,4,5460-350,CERDEDO,-7.880753426340822,41.65917549144668
pt.ine.add.PTCONT.5309486,R CENTRAL,4,5460-370,CODESSOSO,-7.706594807072734,41.65907534710013
pt.ine.add.PTCONT.5309527,TV DA COSTA,2,5460-381,COVAS DO BARROSO,-7.78039093737287,41.63572706032647
pt.ine.add.PTCONT.5309528,R DA LAGE,6,5460-381,COVAS DO BARROSO,-7.782753853463304,41.63377149733342
pt.ine.add.PTCONT.5309529,R CENTRAL,5,5460-400,CURROS BTC,-7.699856731807554,41.643356901020056
pt.ine.add.PTCONT.5309530,TV DO ARRABALDE,3,5460-418,DORNELAS BTC,-7.843256853987589,41.65153303665022
pt.ine.add.PTCONT.5309531,R DO OUTEIRO,41,5460-413,DORNELAS BTC,-7.833102275647063,41.64866184398656
pt.ine.add.PTCONT.5309532,TV DO MOINHO,6,5460-411,DORNELAS BTC,-7.835004189404807,41.64231024478943
pt.ine.add.PTCONT.5309533,R CARREIRAS,6,5460-417,DORNELAS BTC,-7.842460057122469,41.63917807293782
pt.ine.add.PTCONT.5309582,R DO TERRÃO,7,5460-432,FIÃES DO TAMEGA,-7.710602434373138,41.59694715710758
pt.ine.add.PTCONT.5309583,R DO OUTEIRO,15,5460-471,PINHO BTC,-7.636002544904281,41.663383534783975
pt.ine.add.PTCONT.5309584,R DA ESCOLA,26,5460-472,PINHO BTC,-7.624907055190049,41.64215861643211
pt.ine.add.PTCONT.5309585,R DO CALVÁRIO,7,5460-495,SÃO SALVADOR DE VIVEIRO,-7.77217792570486,41.67512826888182
pt.ine.add.PTCONT.5309627,R DO CANTO,10,5460-495,SÃO SALVADOR DE VIVEIRO,-7.776411525242165,41.67396201990493
pt.ine.add.PTCONT.5309628,R DA OUCEIRA,,5460-491,SÃO SALVADOR DE VIVEIRO,-7.804146952986209,41.660755479255315
pt.ine.add.PTCONT.5309629,R DOS CASTANHEIROS,8,5460-494,SÃO SALVADOR DE VIVEIRO,-7.764868774347956,41.65540527298873
pt.ine.add.PTCONT.5309630,R DA GAIOSA,12,5460-512,VILAR BTC,-7.739014412263173,41.66835670819113
pt.ine.add.PTCONT.5309685,R PRINCIPAL,,5460-512,VILAR BTC,-7.738909146152716,41.6678971655494
pt.ine.add.PTCONT.5309686,R DO REGO,5,5460-512,VILAR BTC,-7.7362059859851575,41.66617718571232
pt.ine.add.PTCONT.5310246,R DO MUNICÍPIO,26,5460-307,BOTICAS,-7.666878517567723,41.68743533270006
pt.ine.add.PTCONT.5310261,R DA ESCOLA,13,5460-210,BOBADELA BTC,-7.619085123478422,41.7312585276886
pt.ine.add.PTCONT.5310341,R AFONSO ANES BARROSO,15,5460-302,BOTICAS,-7.679967007280969,41.6896845432352
pt.ine.add.PTCONT.5310693,R 5 DE OUTUBRO,41,5460-471,PINHO BTC,-7.638709098387203,41.66429556415588
pt.ine.add.PTCONT.5310694,R DO VINHAL,11,5460-502,SAPIÃOS,-7.639531714031305,41.70906459455763
pt.ine.add.PTCONT.5310699,R DO SOL,1,5460-020,ALTURAS DO BARROSO,-7.789644207336222,41.70801766990822
pt.ine.add.PTCONT.5310700,R DIREITA,26,5460-165,BEÇA,-7.73335798209145,41.70923120254991
pt.ine.add.PTCONT.5310708,R DA CALHELHA,5,5460-135,BEÇA,-7.7514049886076,41.70516895904151
pt.ine.add.PTCONT.5310709,R SANGUNHEDO,73,5460-330,BOTICAS,-7.669882659518191,41.690598712335635
pt.ine.add.PTCONT.5310710,BC DAS CORTINHAS,4,5460-431,FIÃES DO TAMEGA,-7.684112149603054,41.611729795242546
pt.ine.add.PTCONT.5310711,R DO COTULO,9,5460-502,SAPIÃOS,-7.637528031808746,41.711820039915395
pt.ine.add.PTCONT.5310719,R DA ESCOLA,3,5460-150,BEÇA,-7.689356329251663,41.6849943299284
pt.ine.add.PTCONT.5310720,R ENG CALDEIRA PAIS,30,5460-316,BOTICAS,-7.669384642903452,41.68969635214162
pt.ine.add.PTCONT.5310735,R DR FIGUEIREDO GUERRA,2,5460-328,BOTICAS,-7.673905383638438,41.689084257862795
pt.ine.add.PTCONT.5310745,R DE TRÁS DAS EIRAS,2,5460-400,CURROS BTC,-7.700759406597432,41.64299115233224
pt.ine.add.PTCONT.5310746,R DE S SALVADOR,,5460-495,SÃO SALVADOR DE VIVEIRO,-7.772158824215253,41.676397710014726
pt.ine.add.PTCONT.5310755,BR DO OUTEIRO DO LEONARDO,6,5460-451,GRANJA BTC,-7.649127993006098,41.695167998524326
pt.ine.add.PTCONT.5310764,R DO SOUTO,16,5460-451,GRANJA BTC,-7.650496117065207,41.69534481862034
pt.ine.add.PTCONT.5310765,R DO MURO,8,5460-451,GRANJA BTC,-7.6483367359389165,41.69495758290375
pt.ine.add.PTCONT.5310772,R DA FONTE,4,5460-130,BEÇA,-7.727153752186636,41.68890653365292
pt.ine.add.PTCONT.5310773,LG DO OUTEIRO,7,5460-418,DORNELAS BTC,-7.839297080830091,41.64850677678754
pt.ine.add.PTCONT.5310774,R DO PENEDO,12,5460-512,VILAR BTC,-7.732977971831592,41.66974040731314
pt.ine.add.PTCONT.5310782,R JOAO DEUS,16,5460-309,BOTICAS,-7.66925318336615,41.68793113172402
pt.ine.add.PTCONT.5310783,EN 312,61,5460-451,GRANJA BTC,-7.657675222436349,41.69106206051263
pt.ine.add.PTCONT.5310808,BR 1 DE MAIO,25,5460-370,CODESSOSO,-7.70336608986287,41.660746988460865
pt.ine.add.PTCONT.5310809,EN 311,34,5460-471,PINHO BTC,-7.633491161321028,41.66519136327088
pt.ine.add.PTCONT.5310832,R DA TRIGUEIRA,2,5460-220,BOBADELA BTC,-7.619619218812844,41.729091084781345
pt.ine.add.PTCONT.5310833,BR NOVO,1,5460-471,PINHO BTC,-7.635108731784165,41.664072939216126
pt.ine.add.PTCONT.5310840,R DO COLÉGIO,17,5460-320,BOTICAS,-7.664619522109113,41.69417878345901
pt.ine.add.PTCONT.5310847,R DIREITA,19,5460-020,ALTURAS DO BARROSO,-7.7916645702313385,41.70767255375887
pt.ine.add.PTCONT.5311435,TV DO CASAL,3,5460-100,ARDÃOS,-7.612253802477126,41.7645134048921
pt.ine.add.PTCONT.5311436,R DO SOUTO,9,5460-135,BEÇA,-7.748169215096466,41.705815421820816
pt.ine.add.PTCONT.5311450,R DO LAJEDO,12,5460-120,BEÇA,-7.704747790647016,41.6968203302127
pt.ine.add.PTCONT.5311451,R 25 DE ABRIL,13,5460-120,BEÇA,-7.705179216622544,41.69516529092693
pt.ine.add.PTCONT.5311452,R DO FELÍCIO,2,5460-150,BEÇA,-7.693051106857098,41.682136409884
pt.ine.add.PTCONT.5311453,R DO SOUTO,4,5460-220,BOBADELA BTC,-7.62224653040973,41.74032108284544
pt.ine.add.PTCONT.5311454,R DO PAPO DE GALO,22,5460-342,,-7.680775740270595,41.68912050732055
pt.ine.add.PTCONT.5311489,R DO COLÉGIO,14,5460-320,BOTICAS,-7.664462906720969,41.694241169485466
pt.ine.add.PTCONT.5311526,R DA CRUZ DAS ALMAS,1,5460-320,BOTICAS,-7.658792429462332,41.69104866979872
pt.ine.add.PTCONT.5311527,AV DO EIRÓ,5,5460-311,BOTICAS,-7.665429776878402,41.68845584777645
pt.ine.add.PTCONT.5311528,R DO ESTREMADOURO DE CIMA,3,5460-350,CERDEDO,-7.8832870607110594,41.66218822472305
pt.ine.add.PTCONT.5311529,R CENTRAL,17,5460-370,CODESSOSO,-7.706636592776068,41.66002087710789
pt.ine.add.PTCONT.5311530,R DO OUTEIRO,1,5460-381,COVAS DO BARROSO,-7.787352902707031,41.63104832075041
pt.ine.add.PTCONT.5311531,R DIREITA,3,5460-400,CURROS BTC,-7.66857809645047,41.63314171809964
pt.ine.add.PTCONT.5311574,TV DO ALTO DO COTO,1,5460-417,DORNELAS BTC,-7.84724936419036,41.639091042898045
pt.ine.add.PTCONT.5311575,R PRINCIPAL,3,5460-415,DORNELAS BTC,-7.841335539755723,41.61972737483018
pt.ine.add.PTCONT.5311576,R DA LAPA,1,5460-412,DORNELAS BTC,-7.889730133341383,41.63466901353477
pt.ine.add.PTCONT.5311577,R DE CHAVES,10,5460-431,FIÃES DO TAMEGA,-7.684106895551965,41.61075738124559
pt.ine.add.PTCONT.5311578,R DA PORTELA,3,5460-432,FIÃES DO TAMEGA,-7.7135425243701645,41.596723828753916
pt.ine.add.PTCONT.5311579,TV DO SOUTO DO BRÁS,5,5460-451,GRANJA BTC,-7.647192742597842,41.696924519308766
pt.ine.add.PTCONT.5311580,R DA PIA,6,5460-451,GRANJA BTC,-7.648442075096605,41.69532717097937
pt.ine.add.PTCONT.5311611,TV DO CANTO DO BARREIRO,5,5460-451,GRANJA BTC,-7.649854864083993,41.69435173811089
pt.ine.add.PTCONT.5311612,R DA FONTE,5,5460-473,PINHO BTC,-7.61362578430468,41.673359541877055
pt.ine.add.PTCONT.5311613,R DO MONTE,1,5460-471,PINHO BTC,-7.633511903527169,41.66561462032595
pt.ine.add.PTCONT.5311614,R 1 DE MAIO,8,5460-471,PINHO BTC,-7.6340063042290165,41.65756758836691
pt.ine.add.PTCONT.5311615,TV DA CALÇADA,2,5460-472,PINHO BTC,-7.626566631530734,41.64175177672819
pt.ine.add.PTCONT.5311616,R DA FONTE,3,5460-472,PINHO BTC,-7.626407697244876,41.64058961344635
pt.ine.add.PTCONT.5311617,R DO CALVÁRIO,17,5460-495,SÃO SALVADOR DE VIVEIRO,-7.773163999110363,41.67488826525119
pt.ine.add.PTCONT.5311618,R CENTRAL,34,5460-495,SÃO SALVADOR DE VIVEIRO,-7.777975211231936,41.673498677121266
pt.ine.add.PTCONT.5311619,R DO CABO,9,5460-495,SÃO SALVADOR DE VIVEIRO,-7.777198181955987,41.67285702091238
pt.ine.add.PTCONT.5311657,TV DO ARRABALDE DE CIMA,8,5460-492,SÃO SALVADOR DE VIVEIRO,-7.795317828427149,41.65931630886473
pt.ine.add.PTCONT.5311658,TV DO CABANAL,1,5460-494,SÃO SALVADOR DE VIVEIRO,-7.764591634677672,41.653477617273474
pt.ine.add.PTCONT.5311659,R PRINCIPAL,50,5460-501,SAPIÃOS,-7.599441862961313,41.722975838186954
pt.ine.add.PTCONT.5311660,TV DO CAMPO DE FUTEBOL,8,5460-502,SAPIÃOS,-7.645027106262752,41.7100694459213
pt.ine.add.PTCONT.5311703,R DA TORRE,11,5460-502,SAPIÃOS,-7.640368217691898,41.70966241425045
pt.ine.add.PTCONT.5311704,R DO CAMPO,5,5460-512,VILAR BTC,-7.740701067996271,41.66941589563364
pt.ine.add.PTCONT.5311705,R DO COUTO,10,5460-512,VILAR BTC,-7.736796234565588,41.66782687454447
pt.ine.add.PTCONT.5311706,R DO CRUZEIRO,14,5460-512,VILAR BTC,-7.737147758087569,41.667287872332935
pt.ine.add.PTCONT.5312384,TV DA LIBERDADE,3,5460-370,CODESSOSO,-7.706393800839148,41.66042513665007
pt.ine.add.PTCONT.5312389,TV 25 DE ABRIL,6,5460-135,BEÇA,-7.752365072552665,41.70535221402445
pt.ine.add.PTCONT.5312415,TV INF D HENRIQUE,6,5460-471,PINHO BTC,-7.634053918630264,41.662285660315085
pt.ine.add.PTCONT.5312503,R DO ESPERÃO,1,5460-020,ALTURAS DO BARROSO,-7.789735162481977,41.70673044028119
pt.ine.add.PTCONT.5312504,R CENTRAL,33,5460-370,CODESSOSO,-7.707002542723218,41.66096760914751
pt.ine.add.PTCONT.5312558,R DIREITA,12,5460-417,DORNELAS BTC,-7.847870380056399,41.63979486782966
pt.ine.add.PTCONT.5312559,R PRINCIPAL,1,5460-415,DORNELAS BTC,-7.841747100638914,41.62159217373811
pt.ine.add.PTCONT.5312560,R DO MEROUCO,,5460-431,FIÃES DO TAMEGA,-7.688057636658733,41.61196122444678
pt.ine.add.PTCONT.5312561,R DA POÇA,6,5460-451,GRANJA BTC,-7.647017650804006,41.69784213617705
pt.ine.add.PTCONT.5312562,R DA POÇA,4,5460-451,GRANJA BTC,-7.6457915299916195,41.69794498550585
pt.ine.add.PTCONT.5312563,R DO MURO,5,5460-451,GRANJA BTC,-7.648073683701396,41.694794409865224
pt.ine.add.PTCONT.5312616,R DA GEIA,12,5460-135,BEÇA,-7.751275678290253,41.702656550884036
pt.ine.add.PTCONT.5312617,R DO CAMPO,6,5460-220,BOBADELA BTC,-7.621985983702058,41.742858891471165
pt.ine.add.PTCONT.5312618,BC DO TANQUE,4,5460-220,BOBADELA BTC,-7.621698171332536,41.74125500038747
pt.ine.add.PTCONT.5312619,R DA FONTE,23,5460-473,PINHO BTC,-7.615224244135191,41.67319568840921
pt.ine.add.PTCONT.5312620,R DE S SALVADOR,4,5460-495,SÃO SALVADOR DE VIVEIRO,-7.771231609301696,41.676844971976664
pt.ine.add.PTCONT.5312621,TV 1,1,5460-501,SAPIÃOS,-7.598202429350499,41.72316815135252
pt.ine.add.PTCONT.5312622,R DO VINHAL,12,5460-501,SAPIÃOS,-7.640048422406038,41.70905780920458
pt.ine.add.PTCONT.5312661,R AFONSO ANES BARROSO,9,5460-302,BOTICAS,-7.679236530732385,41.689366537522595
pt.ine.add.PTCONT.5312662,R DE SANGUNDEDO,33,5460-330,BOTICAS,-7.6685357905026725,41.68914370926713
pt.ine.add.PTCONT.5312663,EN 312,8,5460-502,SAPIÃOS,-7.641543834607622,41.70991054307313
pt.ine.add.PTCONT.5312664,TV DO CAMINHO NOVO,2,5460-512,VILAR BTC,-7.746040482513435,41.68613558206568
pt.ine.add.PTCONT.5312665,TV DA ESCOLA,3,5460-511,VILAR BTC,-7.744497847756358,41.68700371906
pt.ine.add.PTCONT.5312666,R DO EIRÃO,3,5460-512,VILAR BTC,-7.733898449517092,41.67040987142196
pt.ine.add.PTCONT.5313427,R DO MIRANTE,,5460-350,CERDEDO,-7.87894935633916,41.66303405556261
pt.ine.add.PTCONT.5313453,TV DO OUTEIRO,3,5460-451,GRANJA BTC,-7.649182993372075,41.69424086884402
pt.ine.add.PTCONT.5313460,R DA TORRE,10,5460-155,BEÇA,-7.687590803481243,41.68150313286301
pt.ine.add.PTCONT.5313797,R DO FONTÃO,25,5460-326,BOTICAS,-7.677238588965069,41.69163652000192
pt.ine.add.PTCONT.5313807,AV DO EIRÓ,22,5460-311,BOTICAS,-7.6651928958857365,41.69130899867803
pt.ine.add.PTCONT.5313813,R AFONSO ANES BARROSO,23,5460-302,BOTICAS,-7.680285125806523,41.690568142010164
pt.ine.add.PTCONT.5313814,AV CHAVES,34,5460-301,BOTICAS,-7.660790694609876,41.69046266754167
pt.ine.add.PTCONT.5313815,BC DA R DURA,6,5460-502,SAPIÃOS,-7.638189155185591,41.710220269608115
pt.ine.add.PTCONT.5313824,AV CHAVES,24,5460-301,BOTICAS,-7.660790694609876,41.69046266754167
pt.ine.add.PTCONT.5313839,R DO VALE,21,5460-010,ALTURAS DO BARROSO,-7.81917264074327,41.70404154530588
pt.ine.add.PTCONT.5313840,AL RIBEIRO DE FONTAO,2,5460-341,BOTICAS,-7.66604051878307,41.688710430034725
pt.ine.add.PTCONT.5313841,R DO CAMPO DA BOLA,2,5460-495,SÃO SALVADOR DE VIVEIRO,-7.773167881584304,41.676346853220174
pt.ine.add.PTCONT.5313849,AL RIBEIRO DE FONTAO,2,5460-341,BOTICAS,-7.66604051878307,41.688710430034725
pt.ine.add.PTCONT.5313859,R COR XAVIER TEIXEIRA,5,5460-328,BOTICAS,-7.674306871327255,41.688365579685524
pt.ine.add.PTCONT.5313860,R DA EIRA,10,5460-502,SAPIÃOS,-7.644772450225788,41.708789869321194
pt.ine.add.PTCONT.5313868,LG DE STO ANTÓNIO,3,5460-010,ALTURAS DO BARROSO,-7.820051293569991,41.703710812140486
pt.ine.add.PTCONT.5313869,R DO CAMPO,7,5460-512,VILAR BTC,-7.740358724414028,41.67042312496162
pt.ine.add.PTCONT.5313880,R CENTRAL DO BARREIRO,13,5460-350,CERDEDO,-7.880988242236142,41.660535548801015
pt.ine.add.PTCONT.5313881,R DO COUTO,12,5460-512,VILAR BTC,-7.736916915377441,41.667728251413926
pt.ine.add.PTCONT.5313909,BR 1 DE MAIO,33,5460-370,CODESSOSO,-7.704051387883116,41.6606054915366
pt.ine.add.PTCONT.5313918,R DO SOUTO,8,5460-120,BEÇA,-7.705757182464575,41.69496036071766
pt.ine.add.PTCONT.5313919,EN 103,32,5460-501,SAPIÃOS,-7.592955888676861,41.71966827470918
pt.ine.add.PTCONT.5313925,R DE STO ANTÓNIO,16,5460-100,ARDÃOS,-7.61243907173179,41.76539657708099
pt.ine.add.PTCONT.5313926,R DA MEIJOADELA,1,5460-417,DORNELAS BTC,-7.852598332706522,41.6372584778329
pt.ine.add.PTCONT.5313927,TV DO BOUGINAL,78,5460-502,SAPIÃOS,-7.636472314839214,41.71004179661125
pt.ine.add.PTCONT.5314374,AL RIBEIRO FONTAO,,5460-341,BOTICAS,-7.66604051878307,41.688710430034725
pt.ine.add.PTCONT.5314404,R DE SAINÇA,,5460-416,DORNELAS BTC,-7.84527296156688,41.64628900186309
pt.ine.add.PTCONT.5314420,R DA FONTE,4,5460-135,BEÇA,-7.749279075577613,41.70303705059819
pt.ine.add.PTCONT.5314852,R DA VARIANTE,9,5460-100,ARDÃOS,-7.611353957789114,41.764257226996826
pt.ine.add.PTCONT.5314853,R 5 DE OUTUBRO,28,5460-471,PINHO BTC,-7.638245186215681,41.66372634382794
pt.ine.add.PTCONT.5314866,TV DO PAPO DE GALO,19,5460-342,,-7.680827283079461,41.69033618540216
pt.ine.add.PTCONT.5314867,R DA COSTA,17,5460-381,COVAS DO BARROSO,-7.781673724477549,41.6359830905487
pt.ine.add.PTCONT.5314868,EN 103,14,5460-502,SAPIÃOS,-7.638881149613036,41.712429100409636
pt.ine.add.PTCONT.5314884,R DO FORNO,19,5460-020,ALTURAS DO BARROSO,-7.789264073969356,41.70494633697579
pt.ine.add.PTCONT.5314885,LG DA CAPELA,5,5460-135,BEÇA,-7.753053284614781,41.704778267710104
pt.ine.add.PTCONT.5314886,R CENTRAL,20,5460-471,PINHO BTC,-7.633669750777191,41.66072637627884
pt.ine.add.PTCONT.5314897,R DO CÔTO,14,5460-010,ALTURAS DO BARROSO,-7.822537411312251,41.70638259769691
pt.ine.add.PTCONT.5314898,AV PADRE ARTUR,18,5460-502,SAPIÃOS,-7.639703607040803,41.71015475415438
pt.ine.add.PTCONT.5314899,R DO RIO,4,5460-502,SAPIÃOS,-7.639834671645778,41.710299372527906
pt.ine.add.PTCONT.5314908,R DA FONTE,1,5460-383,COVAS DO BARROSO,-7.775607879021828,41.62602438433178
pt.ine.add.PTCONT.5314909,R DA ABELEIRA,1,5460-452,GRANJA BTC,-7.652892332610926,41.69458055467043
pt.ine.add.PTCONT.5314910,R DO POÇO,,5460-452,GRANJA BTC,-7.655667418241388,41.69455610296913
pt.ine.add.PTCONT.5314922,R DA FELGUEIRA,7,5460-451,GRANJA BTC,-7.645135623768542,41.69889657346305
pt.ine.add.PTCONT.5314932,R COR XAVIER TEIXEIRA,N 17,5460-328,BOTICAS,-7.675070280034973,41.689115916997466
pt.ine.add.PTCONT.5314933,TV DA BOBIANA,3,5460-495,SÃO SALVADOR DE VIVEIRO,-7.7770644031766,41.67316272757583
pt.ine.add.PTCONT.5314946,R DO ARRABALDE,5,5460-492,SÃO SALVADOR DE VIVEIRO,-7.79381662359127,41.659401923132656
pt.ine.add.PTCONT.5314947,R CENTRAL,13,5460-492,SÃO SALVADOR DE VIVEIRO,-7.795964266507066,41.65967835009141
pt.ine.add.PTCONT.5314954,R CENTRAL,33,5460-130,BEÇA,-7.729311051243789,41.689670429887414
pt.ine.add.PTCONT.5314955,R CENTRAL,15,5460-492,SÃO SALVADOR DE VIVEIRO,-7.796613898945757,41.65942815344744
pt.ine.add.PTCONT.5314968,VAR DE CARREIRA DA LEBRE,5,5460-125,BEÇA,-7.702582758418293,41.682811761440604
pt.ine.add.PTCONT.5314969,R 5 DE OUTUBRO,108,5460-304,BOTICAS,-7.671190624456509,41.687425734302685
pt.ine.add.PTCONT.5314970,R DA MINA NOVA,2,5460-370,CODESSOSO,-7.709470149850764,41.663668797152106
pt.ine.add.PTCONT.5314979,R DA IGREJA,14,5460-100,ARDÃOS,-7.611674696692615,41.76623042586859
pt.ine.add.PTCONT.5314980,R DA BESSADA,1,5460-130,BEÇA,-7.732906788948805,41.692861251603674
pt.ine.add.PTCONT.5314992,R DO LAJEDO,20,5460-120,BEÇA,-7.70587340985184,41.69736473101391
pt.ine.add.PTCONT.5314993,R CENTRAL,3,5460-370,CODESSOSO,-7.706580425060864,41.659435436591444
pt.ine.add.PTCONT.5314994,BR 1 DE MAIO,23,5460-370,CODESSOSO,-7.703029382837655,41.66082676119057
pt.ine.add.PTCONT.5314995,EN 311,36,5460-471,PINHO BTC,-7.633694301224974,41.66531829583143
pt.ine.add.PTCONT.5315011,R CENTRAL,22,5460-370,CODESSOSO,-7.716741356124179,41.65138747939319
pt.ine.add.PTCONT.5315012,R DO SOUTO DO GONÇALO,1,5460-417,DORNELAS BTC,-7.848001955531819,41.650788601733595
pt.ine.add.PTCONT.5315013,R DA FRAGA,4,5460-501,SAPIÃOS,-7.591319552858773,41.72276676394918
pt.ine.add.PTCONT.5315014,R DA LIBERDADE,2,5460-501,SAPIÃOS,-7.591968557741438,41.72132926918759
pt.ine.add.PTCONT.5315024,R DE STO ANTÓNIO,11,5460-100,ARDÃOS,-7.612859958183139,41.76539848369082
pt.ine.add.PTCONT.5315025,R DA ALAMELA,22,5460-471,PINHO BTC,-7.6296997654379615,41.66328407406828
pt.ine.add.PTCONT.5315040,R DO PONTÃO,,5460-100,ARDÃOS,-7.613894883472459,41.75934387950847
pt.ine.add.PTCONT.5315041,R DO OUTEIRO DA ARADEIRA,15,5460-210,BOBADELA BTC,-7.622830144703884,41.72581912844119
pt.ine.add.PTCONT.5315042,R AFONSO ANES BARROSO,18,5460-302,BOTICAS,-7.680234490763284,41.69093708675041
pt.ine.add.PTCONT.5315043,R DA FONTE,34,5460-381,COVAS DO BARROSO,-7.783929767219703,41.63381108976057
pt.ine.add.PTCONT.5315519,BR ALEGRIA,6,5460-381,COVAS DO BARROSO,-7.784610166784528,41.63672132341286
pt.ine.add.PTCONT.5315562,AV DE CHAVES,48,5460-301,BOTICAS,-7.663117293010342,41.689319755524224
pt.ine.add.PTCONT.5315580,TV DA COROA DA RUA,6,5460-165,BEÇA,-7.7340524612746,41.709620766598725
pt.ine.add.PTCONT.5315596,R DE STO ANTÓNIO,15,5460-411,DORNELAS BTC,-7.834763345368866,41.6424806885917
pt.ine.add.PTCONT.5315896,TV DO CASAL,7,5460-100,ARDÃOS,-7.612240757887961,41.764639393253454
pt.ine.add.PTCONT.5315897,LG DO CRUZEIRO,4,5460-417,DORNELAS BTC,-7.842110819463814,41.639438294314175
pt.ine.add.PTCONT.5315906,R DIREITA,23,5460-020,ALTURAS DO BARROSO,-7.791842793163045,41.70805123040052
pt.ine.add.PTCONT.5315907,R DOS PATRÍCIOS,24,5460-150,BEÇA,-7.694597946149498,41.68250246353755
pt.ine.add.PTCONT.5315908,R DO CALVÁRIO,13,5460-332,BOTICAS,-7.667591129821689,41.69188595944123
pt.ine.add.PTCONT.5315909,R 25 DE ABRIL,1,5460-381,COVAS DO BARROSO,-7.784699415144952,41.63574920327492
pt.ine.add.PTCONT.5315910,R ACÚRCIO AMÂNDIO DE CASTRO,30,5460-381,COVAS DO BARROSO,-7.78492774915825,41.63346297563802
pt.ine.add.PTCONT.5315920,R DIREITA,,5460-165,BEÇA,-7.730144486004021,41.70624882465367
pt.ine.add.PTCONT.5315921,R DA FONTE,5,5460-381,COVAS DO BARROSO,-7.783180173730781,41.63261132865018
pt.ine.add.PTCONT.5315936,R DE INFESTA,10,5460-020,ALTURAS DO BARROSO,-7.791192085981616,41.70614055270201
pt.ine.add.PTCONT.5315937,R CENTRAL,13,5460-150,BEÇA,-7.690953609225938,41.68326280472392
pt.ine.add.PTCONT.5315938,R DO PAPO DE GALO,2,5460-342,,-7.679260996245525,41.6893036094957
pt.ine.add.PTCONT.5315939,R DAS OLIVEIRAS,3,5460-381,COVAS DO BARROSO,-7.788428917825384,41.62955695001733
pt.ine.add.PTCONT.5315947,R DAS OLIVEIRAS,19,5460-381,COVAS DO BARROSO,-7.787046376435919,41.630020984953504
pt.ine.add.PTCONT.5315959,R DO SANTO,17,5460-135,BEÇA,-7.752876412557837,41.70421046171193
pt.ine.add.PTCONT.5315960,R DO CEMITÉRIO,5,5460-160,BEÇA,-7.679271670017967,41.66727199449621
pt.ine.add.PTCONT.5315961,R DO BR NOVO,2,5460-495,SÃO SALVADOR DE VIVEIRO,-7.771696437744581,41.67747668321311
pt.ine.add.PTCONT.5315962,EN 103,40,5460-502,SAPIÃOS,-7.642804344190698,41.708475370616874
pt.ine.add.PTCONT.5315969,R ENG CALDEIRA PAIS,17,5460-316,BOTICAS,-7.669223987243776,41.68865129554257
pt.ine.add.PTCONT.5315970,R ENG CALDEIRA PAIS,15,5460-316,BOTICAS,-7.669223987243776,41.68865129554257
pt.ine.add.PTCONT.5315971,R ENG CALDEIRA PAIS,17,5460-316,BOTICAS,-7.669223987243776,41.68865129554257
pt.ine.add.PTCONT.5315972,ESTR MUNICIPAL,1,5460-400,CURROS BTC,-7.698932761003223,41.64331740037299
pt.ine.add.PTCONT.5315981,R DA TAPADA,7,5460-511,VILAR BTC,-7.748280389253944,41.685152715078495
pt.ine.add.PTCONT.5315990,R CAMILO CASTELO BRANCO,31,5460-305,BOTICAS,-7.673618556917164,41.6871923719105
pt.ine.add.PTCONT.5316012,TV DA BOAVISTA,7,5460-100,ARDÃOS,-7.612713419870049,41.76716248452477
pt.ine.add.PTCONT.5316013,R DA BARRANHA,11,5460-210,BOBADELA BTC,-7.620467155009533,41.73279528735516
pt.ine.add.PTCONT.5316014,,,5460-451,GRANJA BTC,-7.665732205707657,41.719681200763915
pt.ine.add.PTCONT.5316026,EN 311,51,5460-125,BEÇA,-7.704111279673515,41.680521575383885
pt.ine.add.PTCONT.5316027,R CENTRAL,15,5460-145,BEÇA,-7.693173713984248,41.70821105430597
pt.ine.add.PTCONT.5316028,TV DO CANTO,2,5460-473,PINHO BTC,-7.612781658645793,41.67379689664455
pt.ine.add.PTCONT.5316049,BR DA CISTERNA,16,5460-120,BEÇA,-7.701785122948893,41.69434228626639
pt.ine.add.PTCONT.5316077,R DR JOSÉ JOAQUIM SOUSA FERNANDES,12,5460-100,ARDÃOS,-7.612467926278242,41.76480248397008
pt.ine.add.PTCONT.5316560,TV DO PEREIRO,1,5460-512,VILAR BTC,-7.73435073339053,41.667170159753645
pt.ine.add.PTCONT.5316924,TV CADISMA,2,5460-320,BOTICAS,-7.664635127408219,41.69368365395391
pt.ine.add.PTCONT.5316925,R ACÚRCIO AMÂNDIO DE CASTRO,1,5460-381,COVAS DO BARROSO,-7.783393542329387,41.635322067819395
pt.ine.add.PTCONT.5316926,R DO OUTEIRO,21,5460-471,PINHO BTC,-7.637080769088918,41.663694313886666
pt.ine.add.PTCONT.5316927,EN 103,39,5460-501,SAPIÃOS,-7.64202009034491,41.70416835439734
pt.ine.add.PTCONT.5316937,TV DAS EIRAS,4,5460-165,BEÇA,-7.732051082881534,41.70878547762953
pt.ine.add.PTCONT.5316960,R DO CÔTO,1,5460-010,ALTURAS DO BARROSO,-7.822987088341887,41.70781537022352
pt.ine.add.PTCONT.5316961,TV EIRAS,N 4,5460-309,BOTICAS,-7.672046859920396,41.68862664087482
pt.ine.add.PTCONT.5316962,R ACÚRCIO AMÂNDIO DE CASTRO,37,5460-381,COVAS DO BARROSO,-7.784860588964783,41.632562409953046
pt.ine.add.PTCONT.5316970,R DA FONTE DE BAIXO,5,5460-155,BEÇA,-7.687152904721643,41.680565066940815
pt.ine.add.PTCONT.5316979,R PRINCIPAL,21,5460-160,BEÇA,-7.6802835529019475,41.666807800651966
pt.ine.add.PTCONT.5316989,R DO TERRÃO,17,5460-130,BEÇA,-7.730581904080931,41.69197979050308
pt.ine.add.PTCONT.5316990,R DO TERRÃO,15,5460-130,BEÇA,-7.730905550839608,41.69208896589685
pt.ine.add.PTCONT.5316991,R DA FELGUEIRA,2,5460-451,GRANJA BTC,-7.6457825580667755,41.69913340961488
pt.ine.add.PTCONT.5316996,R HUMBERTO DELGADO,25,5460-010,ALTURAS DO BARROSO,-7.822708325029714,41.70332186472769
pt.ine.add.PTCONT.5316997,AV DA PALA,20,5460-339,BOTICAS,-7.656846920961066,41.68447705805099
pt.ine.add.PTCONT.5317004,QLHA DO FORNO,4,5460-130,BEÇA,-7.730837342071448,41.6895407294815
pt.ine.add.PTCONT.5317005,R DA PIPA,6,5460-220,BOBADELA BTC,-7.622450705069278,41.74186157713915
pt.ine.add.PTCONT.5317006,R DA CAPELA,2,5460-220,BOBADELA BTC,-7.623022672587436,41.740981781491996
pt.ine.add.PTCONT.5317011,R DA JARELA,6,5460-220,BOBADELA BTC,-7.622253056630064,41.74101437610063
pt.ine.add.PTCONT.5317012,EM 527,,5460-220,BOBADELA BTC,-7.620279784191867,41.741239675231064
pt.ine.add.PTCONT.5317013,R DO PICOTINHO,5,5460-418,DORNELAS BTC,-7.843795442607679,41.654577609362306
pt.ine.add.PTCONT.5317024,R DA VINHA,4,5460-418,DORNELAS BTC,-7.843269625275517,41.65136200046101
pt.ine.add.PTCONT.5317025,TV DO REGO,4,5460-512,VILAR BTC,-7.7366242443592785,41.666502757598025
pt.ine.add.PTCONT.5317043,R DO CAMPO DA BOLA,7,5460-120,BEÇA,-7.703399011815406,41.69731949159312
pt.ine.add.PTCONT.5317044,EM 527,11,5460-210,BOBADELA BTC,-7.616587460443578,41.73246279255783
pt.ine.add.PTCONT.5317045,R DA PASSARAMILHARA,17,5460-473,PINHO BTC,-7.6129177364963825,41.673302318203525
pt.ine.add.PTCONT.5317057,R STO ANTONIO,16,5460-411,DORNELAS BTC,-7.834463982600079,41.6423268498013
pt.ine.add.PTCONT.5317065,R DINIS EIRAS,15,5460-120,BEÇA,-7.703421332101514,41.69577097085267
pt.ine.add.PTCONT.5317076,R CENTRAL,17,5460-370,CODESSOSO,-7.7186504978262125,41.64944960430806
pt.ine.add.PTCONT.5317087,R DA COSTA,10,5460-381,COVAS DO BARROSO,-7.780259412348141,41.63563662050424
pt.ine.add.PTCONT.5317088,R DA CASTANHEIRA,11,5460-502,SAPIÃOS,-7.63866305583494,41.709529041466496
pt.ine.add.PTCONT.5317507,TV EIRAS,4,5460-309,BOTICAS,-7.672046859920396,41.68862664087482
pt.ine.add.PTCONT.5317539,R DO TORGÃO,1,5460-010,ALTURAS DO BARROSO,-7.819871867961289,41.703548259947794
pt.ine.add.PTCONT.5317540,R DO SOUTO,2,5460-451,GRANJA BTC,-7.650307959482465,41.69480381787746
pt.ine.add.PTCONT.5317850,R 5 DE OUTUBRO,22,5460-471,PINHO BTC,-7.634317081510351,41.66241285242929
pt.ine.add.PTCONT.5317861,TV DA COROA DA RUA,,5460-165,BEÇA,-7.734089453143149,41.709467835607256
pt.ine.add.PTCONT.5317862,R DR JOSÉ JOAQUIM SOUSA FERNANDES,20,5460-502,SAPIÃOS,-7.639020923004229,41.71300592404908
pt.ine.add.PTCONT.5317863,EN 103,12,5460-502,SAPIÃOS,-7.638628548144559,41.71246402766298
pt.ine.add.PTCONT.5317877,R DA CALHELHA,,5460-135,BEÇA,-7.751463835665996,41.70537623510823
pt.ine.add.PTCONT.5317883,R DO FORNO,22,5460-020,ALTURAS DO BARROSO,-7.789498608319802,41.706027459600776
pt.ine.add.PTCONT.5317884,R DIREITA,,5460-135,BEÇA,-7.750637832492983,41.70486929271294
pt.ine.add.PTCONT.5317885,TV DA PONTE,10,5460-381,COVAS DO BARROSO,-7.780109371750966,41.63234083479655
pt.ine.add.PTCONT.5317886,R DO TORNADOURO,8,5460-502,SAPIÃOS,-7.64328266597385,41.71035913852729
pt.ine.add.PTCONT.5317890,R DE SANGUNDEDO,19,5460-330,BOTICAS,-7.667879779103724,41.68850180567351
pt.ine.add.PTCONT.5317891,R 1 MAIO,28,5460-471,PINHO BTC,-7.634031476583245,41.65897225336142
pt.ine.add.PTCONT.5317892,R DA ESCOLA,20,5460-472,PINHO BTC,-7.624059135694072,41.64161464935571
pt.ine.add.PTCONT.5317913,R DO TURGUEIL,5,5460-220,BOBADELA BTC,-7.623007972935911,41.74435800199131
pt.ine.add.PTCONT.5317914,R DO CALVÁRIO,19,5460-495,SÃO SALVADOR DE VIVEIRO,-7.77426805172816,41.675026770892615
