id,street,house,postcode,city,lon,lat
pt.ine.add.PTCONT.857132,,,5300-512,BRAGANÇA,-6.80627133050274,41.83272193419671
pt.ine.add.PTCONT.857989,,,5300-701,NOGUEIRA BGC,-6.822834453701621,41.761913520624034
pt.ine.add.PTCONT.860010,,,5300-518,BRAGANÇA,-6.786625772699423,41.82867598857127
pt.ine.add.PTCONT.864192,,,5300-821,RIO DE ONOR,-6.615310884733611,41.94067839132531
pt.ine.add.PTCONT.879990,,,5300-783,QUINTELA DE LAMPAÇAS,-6.878594580359357,41.6122618415117
pt.ine.add.PTCONT.879991,,,5300-783,QUINTELA DE LAMPAÇAS,-6.87806525374515,41.61233709398945
pt.ine.add.PTCONT.881491,,,5300-514,BRAGANÇA,-6.822856728906721,41.828149729448754
pt.ine.add.PTCONT.881492,,,5300-518,BRAGANÇA,-6.786827904286252,41.82879539794655
pt.ine.add.PTCONT.892582,,,5300-493,COELHOSO,-6.680026148770599,41.630747778614705
pt.ine.add.PTCONT.897746,,,5300-781,QUINTELA DE LAMPAÇAS,-6.891132128349324,41.62348119268801
pt.ine.add.PTCONT.902154,,,5300-518,BRAGANÇA,-6.787446809492171,41.827407177644595
pt.ine.add.PTCONT.849378,R AMOREIRA,10,5300-772,QUINTANILHA,-6.5705601035875425,41.751313459068186
pt.ine.add.PTCONT.849379,R AMOREIRA,24,5300-772,QUINTANILHA,-6.570820791222963,41.75097488804573
pt.ine.add.PTCONT.849380,,,5300-781,QUINTELA DE LAMPAÇAS,-6.890313215413129,41.62176169414217
pt.ine.add.PTCONT.849381,R COSTA,5,5300-791,RABAL,-6.753179001064604,41.86822534379115
pt.ine.add.PTCONT.849382,BR CIMO DE VILA,35,5300-811,REBORDÃOS,-6.829256363413746,41.73990176762245
pt.ine.add.PTCONT.865006,,,5300-821,RIO DE ONOR,-6.616858121872879,41.940518782208095
pt.ine.add.PTCONT.849454,BR PELOURINHO,123,5300-811,REBORDÃOS,-6.82283854804676,41.74043196673589
pt.ine.add.PTCONT.849455,R CASTRO,11,5300-831,RIO FRIO BGC,-6.62813613912144,41.73950485824667
pt.ine.add.PTCONT.849456,R S ROQUE,6,5300-831,RIO FRIO BGC,-6.629369091794439,41.73560464676108
pt.ine.add.PTCONT.849457,R LINHARES,6,5300-832,RIO FRIO BGC,-6.609290991524438,41.71446182527641
pt.ine.add.PTCONT.849458,R IGREJA,14,5300-832,RIO FRIO BGC,-6.607298995085557,41.714858535422664
pt.ine.add.PTCONT.849459,R CENTRAL,,5300-822,RIO DE ONOR,-6.616717085618935,41.939346552966555
pt.ine.add.PTCONT.849460,,,5300-822,RIO DE ONOR,-6.567989564797344,41.91375473157019
pt.ine.add.PTCONT.849461,ESTR SALSAS,,5300-846,SALSAS,-6.835420269007787,41.64024220456703
pt.ine.add.PTCONT.849462,R CASEIROS,,5300-846,SALSAS,-6.835820793412575,41.63762674891705
pt.ine.add.PTCONT.849463,R CEMITÉRIO,,5300-846,SALSAS,-6.838047014138226,41.63793095966428
pt.ine.add.PTCONT.849464,R DR JOÃO GONÇALVES,,5300-846,SALSAS,-6.839607961911883,41.63969518964234
pt.ine.add.PTCONT.849465,R AMEIXOEIRA,1,5300-855,BRAGANÇA,-6.75702541027657,41.775855168679996
pt.ine.add.PTCONT.849466,R ANA GARCIA,10,5300-217,BRAGANÇA,-6.778602488087751,41.7832871178482
pt.ine.add.PTCONT.849467,R JOSE DE SA,16,5300-107,BRAGANÇA,-6.777851983751207,41.78236895030714
pt.ine.add.PTCONT.849468,R JOSE DE SA,16,5300-107,BRAGANÇA,-6.777851983751207,41.78236895030714
pt.ine.add.PTCONT.849469,R JOSE DE SA,16,5300-107,BRAGANÇA,-6.777851983751207,41.78236895030714
pt.ine.add.PTCONT.849470,R JOSE DE SA,16,5300-107,BRAGANÇA,-6.777851983751207,41.78236895030714
pt.ine.add.PTCONT.849471,R ENG JOSE LUIS PINHEIRO,,5300-861,SANTA COMBA DE ROSSAS,-6.821287565998287,41.66953165104614
pt.ine.add.PTCONT.849472,R SANTA ANA,,5300-861,SANTA COMBA DE ROSSAS,-6.829452530824394,41.664780783721945
pt.ine.add.PTCONT.849473,R ALCAIDE,19,5300-012,BRAGANÇA,-6.7412346877126454,41.80749084185985
pt.ine.add.PTCONT.849474,R QUINTA DA SEARA,499,5300-056,BRAGANÇA,-6.721273467582713,41.79424677261113
pt.ine.add.PTCONT.849475,R COR AUGUSTO MACHADO,44,5300-044,BRAGANÇA,-6.749590977902029,41.812282402765774
pt.ine.add.PTCONT.849476,R NOVA DE S BENTO,8,5300-586,BRAGANÇA,-6.749491428276964,41.80684335055807
pt.ine.add.PTCONT.849477,ESTR TURISMO,,5300-271,BRAGANÇA,-6.749080777408466,41.798528561968176
pt.ine.add.PTCONT.849478,R QUINTAS DA SEARA,,5300-056,BRAGANÇA,-6.729597672030253,41.79815709348984
pt.ine.add.PTCONT.849479,R CAP ADRIANO PIRES,,5300-023,BRAGANÇA,-6.750373271976265,41.80612472158043
pt.ine.add.PTCONT.849480,R S FRANCISCO,108,5300-050,BRAGANÇA,-6.750188122635387,41.80522218503003
pt.ine.add.PTCONT.849481,R INF D PEDRO,171,5300-025,BRAGANÇA,-6.750140696992325,41.80351102958214
pt.ine.add.PTCONT.849482,LG S VICENTE,2,5300-061,BRAGANÇA,-6.752945643993296,41.80512931094343
pt.ine.add.PTCONT.849483,R LUCIEN GUERCHE,416,5300-205,BRAGANÇA,-6.7551008302273035,41.80450696701964
pt.ine.add.PTCONT.849484,R SENHORA DA PIEDADE,76,5300-014,BRAGANÇA,-6.753541032215359,41.804299177762886
pt.ine.add.PTCONT.849485,BR CABEÇO DE S BARTOLOMEU,1,5300-101,BRAGANÇA,-6.755040139956695,41.80172428720618
pt.ine.add.PTCONT.849486,R CENTRAL,9,5300-872,SÃO JULIÃO DE PALÁCIOS,-6.618932234063305,41.825218985339475
pt.ine.add.PTCONT.849487,LG CRUZEIRO,37,5300-872,SÃO JULIÃO DE PALÁCIOS,-6.621563286860233,41.826964212641506
pt.ine.add.PTCONT.849488,R CENT RAL,102,5300-871,SÃO JULIÃO DE PALÁCIOS,-6.598271057809657,41.81944388990471
pt.ine.add.PTCONT.849489,R PRINCIPAL,11,5300-874,SÃO PEDRO DE SERRACENOS,-6.753683783726477,41.76397597462722
pt.ine.add.PTCONT.849490,R JOSE REGIO,,5300-410,BRAGANÇA,-6.765791305665253,41.81726604185511
pt.ine.add.PTCONT.849491,R GUINE,9,5300-093,BRAGANÇA,-6.76251518618204,41.816821854469005
pt.ine.add.PTCONT.849492,R GUINE,9,5300-093,BRAGANÇA,-6.76251518618204,41.816821854469005
pt.ine.add.PTCONT.849493,R FERREIRA DE CASTRO,23,5300-407,BRAGANÇA,-6.765035238314888,41.816599814597716
pt.ine.add.PTCONT.849494,R NOGUEIRA,58,5300-208,BRAGANÇA,-6.768544404435583,41.814003662528954
pt.ine.add.PTCONT.849495,R NOGUEIRA,58,5300-208,BRAGANÇA,-6.768544404435583,41.814003662528954
pt.ine.add.PTCONT.849496,R NOGUEIRA,58,5300-208,BRAGANÇA,-6.768544404435583,41.814003662528954
pt.ine.add.PTCONT.849497,R ACACIO MARIANO,,5300-072,BRAGANÇA,-6.7590095796232905,41.81022573395448
pt.ine.add.PTCONT.849498,AV LUCIANO CORDEIRO,3,5300-191,BRAGANÇA,-6.771800114999872,41.80801924040821
pt.ine.add.PTCONT.849499,R LUIS LOBO,30,5300-726,BRAGANÇA,-6.774268203350152,41.80739124183356
pt.ine.add.PTCONT.849500,R LUIS LOBO,18,5300-726,BRAGANÇA,-6.773506869542836,41.807544287493826
pt.ine.add.PTCONT.849501,R LUIS LOBO,12,5300-726,BRAGANÇA,-6.77241249284785,41.80751332137333
pt.ine.add.PTCONT.849502,R LUIS LOBO,7,5300-726,BRAGANÇA,-6.772222294356729,41.80740303095045
pt.ine.add.PTCONT.849503,R ADOLFO RAMIRES,10,5300-147,BRAGANÇA,-6.772664335828799,41.80698512291565
pt.ine.add.PTCONT.849504,R GUERRA JUNQUEIRO,60,5300-170,BRAGANÇA,-6.7590168768750445,41.808758320518336
pt.ine.add.PTCONT.849505,PC SE,20,5300-265,BRAGANÇA,-6.756211073286316,41.80604180207623
pt.ine.add.PTCONT.849506,R MACAU,195,5300-700,BRAGANÇA,-6.775970690341581,41.80483648911279
pt.ine.add.PTCONT.849507,LG TUMBEIRINHO,84,5300-368,BRAGANÇA,-6.758349226871515,41.80565327308837
pt.ine.add.PTCONT.849508,LG TUMBEIRINHO,84,5300-368,BRAGANÇA,-6.758349226871515,41.80565327308837
pt.ine.add.PTCONT.849509,LG TUMBEIRINHO,84,5300-368,BRAGANÇA,-6.758349226871515,41.80565327308837
pt.ine.add.PTCONT.849510,LG TUMBEIRINHO,84,5300-368,BRAGANÇA,-6.758349226871515,41.80565327308837
pt.ine.add.PTCONT.849511,LG TUMBEIRINHO,84,5300-368,BRAGANÇA,-6.758349226871515,41.80565327308837
pt.ine.add.PTCONT.849512,LG TUMBEIRINHO,84,5300-368,BRAGANÇA,-6.758349226871515,41.80565327308837
pt.ine.add.PTCONT.849513,LG TUMBEIRINHO,84,5300-368,BRAGANÇA,-6.758349226871515,41.80565327308837
pt.ine.add.PTCONT.849514,LG TUMBEIRINHO,84,5300-368,BRAGANÇA,-6.758349226871515,41.80565327308837
pt.ine.add.PTCONT.849515,LG TUMBEIRINHO,84,5300-368,BRAGANÇA,-6.758349226871515,41.80565327308837
pt.ine.add.PTCONT.849516,LG TUMBEIRINHO,84,5300-368,BRAGANÇA,-6.758349226871515,41.80565327308837
pt.ine.add.PTCONT.849517,LG TUMBEIRINHO,84,5300-368,BRAGANÇA,-6.758349226871515,41.80565327308837
pt.ine.add.PTCONT.849518,R DR CAMPOS MONTEIRO,16,5300-131,BRAGANÇA,-6.7778457125440665,41.80550685123544
pt.ine.add.PTCONT.849519,R SENHORA DO AR,3,5300-249,BRAGANÇA,-6.777592363467954,41.80439648186533
pt.ine.add.PTCONT.849520,BR PREVIDENCIA,2,5300-121,BRAGANÇA,-6.765157015840376,41.802394413361945
pt.ine.add.PTCONT.849521,BR PREVIDENCIA,2,5300-121,BRAGANÇA,-6.765157015840376,41.802394413361945
pt.ine.add.PTCONT.849522,R ENG OLIVEIRA DIAS,3,5300-859,BRAGANÇA,-6.783017191657371,41.8003866905588
pt.ine.add.PTCONT.849523,R ENG OLIVEIRA DIAS,3,5300-859,BRAGANÇA,-6.783017191657371,41.8003866905588
pt.ine.add.PTCONT.849524,R ENG OLIVEIRA DIAS,3,5300-859,BRAGANÇA,-6.783017191657371,41.8003866905588
pt.ine.add.PTCONT.849525,R ENG OLIVEIRA DIAS,3,5300-859,BRAGANÇA,-6.783017191657371,41.8003866905588
pt.ine.add.PTCONT.849526,R DR EURICO CARRAPATOSO,38,5300-457,BRAGANÇA,-6.776092005843138,41.80022834064477
pt.ine.add.PTCONT.849527,R DR EURICO CARRAPATOSO,7,5300-457,BRAGANÇA,-6.774968804801865,41.80099833385733
pt.ine.add.PTCONT.849528,R DR DEOCLECIANO CARVALHO,8,5300-455,BRAGANÇA,-6.774121541250427,41.80009700616153
pt.ine.add.PTCONT.849529,R DR DEOCLECIANO CARVALHO,8,5300-455,BRAGANÇA,-6.774121541250427,41.80009700616153
pt.ine.add.PTCONT.849530,R MANUEL MADUREIRA,9,5300-456,BRAGANÇA,-6.774456829724319,41.80017299749999
pt.ine.add.PTCONT.849531,R JOÃO DE BARROS,106,5300-391,BRAGANÇA,-6.759861904124601,41.79229278038379
pt.ine.add.PTCONT.849532,R JOÃO DE BARROS,69,5300-391,BRAGANÇA,-6.7634116653940675,41.79282133277162
pt.ine.add.PTCONT.849533,R VALE DO CHORIDO,181,5300-389,BRAGANÇA,-6.759401759683357,41.79130594038065
pt.ine.add.PTCONT.849534,R VALE DO CHORIDO,19,5300-389,BRAGANÇA,-6.761613685357007,41.794204361219776
pt.ine.add.PTCONT.849553,AV PORTELA,26,5300-492,COELHOSO,-6.667523002206659,41.651350582444174
pt.ine.add.PTCONT.849554,R EIRA DA QUAGA,1,5300-492,COELHOSO,-6.665568814561478,41.654413762677216
pt.ine.add.PTCONT.849555,AV SABOR,,5300-553,GIMONDE,-6.705635262123758,41.79850100028705
pt.ine.add.PTCONT.849556,ESTR VINHAIS NACIONAL 103,,5300-563,GONDESENDE,-6.860313580068512,41.839842802321826
pt.ine.add.PTCONT.849557,R PRINCIPAL,7,5300-581,GRIJÓ DE PARADA,-6.700815601724787,41.73719285395869
pt.ine.add.PTCONT.849558,R PRINCIPAL,3,5300-581,GRIJÓ DE PARADA,-6.7005644493316945,41.737135703560355
pt.ine.add.PTCONT.849559,R SENHORA CABECA,7,5300-701,NOGUEIRA BGC,-6.81833351953649,41.775636925937896
pt.ine.add.PTCONT.849560,R S PLAGIO,29,5300-701,NOGUEIRA BGC,-6.81277838419483,41.771458770317956
pt.ine.add.PTCONT.849561,R SOUTO,,5300-701,NOGUEIRA BGC,-6.813211310916314,41.769113922588936
pt.ine.add.PTCONT.849562,R PAREDES,14,5300-701,NOGUEIRA BGC,-6.806445598824254,41.767703518238264
pt.ine.add.PTCONT.849563,R DR CORDEIRO,7,5300-712,OUTEIRO BGC,-6.577273234905161,41.70331897136949
pt.ine.add.PTCONT.849564,R NOGUEIRA,3,5300-208,BRAGANÇA,-6.7656462216265885,41.81277178425595
pt.ine.add.PTCONT.849565,R NOGUEIRA,3,5300-208,BRAGANÇA,-6.7656462216265885,41.81277178425595
pt.ine.add.PTCONT.849578,BR CIMA,,5300-401,ALFAIÃO,-6.72606453579098,41.762209498195645
pt.ine.add.PTCONT.849579,R CAELHA,,5300-411,AVELEDA BGC,-6.695058087898076,41.891027853202345
pt.ine.add.PTCONT.849580,R IGREJA,,5300-411,AVELEDA BGC,-6.6955656160607315,41.890962185359
pt.ine.add.PTCONT.849581,TV FONTE,2,5300-412,AVELEDA BGC,-6.68102008271679,41.87085565815686
pt.ine.add.PTCONT.849582,R PORTELA,35,5300-421,BABE,-6.636693925334566,41.82488460800076
pt.ine.add.PTCONT.849583,R IGREJA,2,5300-421,BABE,-6.634720823375969,41.82381453389306
pt.ine.add.PTCONT.849584,R CANTO,7,5300-421,BABE,-6.635272005166663,41.822372241448626
pt.ine.add.PTCONT.849585,R IGREJA,17,5300-502,DEILÃO,-6.525174188638947,41.8667893688489
pt.ine.add.PTCONT.849586,R PORTELA,72,5300-501,DEILÃO,-6.5875529229379355,41.855735099687536
pt.ine.add.PTCONT.849587,R EIRAS DO CABO,6,5300-503,DEILÃO,-6.588805126793365,41.83572040077182
pt.ine.add.PTCONT.849588,,,5300-512,BRAGANÇA,-6.80826134354785,41.83370823525623
pt.ine.add.PTCONT.849589,,,5300-518,BRAGANÇA,-6.78346247205683,41.82511866264842
pt.ine.add.PTCONT.849590,AV IGREJA,27,5300-582,GRIJÓ DE PARADA,-6.686982696590036,41.71619524608951
pt.ine.add.PTCONT.849591,LG TOURAL,,5300-640,IZEDA,-6.723551573265827,41.56735691886411
pt.ine.add.PTCONT.849592,R CASTELO,6,5300-711,OUTEIRO BGC,-6.5991102128128105,41.681752901357726
pt.ine.add.PTCONT.849593,BR BARROSA,,5300-721,PARADA BGC,-6.690327784353574,41.68106177801685
pt.ine.add.PTCONT.849594,LG EIRA DAS MALHAS,,5300-721,PARADA BGC,-6.694087258535126,41.6751127640937
pt.ine.add.PTCONT.849595,R ENG OLIVEIRA DIAS,3,5300-859,BRAGANÇA,-6.783017191657371,41.8003866905588
pt.ine.add.PTCONT.849596,R ENG OLIVEIRA DIAS,3,5300-859,BRAGANÇA,-6.783017191657371,41.8003866905588
pt.ine.add.PTCONT.849597,R ENG OLIVEIRA DIAS,3,5300-859,BRAGANÇA,-6.783017191657371,41.8003866905588
pt.ine.add.PTCONT.849598,R VISC BOUCA,15,5300-318,BRAGANÇA,-6.76525491197578,41.80005477666462
pt.ine.add.PTCONT.849599,R VISC BOUCA,15,5300-318,BRAGANÇA,-6.76525491197578,41.80005477666462
pt.ine.add.PTCONT.849600,R VISC BOUCA,15,5300-318,BRAGANÇA,-6.76525491197578,41.80005477666462
pt.ine.add.PTCONT.849601,R VISC BOUCA,15,5300-318,BRAGANÇA,-6.76525491197578,41.80005477666462
pt.ine.add.PTCONT.849602,R VISC BOUCA,15,5300-318,BRAGANÇA,-6.76525491197578,41.80005477666462
pt.ine.add.PTCONT.849603,R VISC BOUCA,15,5300-318,BRAGANÇA,-6.76525491197578,41.80005477666462
pt.ine.add.PTCONT.849604,R VISC BOUCA,15,5300-318,BRAGANÇA,-6.76525491197578,41.80005477666462
pt.ine.add.PTCONT.849605,R VISC BOUCA,15,5300-318,BRAGANÇA,-6.76525491197578,41.80005477666462
pt.ine.add.PTCONT.849606,R PACHECO SOUSA,7,5300-299,BRAGANÇA,-6.773694332736371,41.79640068177052
pt.ine.add.PTCONT.849607,R CÓNEGO JOSE ROCHA,2,5300-146,BRAGANÇA,-6.770240783135524,41.799834949785804
pt.ine.add.PTCONT.849608,R RAINHA SANTA,6,5300-296,BRAGANÇA,-6.7806019360275815,41.7951767786806
pt.ine.add.PTCONT.849609,R AQUILINO RIBEIRO,22,5300-087,BRAGANÇA,-6.7640366961113285,41.79567376302378
pt.ine.add.PTCONT.849610,R ARQ VIANA DE LIMA,8,5300-678,BRAGANÇA,-6.774792656803354,41.787689667295204
pt.ine.add.PTCONT.849611,R HENRIQUE TAVARES,18,5300-171,BRAGANÇA,-6.774345112643492,41.788944809399354
pt.ine.add.PTCONT.849612,R ARTUR MIRANDELA,48,5300-018,BRAGANÇA,-6.763881227349286,41.79393431230398
pt.ine.add.PTCONT.849613,R VALE DO CHORIDO,12,5300-389,BRAGANÇA,-6.762917527955304,41.79342764987141
pt.ine.add.PTCONT.849625,R CAMPO,5,5300-421,BABE,-6.6326088594656465,41.81838515989504
pt.ine.add.PTCONT.849626,R FUNDO DO LUGAR,46,5300-433,BAÇAL,-6.6962012289255215,41.85560655165785
pt.ine.add.PTCONT.849627,R SANTA BARBARA,2,5300-434,BAÇAL,-6.709187816904321,41.825518225409404
pt.ine.add.PTCONT.849628,LG EIRA,,5300-532,FAILDE,-6.7521956147212565,41.72569464383537
pt.ine.add.PTCONT.849629,R PRINCIPAL,,5300-532,FAILDE,-6.752468935646697,41.724716580506275
pt.ine.add.PTCONT.849630,R CRUZ,,5300-541,FRANÇA,-6.738457377246957,41.90104330445386
pt.ine.add.PTCONT.849631,TV IZEDO,,5300-610,IZEDA,-6.723651450751705,41.5616589794119
pt.ine.add.PTCONT.849632,R CENTRAL,14,5300-661,MACEDO DO MATO,-6.7599109488417435,41.57537785586194
pt.ine.add.PTCONT.849633,R FUNDO DO POVO,1,5300-663,MACEDO DO MATO,-6.780847186826436,41.576454348864836
pt.ine.add.PTCONT.849634,R BAIXO,10,5300-682,MILHÃO,-6.627133918787512,41.77620632063917
pt.ine.add.PTCONT.849635,R BAIXO,20,5300-682,MILHÃO,-6.627287678824328,41.77580319867487
pt.ine.add.PTCONT.849636,R EIRA VELHA,,5300-743,PARÂMIO,-6.894470643043173,41.89281204651581
pt.ine.add.PTCONT.849637,R ESTRADA MUNICIPAL,44,5300-751,PINELA,-6.760794695565179,41.671166033435206
pt.ine.add.PTCONT.849638,R PARDAL,11,5300-751,PINELA,-6.756527933177788,41.66909826650066
pt.ine.add.PTCONT.849639,R CALVÁRIO,14,5300-774,QUINTANILHA,-6.590952570417537,41.78135314825336
pt.ine.add.PTCONT.849640,R ADEGAS,6,5300-773,QUINTANILHA,-6.587820012989662,41.755517295326094
pt.ine.add.PTCONT.849641,R CANTINHO,1,5300-891,SERAPICOS BGC,-6.762877653718665,41.617657157969354
pt.ine.add.PTCONT.849642,R NSA SRA DO AVISO,11,5300-891,SERAPICOS BGC,-6.762583664208893,41.61850897180411
pt.ine.add.PTCONT.849643,BR ALTO,,5300-903,SORTES,-6.83190262635553,41.696932304739086
pt.ine.add.PTCONT.849644,EN 316,8,5300-911,ZOIO,-6.921341270090657,41.75491895469464
pt.ine.add.PTCONT.850195,EM 518,,5300-572,BRAGANÇA,-6.832617560195942,41.79490418886503
pt.ine.add.PTCONT.850220,,,5300-783,QUINTELA DE LAMPAÇAS,-6.871427561196109,41.615586686724804
pt.ine.add.PTCONT.850221,,,5300-512,BRAGANÇA,-6.805388168867851,41.83235160510086
pt.ine.add.PTCONT.850046,R NOVA,,5300-544,FRANÇA,-6.729335033540176,41.92908421043839
pt.ine.add.PTCONT.850047,R S JOÃO DE BRITO,,5300-261,BRAGANÇA,-6.7605226535412815,41.799665208034966
pt.ine.add.PTCONT.850051,R ENG OLIVEIRA DIAS,3,5300-859,BRAGANÇA,-6.783017191657371,41.8003866905588
pt.ine.add.PTCONT.850059,R QUEIROGAL,,5300-861,SANTA COMBA DE ROSSAS,-6.836005162687653,41.66553017886003
pt.ine.add.PTCONT.850063,R LUCIEN GUERCHE,416,5300-205,BRAGANÇA,-6.7551008302273035,41.80450696701964
pt.ine.add.PTCONT.850065,R EIRA DA QUAGA,9,5300-492,COELHOSO,-6.665205361769473,41.65403098388828
pt.ine.add.PTCONT.850066,R SOUTO,44,5300-266,BRAGANÇA,-6.765841401875844,41.812648064974034
pt.ine.add.PTCONT.850071,AV JOÃO DA CRUZ,7,5300-178,BRAGANÇA,-6.7583930220249435,41.80754444325553
pt.ine.add.PTCONT.850076,R PEREIRO,33,5300-621,IZEDA,-6.7224984598080315,41.56506613759197
pt.ine.add.PTCONT.850079,R ESTRADA,2,5300-831,RIO FRIO BGC,-6.62491645132072,41.7384002663309
pt.ine.add.PTCONT.850080,R JOSE DE SA,16,5300-107,BRAGANÇA,-6.777851983751207,41.78236895030714
pt.ine.add.PTCONT.850105,R FERREIRA DEUSDADO,15,5300-196,BRAGANÇA,-6.786419899207415,41.7998469688984
pt.ine.add.PTCONT.850106,R MANUEL ASSIS PIRES,2,5300-722,PARADA BGC,-6.726444016522215,41.699660092036844
pt.ine.add.PTCONT.850107,LG REGEDOR,,5300-433,BAÇAL,-6.697284244479728,41.85671846161319
pt.ine.add.PTCONT.850108,R COR MORAIS,6,5300-432,BAÇAL,-6.723163415513284,41.85288875382305
pt.ine.add.PTCONT.850112,R PACHECO DE SOUSA,9,5300-299,BRAGANÇA,-6.773694332736371,41.79640068177052
pt.ine.add.PTCONT.850113,R JAIME CORTESAO,21,5300-120,BRAGANÇA,-6.763791870704719,41.817341254470406
pt.ine.add.PTCONT.850114,BR SANTO ANTÓNIO,,5300-811,REBORDÃOS,-6.810458753423926,41.740938338645066
pt.ine.add.PTCONT.850115,BR SANTO ANTÓNIO,227,5300-811,REBORDÃOS,-6.8108108124662845,41.74194174592518
pt.ine.add.PTCONT.850116,R DR HERCULANO DA CONCEIÇÃO,,5300-032,BRAGANÇA,-6.755121766657613,41.807460226992056
pt.ine.add.PTCONT.850117,R DR HERCULANO DA CONCEIÇÃO,2,5300-032,BRAGANÇA,-6.755121766657613,41.807460226992056
pt.ine.add.PTCONT.850118,R DR HERCULANO DA CONCEIÇÃO,2,5300-032,BRAGANÇA,-6.755121766657613,41.807460226992056
pt.ine.add.PTCONT.850119,R DR HERCULANO DA CONCEIÇÃO,,5300-032,BRAGANÇA,-6.755121766657613,41.807460226992056
pt.ine.add.PTCONT.850120,R DR HERCULANO DA CONCEIÇÃO,,5300-032,BRAGANÇA,-6.755121766657613,41.807460226992056
pt.ine.add.PTCONT.850121,AV SANTO ANTÓNIO,,5300-721,PARADA BGC,-6.683466620667408,41.661960577442905
pt.ine.add.PTCONT.850152,R JAIME CORTESÃO,16,5300-120,BRAGANÇA,-6.764402824005442,41.81747457988098
pt.ine.add.PTCONT.850153,R SOUTO,44,5300-266,BRAGANÇA,-6.765841401875844,41.812648064974034
pt.ine.add.PTCONT.850154,R ESTUDANTE,9,5300-685,BRAGANÇA,-6.761304887424909,41.80304170710353
pt.ine.add.PTCONT.850155,R ESTUDANTE,9,5300-685,BRAGANÇA,-6.761304887424909,41.80304170710353
pt.ine.add.PTCONT.850156,R ESTUDANTE,9,5300-685,BRAGANÇA,-6.761304887424909,41.80304170710353
pt.ine.add.PTCONT.850157,R ENG OLIVEIRA DIAS,3,5300-859,BRAGANÇA,-6.783017191657371,41.8003866905588
pt.ine.add.PTCONT.850158,R ENG OLIVEIRA DIAS,3,5300-859,BRAGANÇA,-6.783017191657371,41.8003866905588
pt.ine.add.PTCONT.850179,VALE HORTOS,2,5300-412,AVELEDA BGC,-6.687393009834849,41.8724125578388
pt.ine.add.PTCONT.850180,,,5300-518,BRAGANÇA,-6.7871658090322144,41.828754343251674
pt.ine.add.PTCONT.850181,R NOVA,,5300-544,FRANÇA,-6.726743079096633,41.92853032009073
pt.ine.add.PTCONT.850182,R ÁLVARO MACHADO,8,5300-320,BRAGANÇA,-6.789362495346895,41.79565773229907
pt.ine.add.PTCONT.850183,R PAREDES,27,5300-701,NOGUEIRA BGC,-6.810032717660858,41.76929343207312
pt.ine.add.PTCONT.850184,R CENTRAL,15,5300-751,PINELA,-6.759935514573824,41.67091268141488
pt.ine.add.PTCONT.850185,R EIRAS,4,5300-412,AVELEDA BGC,-6.681394393694837,41.870815376397545
pt.ine.add.PTCONT.850186,R ESCAIRO,3,5300-492,COELHOSO,-6.6669479337725175,41.65447638223134
pt.ine.add.PTCONT.850187,R ESCAIRO,22,5300-492,COELHOSO,-6.66708811279514,41.6541180401809
pt.ine.add.PTCONT.850188,BR BARROSA,31,5300-721,PARADA BGC,-6.689293499998822,41.68058962218205
pt.ine.add.PTCONT.850190,R CENTRAL,25,5300-673,MEIXEDO BGC,-6.770585840746513,41.852236808394146
pt.ine.add.PTCONT.850191,R PORTELA,53,5300-791,RABAL,-6.751591743660515,41.87033996452002
pt.ine.add.PTCONT.850192,R PINHEIRO,3,5300-791,RABAL,-6.752680362875111,41.870127982346055
pt.ine.add.PTCONT.850193,R FONTE,2,5300-791,RABAL,-6.752398524208119,41.86979148355396
pt.ine.add.PTCONT.850194,R DONAI,,5300-511,BRAGANÇA,-6.790790574392384,41.80966524087155
pt.ine.add.PTCONT.850196,BR FONTE,8,5300-721,PARADA BGC,-6.691952074451008,41.67823713902823
pt.ine.add.PTCONT.850197,,,5300-761,POMBARES,-6.89005941569512,41.64059404648794
pt.ine.add.PTCONT.850198,,,5300-761,POMBARES,-6.889407564621079,41.64016383582334
pt.ine.add.PTCONT.850199,R FONTE,6,5300-791,RABAL,-6.752897469264879,41.86955440142652
pt.ine.add.PTCONT.850200,R BAREIRA,,5300-422,BABE,-6.6407186097087445,41.85266614724157
pt.ine.add.PTCONT.850201,LG S BARTOLOMEU,,5300-635,IZEDA,-6.720832459821379,41.56725152015523
pt.ine.add.PTCONT.850202,,,5300-761,POMBARES,-6.888488266644563,41.639910793147074
pt.ine.add.PTCONT.850203,TV VALE RODRIGO,3,5300-441,CALVELHE,-6.708546459595575,41.60423887716171
pt.ine.add.PTCONT.850204,R SOUTO,3,5300-482,BRAGANÇA,-6.818502254190048,41.81741331590246
pt.ine.add.PTCONT.850205,R ATALHOS,12,5300-553,GIMONDE,-6.700450054742931,41.80442347375422
pt.ine.add.PTCONT.850206,R DR CORDEIRO,26,5300-712,OUTEIRO BGC,-6.576653796111323,41.702104160196996
pt.ine.add.PTCONT.850207,R PORTELA,,5300-802,REBORDAINHOS,-6.862204517587869,41.66978436711086
pt.ine.add.PTCONT.850208,AV S ROQUE,,5300-721,PARADA BGC,-6.703032734112708,41.6816617563279
pt.ine.add.PTCONT.850209,R CENTRAL,40,5300-772,QUINTANILHA,-6.568812366127119,41.751001574024265
pt.ine.add.PTCONT.850210,BR BAIXO,,5300-401,ALFAIÃO,-6.724143477594323,41.76427467681794
pt.ine.add.PTCONT.850211,R EIRA VELHA,,5300-743,PARÂMIO,-6.894768337148072,41.89299531752954
pt.ine.add.PTCONT.850212,BR OLEIROS,,5300-721,PARADA BGC,-6.6949371263293935,41.67793241465107
pt.ine.add.PTCONT.850215,R CANELHAS,,5300-461,CARRAZEDO BGC,-6.888386442006894,41.79960949804405
pt.ine.add.PTCONT.850216,ESTR VINHAIS,,5300-710,BRAGANÇA,-6.808525626050943,41.81213091839488
pt.ine.add.PTCONT.850217,,,5300-512,BRAGANÇA,-6.809610419123145,41.83366977190817
pt.ine.add.PTCONT.850218,R RIBEIRA GRANDE,9,5300-662,MACEDO DO MATO,-6.757245281632781,41.58572691570545
pt.ine.add.PTCONT.850219,R TRAS,65,5300-691,MÓS BGC,-6.806584889115574,41.68908907410823
pt.ine.add.PTCONT.850222,R PRINCIPAL,,5300-531,FAILDE,-6.736761277671122,41.713632880474904
pt.ine.add.PTCONT.850223,R FONTE DO LAMEIRO,1,5300-751,PINELA,-6.765168830629464,41.67271273018098
pt.ine.add.PTCONT.850224,LG CORETO,5,5300-600,IZEDA,-6.72104035006961,41.571467669849476
pt.ine.add.PTCONT.850225,CAN BAIRRINHO,5,5300-731,PARADINHA NOVA,-6.663743216603439,41.6148299919704
pt.ine.add.PTCONT.850228,R CANILEIRO,22,5300-492,COELHOSO,-6.674755919684506,41.65053326580549
pt.ine.add.PTCONT.850229,R NOVA,,5300-544,FRANÇA,-6.730087679195463,41.92994868497594
pt.ine.add.PTCONT.850230,BR GODINHA,134,5300-811,REBORDÃOS,-6.823593564267501,41.74172803290101
pt.ine.add.PTCONT.850231,R OLIMPIO DAS NEVES,23,5300-324,BRAGANÇA,-6.758069364937209,41.80073424073831
pt.ine.add.PTCONT.850232,R PROF JORGE DIAS,9,5300-242,BRAGANÇA,-6.759568344013286,41.79984286461498
pt.ine.add.PTCONT.850233,R CONDE DE ARIÃES,86,5300-114,BRAGANÇA,-6.785027697233968,41.79755160806469
pt.ine.add.PTCONT.850234,R SENHORA DO AR,1,5300-249,BRAGANÇA,-6.777650804503123,41.80447819934825
pt.ine.add.PTCONT.850235,R PADRE ANTÓNIO RIBEIRO,14,5300-288,BRAGANÇA,-6.773509682048533,41.79602936919071
pt.ine.add.PTCONT.850236,R AFONSO DA COSTA,70,5300-387,BRAGANÇA,-6.763023526236062,41.792969756299236
pt.ine.add.PTCONT.850237,R CARREIRA DE TIRO,20,5300-724,BRAGANÇA,-6.780738632729506,41.80240787519334
pt.ine.add.PTCONT.850238,R VALE DO CHORIDO,209,5300-389,BRAGANÇA,-6.764057702571284,41.79299109060661
pt.ine.add.PTCONT.850239,R ENG ADELINO AMARO DA COSTA,19,5300-146,BRAGANÇA,-6.7611645518790064,41.80454354549411
pt.ine.add.PTCONT.850240,R RAINHA SANTA ISABEL,,5300-687,BRAGANÇA,-6.763213830553533,41.80211016403519
pt.ine.add.PTCONT.850241,R DR ANTÓNIO GRANJO,38,5300-129,BRAGANÇA,-6.776431483447421,41.80181689515783
pt.ine.add.PTCONT.850242,R PICADEIRO,5,5300-229,BRAGANÇA,-6.756503809621269,41.806981630903266
pt.ine.add.PTCONT.850243,R PICADEIRO,5,5300-229,BRAGANÇA,-6.756503809621269,41.806981630903266
pt.ine.add.PTCONT.850244,R DR RAUL TEIXEIRA,61,5300-246,BRAGANÇA,-6.75642783501061,41.80491001275408
pt.ine.add.PTCONT.850245,R ABADE CICOURO,4,5300-069,BRAGANÇA,-6.767543777175592,41.81068764243837
pt.ine.add.PTCONT.850246,R OLMOS,9,5300-219,BRAGANÇA,-6.766795185395999,41.8108047825441
pt.ine.add.PTCONT.850248,R PADRE ANTÓNIO RIBEIRO,9,5300-288,BRAGANÇA,-6.772855367166114,41.795679504463905
pt.ine.add.PTCONT.850264,R BARTOLOMEU DE GUSMÃO,13,5300-232,BRAGANÇA,-6.767527178804289,41.79277130165561
pt.ine.add.PTCONT.850272,R VALE,1,5300-913,ZOIO,-6.887533892038503,41.74730979716969
pt.ine.add.PTCONT.850276,R MARECHAL CARMONA,20,5300-002,BRAGANÇA,-6.762484064864979,41.796267456297386
pt.ine.add.PTCONT.850279,R AQUILINO RIBEIRO,55,5300-087,BRAGANÇA,-6.76295359759423,41.795687857202985
pt.ine.add.PTCONT.850280,R AQUILINO RIBEIRO,55,5300-087,BRAGANÇA,-6.76295359759423,41.795687857202985
pt.ine.add.PTCONT.850281,R CANCELA,,5300-893,SERAPICOS BGC,-6.741272839579935,41.6425978903675
pt.ine.add.PTCONT.850284,R EMIGRANTE,,5300-892,SERAPICOS BGC,-6.760097826502012,41.638970906861324
pt.ine.add.PTCONT.850296,R CAMILO CASTELO BRANCO,49,5300-106,BRAGANÇA,-6.765409998651386,41.79559108984568
pt.ine.add.PTCONT.850297,R CAMILO CASTELO BRANCO,89,5300-106,BRAGANÇA,-6.765042265657901,41.79591082188131
pt.ine.add.PTCONT.850298,R S SEBASTIÃO,11,5300-891,SERAPICOS BGC,-6.75794245528909,41.61728310059836
pt.ine.add.PTCONT.850302,R S SEBASTIÃO,10,5300-891,SERAPICOS BGC,-6.756174049507966,41.617505019985714
pt.ine.add.PTCONT.850307,TV VALES,,5300-061,BRAGANÇA,-6.743969668944276,41.80621850847747
pt.ine.add.PTCONT.850308,R SILOS,,5300-861,SANTA COMBA DE ROSSAS,-6.830213394225585,41.66634698613711
pt.ine.add.PTCONT.850309,R FONTE DA URZE,,5300-861,SANTA COMBA DE ROSSAS,-6.832351060490172,41.666326185351814
pt.ine.add.PTCONT.850310,R TRINDADE COELHO,24,5300-061,BRAGANÇA,-6.75206646203777,41.80460556753128
pt.ine.add.PTCONT.850311,R TERRA FRIA,37,5300-268,BRAGANÇA,-6.772209197530847,41.81313783547189
pt.ine.add.PTCONT.850312,R MOREIRINHAS,52,5300-205,BRAGANÇA,-6.75381970271154,41.80477068463402
pt.ine.add.PTCONT.850313,R FRANCISCO GARCIA,16,5300-194,BRAGANÇA,-6.774506933396691,41.784130058259485
pt.ine.add.PTCONT.850314,R DR EMILIA MORGADO,11,5300-232,BRAGANÇA,-6.7754950874773066,41.78347551101974
pt.ine.add.PTCONT.850315,R DR EMILIA MORGADO,11,5300-232,BRAGANÇA,-6.7754950874773066,41.78347551101974
pt.ine.add.PTCONT.850316,R SANTA COMBA,,5300-861,SANTA COMBA DE ROSSAS,-6.828626597377897,41.663465930300525
pt.ine.add.PTCONT.850317,R ALCAIDE,22,5300-012,BRAGANÇA,-6.741146826029957,41.80710264515419
pt.ine.add.PTCONT.850318,BR CIMO DE VILA,8,5300-811,REBORDÃOS,-6.83053790719882,41.73953817013636
pt.ine.add.PTCONT.850319,AV DINASTIA DE BRAGANÇA,30,5300-399,BRAGANÇA,-6.759635397438019,41.8164183262561
pt.ine.add.PTCONT.850320,AV DINASTIA DE BRAGANÇA,30,5300-399,BRAGANÇA,-6.759635397438019,41.8164183262561
pt.ine.add.PTCONT.850321,R SEIXAGAL,B,5300-058,BRAGANÇA,-6.7488321745838045,41.80951832158262
pt.ine.add.PTCONT.850322,R SENHORA DA PIEDADE,122,5300-665,BRAGANÇA,-6.754614109610582,41.8036368309385
pt.ine.add.PTCONT.850323,R LOURENÇO MARQUES,166,5300-006,BRAGANÇA,-6.776503254608843,41.81837440428695
pt.ine.add.PTCONT.850324,AV BRIG FIGUEIREDO SARMENTO,64,5300-302,BRAGANÇA,-6.759976022863973,41.81962748849558
pt.ine.add.PTCONT.850325,R TIMOR,36,5300-312,BRAGANÇA,-6.763084856430291,41.813245431255275
pt.ine.add.PTCONT.850326,R MOÇAMBIQUE,40,5300-311,BRAGANÇA,-6.762487512682893,41.81304023673635
pt.ine.add.PTCONT.850327,R LUÍS AMORIM,3,5300-714,BRAGANÇA,-6.772146572409085,41.80927477421005
pt.ine.add.PTCONT.850328,R NOVA DE S BENTO,24,5300-586,BRAGANÇA,-6.750111350404211,41.806553715511065
pt.ine.add.PTCONT.850329,R NOGUEIRA,62,5300-208,BRAGANÇA,-6.768900382458893,41.81424197117901
pt.ine.add.PTCONT.850330,ESTR TURISMO,19,5300-853,BRAGANÇA,-6.761118728409538,41.785258369592384
pt.ine.add.PTCONT.850331,ESTR TURISMO,,5300-271,BRAGANÇA,-6.747008383911471,41.79810743547215
pt.ine.add.PTCONT.850332,R DR ANTÓNIO CARMONA E LIMA,19A,5300-403,BRAGANÇA,-6.762101490588883,41.817032990295665
pt.ine.add.PTCONT.850333,R VAL,5,5300-832,RIO FRIO BGC,-6.6078292576984525,41.71377619606334
pt.ine.add.PTCONT.850334,R CENTRAL,5,5300-852,BRAGANÇA,-6.752889683760703,41.78587102866658
pt.ine.add.PTCONT.850335,R IGREJA,23,5300-832,RIO FRIO BGC,-6.607068209314228,41.71496350792559
pt.ine.add.PTCONT.850336,R TRINDADE COELHO,29,5300-061,BRAGANÇA,-6.751508030958002,41.80427474075788
pt.ine.add.PTCONT.850337,R DR JOÃO JOSE FREITAS,26,5300-137,BRAGANÇA,-6.770245044167618,41.81382578780552
pt.ine.add.PTCONT.850338,R SAPATO,,5300-015,BRAGANÇA,-6.75475341198162,41.813415838548295
pt.ine.add.PTCONT.850339,AV SABOR,,5300-367,BRAGANÇA,-6.744386781171127,41.811976511987204
pt.ine.add.PTCONT.850340,AV CIDADE ZAMORA,64A,5300-111,BRAGANÇA,-6.752509136006711,41.8080860759908
pt.ine.add.PTCONT.850341,R FUNDO DO POVO,1B,5300-855,BRAGANÇA,-6.7570077059531375,41.77668324366477
pt.ine.add.PTCONT.851104,R CALEJA,,5300-845,SALSAS,-6.814500974966071,41.63727608654386
pt.ine.add.PTCONT.850768,R DR CAMPOS MONTEIRO,26,5300-131,BRAGANÇA,-6.767731504647137,41.81034775747637
pt.ine.add.PTCONT.850769,ESTR TURISMO,30 B,5300-271,BRAGANÇA,-6.75136236501958,41.79929428510983
pt.ine.add.PTCONT.850770,R ESTRADA DO TURISMO,19,5300-271,BRAGANÇA,-6.75755211145591,41.80185343261147
pt.ine.add.PTCONT.850771,R RIO,,5300-904,SORTES,-6.834050149499484,41.69408455932893
pt.ine.add.PTCONT.850772,R NOGUEIRA,62,5300-208,BRAGANÇA,-6.768900382458893,41.81424197117901
pt.ine.add.PTCONT.850773,R ALMADA NEGREIROS,70,5300-092,BRAGANÇA,-6.772365163616435,41.79041588646521
pt.ine.add.PTCONT.850774,AV CANTARIAS,12,5300-107,BRAGANÇA,-6.771797167845556,41.78940080824013
pt.ine.add.PTCONT.850775,R PADRE ANTÓNIO RIBEIRO,14,5300-288,BRAGANÇA,-6.773509682048533,41.79602936919071
pt.ine.add.PTCONT.850778,R SENHORA CABECA,2,5300-701,NOGUEIRA BGC,-6.816177039640247,41.77346047084012
pt.ine.add.PTCONT.850784,R PENHA,34,5300-502,DEILÃO,-6.52469738727127,41.86563032194842
pt.ine.add.PTCONT.850788,R CRUZINHA,,5300-692,MÓS BGC,-6.794020785055583,41.713423175580715
pt.ine.add.PTCONT.850789,R FONTE,,5300-562,GONDESENDE,-6.841202788525509,41.85142340806823
pt.ine.add.PTCONT.850803,R ESTRADA MUNICIPAL,18,5300-751,PINELA,-6.766520650211758,41.67295389618192
pt.ine.add.PTCONT.850804,R CAMILO CASTELO BRANCO,89,5300-106,BRAGANÇA,-6.766596988193417,41.79465088959841
pt.ine.add.PTCONT.850816,R CIDADE DE BRAGANÇA,,5300-625,IZEDA,-6.737923569378454,41.56523636347999
pt.ine.add.PTCONT.850818,ESTR AERODROMO,,5300-432,BAÇAL,-6.726273345867332,41.81976877977509
pt.ine.add.PTCONT.850819,R COR MORAIS,5,5300-432,BAÇAL,-6.723194786396546,41.85310521080974
pt.ine.add.PTCONT.850820,R PINELOS,10,5300-432,BAÇAL,-6.7212986299167685,41.852811824617454
pt.ine.add.PTCONT.850823,R DR ADRIAO AMADO,39,5300-073,BRAGANÇA,-6.757106797711687,41.81029298410636
pt.ine.add.PTCONT.850824,R DR ADRIAO AMADO,39,5300-073,BRAGANÇA,-6.757106797711687,41.81029298410636
pt.ine.add.PTCONT.850825,AV CANTARIAS,15,5300-107,BRAGANÇA,-6.771797167845556,41.78940080824013
pt.ine.add.PTCONT.850826,AV BRIG FIGUEIREDO SARMENTO,54,5300-302,BRAGANÇA,-6.759976022863973,41.81962748849558
pt.ine.add.PTCONT.850827,AV BRIG FIGUEIREDO SARMENTO,54,5300-302,BRAGANÇA,-6.759976022863973,41.81962748849558
pt.ine.add.PTCONT.850828,AV BRIG FIGUEIREDO SARMENTO,54,5300-302,BRAGANÇA,-6.759976022863973,41.81962748849558
pt.ine.add.PTCONT.850829,AV BRIG FIGUEIREDO SARMENTO,54,5300-302,BRAGANÇA,-6.759976022863973,41.81962748849558
pt.ine.add.PTCONT.850830,AV BRIG FIGUEIREDO SARMENTO,54,5300-302,BRAGANÇA,-6.759976022863973,41.81962748849558
pt.ine.add.PTCONT.850831,AV BRIG FIGUEIREDO SARMENTO,54,5300-302,BRAGANÇA,-6.759976022863973,41.81962748849558
pt.ine.add.PTCONT.850832,AV BRIG FIGUEIREDO SARMENTO,54,5300-302,BRAGANÇA,-6.759976022863973,41.81962748849558
pt.ine.add.PTCONT.850833,AV BRIG FIGUEIREDO SARMENTO,54,5300-302,BRAGANÇA,-6.759976022863973,41.81962748849558
pt.ine.add.PTCONT.850834,AV BRIG FIGUEIREDO SARMENTO,54,5300-302,BRAGANÇA,-6.759976022863973,41.81962748849558
pt.ine.add.PTCONT.850835,AV BRIG FIGUEIREDO SARMENTO,54,5300-302,BRAGANÇA,-6.759976022863973,41.81962748849558
pt.ine.add.PTCONT.850836,AV BRIG FIGUEIREDO SARMENTO,54,5300-302,BRAGANÇA,-6.759976022863973,41.81962748849558
pt.ine.add.PTCONT.850837,AV BRIG FIGUEIREDO SARMENTO,54,5300-302,BRAGANÇA,-6.759976022863973,41.81962748849558
pt.ine.add.PTCONT.850838,AV BRIG FIGUEIREDO SARMENTO,54,5300-302,BRAGANÇA,-6.759976022863973,41.81962748849558
pt.ine.add.PTCONT.850839,AV CIDADE DE ZAMORA,62,5300-111,BRAGANÇA,-6.752509136006711,41.8080860759908
pt.ine.add.PTCONT.850840,AV CIDADE DE ZAMORA,62,5300-111,BRAGANÇA,-6.752509136006711,41.8080860759908
pt.ine.add.PTCONT.850841,AV BRIG FIGUEIREDO SARMENTO,54,5300-302,BRAGANÇA,-6.759976022863973,41.81962748849558
pt.ine.add.PTCONT.850842,R DR ADRIAO AMADO,39,5300-073,BRAGANÇA,-6.757106797711687,41.81029298410636
pt.ine.add.PTCONT.850843,AV BRIG FIGUEIREDO SARMENTO,54,5300-302,BRAGANÇA,-6.759976022863973,41.81962748849558
pt.ine.add.PTCONT.850844,BR SANTO ANTÓNIO,221,5300-811,REBORDÃOS,-6.811252314172553,41.74092946559681
pt.ine.add.PTCONT.850845,R CLAUDIO MESQUITA DA ROSA,14,5300-653,BRAGANÇA,-6.761020418447413,41.8118613235451
pt.ine.add.PTCONT.850846,R ACACIO MARIANO,9,5300-072,BRAGANÇA,-6.757106797711687,41.81029298410636
pt.ine.add.PTCONT.850875,R CERÂMICA,48,5300-725,BRAGANÇA,-6.782708646515751,41.80101413533083
pt.ine.add.PTCONT.850877,R CRUZ DE PEREIRAS,18,5300-601,IZEDA,-6.7221518806806975,41.562261821129
pt.ine.add.PTCONT.850878,R SANTO CONDESTÁVEL,22 A,5300-046,BRAGANÇA,-6.751269180143963,41.80419083968073
pt.ine.add.PTCONT.850879,R VISC BOUCA,10,5300-318,BRAGANÇA,-6.7667384599728155,41.800450564525335
pt.ine.add.PTCONT.850880,R VISC BOUCA,10,5300-318,BRAGANÇA,-6.7667384599728155,41.800450564525335
pt.ine.add.PTCONT.850881,R VISC BOUCA,10,5300-318,BRAGANÇA,-6.7667384599728155,41.800450564525335
pt.ine.add.PTCONT.850882,R VISC BOUCA,10,5300-318,BRAGANÇA,-6.7667384599728155,41.800450564525335
pt.ine.add.PTCONT.850883,R VISC BOUCA,10,5300-318,BRAGANÇA,-6.7667384599728155,41.800450564525335
pt.ine.add.PTCONT.850884,R VISC BOUCA,10,5300-318,BRAGANÇA,-6.7667384599728155,41.800450564525335
pt.ine.add.PTCONT.850885,R VISC BOUCA,10,5300-318,BRAGANÇA,-6.7667384599728155,41.800450564525335
pt.ine.add.PTCONT.850886,R PADRE AMÉRICO,3,5300-287,BRAGANÇA,-6.771825878144538,41.79486603215152
pt.ine.add.PTCONT.850887,R PADRE AMÉRICO,3,5300-287,BRAGANÇA,-6.771825878144538,41.79486603215152
pt.ine.add.PTCONT.850888,AV BRIG FIGUEIREDO SARMENTO,50,5300-302,BRAGANÇA,-6.761085127147182,41.81954170990135
pt.ine.add.PTCONT.850889,AV BRIG FIGUEIREDO SARMENTO,50,5300-302,BRAGANÇA,-6.761085127147182,41.81954170990135
pt.ine.add.PTCONT.850890,AV BRIG FIGUEIREDO SARMENTO,50,5300-302,BRAGANÇA,-6.761085127147182,41.81954170990135
pt.ine.add.PTCONT.850891,AV BRIG FIGUEIREDO SARMENTO,50,5300-302,BRAGANÇA,-6.761085127147182,41.81954170990135
pt.ine.add.PTCONT.850892,AV BRIG FIGUEIREDO SARMENTO,50,5300-302,BRAGANÇA,-6.761085127147182,41.81954170990135
pt.ine.add.PTCONT.850893,AV BRIG FIGUEIREDO SARMENTO,50,5300-302,BRAGANÇA,-6.761085127147182,41.81954170990135
pt.ine.add.PTCONT.850894,AV BRIG FIGUEIREDO SARMENTO,50,5300-302,BRAGANÇA,-6.761085127147182,41.81954170990135
pt.ine.add.PTCONT.850895,AV BRIG FIGUEIREDO SARMENTO,50,5300-302,BRAGANÇA,-6.761085127147182,41.81954170990135
pt.ine.add.PTCONT.850896,AV BRIG FIGUEIREDO SARMENTO,50,5300-302,BRAGANÇA,-6.761085127147182,41.81954170990135
pt.ine.add.PTCONT.850897,AV BRIG FIGUEIREDO SARMENTO,50,5300-302,BRAGANÇA,-6.761085127147182,41.81954170990135
pt.ine.add.PTCONT.850898,AV BRIG FIGUEIREDO SARMENTO,50,5300-302,BRAGANÇA,-6.761085127147182,41.81954170990135
pt.ine.add.PTCONT.850899,AV BRIG FIGUEIREDO SARMENTO,50,5300-302,BRAGANÇA,-6.761085127147182,41.81954170990135
pt.ine.add.PTCONT.850900,AV BRIG FIGUEIREDO SARMENTO,50,5300-302,BRAGANÇA,-6.761085127147182,41.81954170990135
pt.ine.add.PTCONT.850901,AV BRIG FIGUEIREDO SARMENTO,50,5300-302,BRAGANÇA,-6.761085127147182,41.81954170990135
pt.ine.add.PTCONT.850902,AV BRIG FIGUEIREDO SARMENTO,50,5300-302,BRAGANÇA,-6.761085127147182,41.81954170990135
pt.ine.add.PTCONT.850988,R CANTO,,5300-574,BRAGANÇA,-6.820837182668146,41.79146605927272
pt.ine.add.PTCONT.850903,AV BRIG FIGUEIREDO SARMENTO,50,5300-302,BRAGANÇA,-6.761085127147182,41.81954170990135
pt.ine.add.PTCONT.850904,R VISC BOUCA,10,5300-318,BRAGANÇA,-6.7667384599728155,41.800450564525335
pt.ine.add.PTCONT.850907,R SANTA EULÁLIA,12,5300-631,IZEDA,-6.722018742667625,41.572235969597365
pt.ine.add.PTCONT.850934,R ESCAIRO,18,5300-492,COELHOSO,-6.6669542625983595,41.654197361928894
pt.ine.add.PTCONT.850935,R CIMO DO POVO,,5300-731,PARADINHA NOVA,-6.665074435530698,41.61590939383524
pt.ine.add.PTCONT.850936,R FELGAR,13,5300-751,PINELA,-6.762005171950532,41.66957789876793
pt.ine.add.PTCONT.850937,R DONAI,,5300-511,BRAGANÇA,-6.790864111175544,41.81766983770229
pt.ine.add.PTCONT.850938,R DONAI,,5300-511,BRAGANÇA,-6.789880285495707,41.81752328959599
pt.ine.add.PTCONT.850939,CAM TOJAL DE PEREIROS,,5300-574,BRAGANÇA,-6.781638086428935,41.793388354056525
pt.ine.add.PTCONT.850940,EM 502,,5300-674,MEIXEDO BGC,-6.756853641146616,41.85189299448151
pt.ine.add.PTCONT.850941,R ESTRADA MUNICIPAL,53,5300-751,PINELA,-6.756574452909839,41.67029625974451
pt.ine.add.PTCONT.850943,R S JORGE,,5300-511,BRAGANÇA,-6.78236926190784,41.818146442092804
pt.ine.add.PTCONT.850944,,,5300-761,POMBARES,-6.89011173982049,41.640369527921834
pt.ine.add.PTCONT.850947,R PRINCIPAL,,5300-422,BABE,-6.642263540638028,41.85199298767037
pt.ine.add.PTCONT.850948,R RENDA,17,5300-473,CASTRELOS,-6.904103932674712,41.82207049371909
pt.ine.add.PTCONT.850949,R ALVAREDO,11,5300-441,CALVELHE,-6.705237541798182,41.6036126025669
pt.ine.add.PTCONT.850950,R CALVÁRIO,1,5300-483,BRAGANÇA,-6.8438207742038095,41.81038980492688
pt.ine.add.PTCONT.850951,R SABOR,,5300-553,GIMONDE,-6.697959627818651,41.80333002144735
pt.ine.add.PTCONT.850952,R ALF MANUEL JOAQUIM SANTOS CASEIRO,127,5300-598,IZEDA,-6.722366704054822,41.566162937662035
pt.ine.add.PTCONT.850953,R DR CORDEIRO,32,5300-712,OUTEIRO BGC,-6.576165680460431,41.701422310820966
pt.ine.add.PTCONT.850954,R EIRAS,9,5300-712,OUTEIRO BGC,-6.577666149940522,41.70246899255205
pt.ine.add.PTCONT.850955,R CENTRAL,82,5300-772,QUINTANILHA,-6.570908195766515,41.75084103065023
pt.ine.add.PTCONT.850956,R CENTRAL,86,5300-772,QUINTANILHA,-6.571221989474168,41.750791279189045
pt.ine.add.PTCONT.850957,R PORTELA,65,5300-501,DEILÃO,-6.586851655186364,41.854852374688285
pt.ine.add.PTCONT.850958,R PORTELA,,5300-581,GRIJÓ DE PARADA,-6.707219553301472,41.734058388115486
pt.ine.add.PTCONT.850959,R VALE DE SABOR,,5300-642,IZEDA,-6.7190821944355505,41.566698803937854
pt.ine.add.PTCONT.850960,R S SEBASTIÃO,12,5300-682,MILHÃO,-6.626743246281695,41.77594010908306
pt.ine.add.PTCONT.850961,R ESCOLA,4,5300-772,QUINTANILHA,-6.57442131053462,41.74775568270031
pt.ine.add.PTCONT.850962,R CAMPO,37,5300-421,BABE,-6.633802821416328,41.82085857264493
pt.ine.add.PTCONT.850963,R CAMPO,25,5300-421,BABE,-6.633754148808102,41.81984960116758
pt.ine.add.PTCONT.850964,R EIRAS,40,5300-712,OUTEIRO BGC,-6.575711522377339,41.69983160169102
pt.ine.add.PTCONT.850965,R OUTEIRINHO,20,5300-523,ESPINHOSELA,-6.850185594826104,41.865892956893774
pt.ine.add.PTCONT.850966,R DOIROL,17,5300-582,GRIJÓ DE PARADA,-6.688494580120687,41.715755103754695
pt.ine.add.PTCONT.850967,R IGREJA,20,5300-681,MILHÃO,-6.654073887357503,41.76265560722645
pt.ine.add.PTCONT.850968,R EIRAS,92,5300-711,OUTEIRO BGC,-6.598675878460074,41.68587956323936
pt.ine.add.PTCONT.850970,R CARRIL,,5300-692,MÓS BGC,-6.798067808347466,41.7146947102887
pt.ine.add.PTCONT.850971,R IGREJA,,5300-692,MÓS BGC,-6.794036028757491,41.713846505015425
pt.ine.add.PTCONT.850972,,,5300-803,REBORDAINHOS,-6.84518388455711,41.66525527285175
pt.ine.add.PTCONT.850973,,,5300-781,QUINTELA DE LAMPAÇAS,-6.890776084967955,41.62077632310945
pt.ine.add.PTCONT.850975,R CANCELA,1,5300-711,OUTEIRO BGC,-6.601918911864987,41.68333891170195
pt.ine.add.PTCONT.850977,AV S DOMINGOS,17,5300-492,COELHOSO,-6.67553368860288,41.65809687123062
pt.ine.add.PTCONT.850978,,,5300-512,BRAGANÇA,-6.808294665316503,41.83034147555789
pt.ine.add.PTCONT.850979,R MOLARINHA,,5300-563,GONDESENDE,-6.855396493661453,41.840094305941875
pt.ine.add.PTCONT.850980,R ESTRADA MUNICIPAL,,5300-751,PINELA,-6.771725919681346,41.672682559013964
pt.ine.add.PTCONT.850981,R 25 DE ABRIL,,5300-783,QUINTELA DE LAMPAÇAS,-6.879445904586508,41.61104666492512
pt.ine.add.PTCONT.850982,R CIMO POVO,,5300-462,CARRAZEDO BGC,-6.89903254556097,41.7727508951969
pt.ine.add.PTCONT.850983,R VEIGA,24,5300-643,IZEDA,-6.720163773264403,41.57097971882457
pt.ine.add.PTCONT.850984,R CALVÁRIO,7,5300-731,PARADINHA NOVA,-6.668459321535433,41.613188558482385
pt.ine.add.PTCONT.850985,BR OUTEIRO,72 A,5300-811,REBORDÃOS,-6.825994693564926,41.74128721046432
pt.ine.add.PTCONT.850986,BR OUTEIRO,72 A,5300-811,REBORDÃOS,-6.825994693564926,41.74128721046432
pt.ine.add.PTCONT.850987,BR GODINHA,104 A,5300-811,REBORDÃOS,-6.824948156615255,41.74191452595578
pt.ine.add.PTCONT.850989,R FUNDO DO POVO,13,5300-663,MACEDO DO MATO,-6.779950389670826,41.57633575528286
pt.ine.add.PTCONT.850990,R ESTRADA DO TURISMO,21,5300-271,BRAGANÇA,-6.7572712040517375,41.80204813586144
pt.ine.add.PTCONT.850991,R DR MANUEL DE ARRIAGA,25,5300-172,BRAGANÇA,-6.757288855290726,41.79841110095217
pt.ine.add.PTCONT.850992,R LORETO,123,5300-189,BRAGANÇA,-6.762490847344612,41.80103017162132
pt.ine.add.PTCONT.850993,R LORETO,123,5300-189,BRAGANÇA,-6.762490847344612,41.80103017162132
pt.ine.add.PTCONT.850994,R LORETO,123,5300-189,BRAGANÇA,-6.762490847344612,41.80103017162132
pt.ine.add.PTCONT.850995,R LORETO,123,5300-189,BRAGANÇA,-6.762490847344612,41.80103017162132
pt.ine.add.PTCONT.850996,R LORETO,123,5300-189,BRAGANÇA,-6.762490847344612,41.80103017162132
pt.ine.add.PTCONT.850997,R LORETO,123,5300-189,BRAGANÇA,-6.762490847344612,41.80103017162132
pt.ine.add.PTCONT.850998,R LORETO,123,5300-189,BRAGANÇA,-6.762490847344612,41.80103017162132
pt.ine.add.PTCONT.850999,R LORETO,123,5300-189,BRAGANÇA,-6.762490847344612,41.80103017162132
pt.ine.add.PTCONT.851000,R JOSE SARAMAGO,135,5300-396,BRAGANÇA,-6.7606208799575285,41.79449860753188
pt.ine.add.PTCONT.851001,R FRANCISCO COSTA LOBO,1,5300-162,BRAGANÇA,-6.771934951400536,41.80847099243692
pt.ine.add.PTCONT.851002,R FRANCISCO COSTA LOBO,1,5300-162,BRAGANÇA,-6.771934951400536,41.80847099243692
pt.ine.add.PTCONT.851003,R FRANCISCO COSTA LOBO,1,5300-162,BRAGANÇA,-6.771934951400536,41.80847099243692
pt.ine.add.PTCONT.851004,R JOSE SARAMAGO,40,5300-396,BRAGANÇA,-6.760819347631766,41.79365468789937
pt.ine.add.PTCONT.851005,R RAINHA SANTA ISABEL,17,5300-687,BRAGANÇA,-6.7633473025600415,41.80205773736387
pt.ine.add.PTCONT.851006,R DR ANTÓNIO GRANJO,13,5300-129,BRAGANÇA,-6.777352422629461,41.802079855983976
pt.ine.add.PTCONT.851007,R D ANTÓNIO PINHEIRO,3,5300-439,BRAGANÇA,-6.774363308706934,41.80061304271591
pt.ine.add.PTCONT.851008,R D ANTÓNIO PINHEIRO,3,5300-439,BRAGANÇA,-6.774363308706934,41.80061304271591
pt.ine.add.PTCONT.851009,R JOÃO DE BARROS,148,5300-391,BRAGANÇA,-6.762177359925371,41.79146514550458
pt.ine.add.PTCONT.851010,R ABADE CICOURO,31,5300-069,BRAGANÇA,-6.766374819906756,41.81189815587138
pt.ine.add.PTCONT.851011,R PROF DOMINGOS VINHAS,2,5300-189,BRAGANÇA,-6.775130205197627,41.799622769079036
pt.ine.add.PTCONT.851012,TV PROF EGAS MONIZ,1,5300-240,BRAGANÇA,-6.770699327151941,41.81169744944876
pt.ine.add.PTCONT.851013,R MACAU,191,5300-700,BRAGANÇA,-6.775919090592034,41.80443074051245
pt.ine.add.PTCONT.851014,R CARREIRA DE TIRO,19,5300-724,BRAGANÇA,-6.782398179219063,41.802069112583915
pt.ine.add.PTCONT.851015,R JOSE MONTANA,42,5300-181,BRAGANÇA,-6.7749568682352255,41.806120949543846
pt.ine.add.PTCONT.851016,R JOSE MONTANA,22,5300-181,BRAGANÇA,-6.774025798221343,41.80633501307579
pt.ine.add.PTCONT.851017,R LORETO,61,5300-189,BRAGANÇA,-6.760070934719265,41.802225688243034
pt.ine.add.PTCONT.851018,R LORETO,61,5300-189,BRAGANÇA,-6.760070934719265,41.802225688243034
pt.ine.add.PTCONT.851019,R LORETO,61,5300-189,BRAGANÇA,-6.760070934719265,41.802225688243034
pt.ine.add.PTCONT.851020,ESTR LOMBO DO PAU,,5300-903,SORTES,-6.815885183275925,41.70362829425938
pt.ine.add.PTCONT.851028,R ENG JOÃO RODRIGUES,28,5300-232,BRAGANÇA,-6.767916848669263,41.79141646542464
pt.ine.add.PTCONT.851036,BR ALTO,,5300-903,SORTES,-6.83181601601448,41.697057369701255
pt.ine.add.PTCONT.851039,R CAMILO CASTELO BRANCO,28,5300-106,BRAGANÇA,-6.764692074302849,41.796536866892225
pt.ine.add.PTCONT.851040,R CAMILO CASTELO BRANCO,28,5300-106,BRAGANÇA,-6.764692074302849,41.796536866892225
pt.ine.add.PTCONT.851041,R CAMILO CASTELO BRANCO,28,5300-106,BRAGANÇA,-6.764692074302849,41.796536866892225
pt.ine.add.PTCONT.851042,R CAMILO CASTELO BRANCO,28,5300-106,BRAGANÇA,-6.764692074302849,41.796536866892225
pt.ine.add.PTCONT.851043,R CAMILO CASTELO BRANCO,28,5300-106,BRAGANÇA,-6.764692074302849,41.796536866892225
pt.ine.add.PTCONT.851044,R CAMILO CASTELO BRANCO,28,5300-106,BRAGANÇA,-6.764692074302849,41.796536866892225
pt.ine.add.PTCONT.851045,R CAMILO CASTELO BRANCO,28,5300-106,BRAGANÇA,-6.764692074302849,41.796536866892225
pt.ine.add.PTCONT.851046,AV CANTARIAS,18,5300-107,BRAGANÇA,-6.772718599647648,41.78849340796253
pt.ine.add.PTCONT.851047,LG CAMPACO,8,5300-911,ZOIO,-6.921255615218935,41.74860679132942
pt.ine.add.PTCONT.851051,R HENRIQUE TAVARES,20,5300-171,BRAGANÇA,-6.774225985003394,41.788889381472984
pt.ine.add.PTCONT.851054,R CAMILO CASTELO BRANCO,40,5300-106,BRAGANÇA,-6.765413222526534,41.79600527060651
pt.ine.add.PTCONT.851055,R CAMILO CASTELO BRANCO,44,5300-106,BRAGANÇA,-6.76553522604158,41.79592569544827
pt.ine.add.PTCONT.851056,R IGREJA,,5300-883,SENDAS,-6.854777833117596,41.6117923602764
pt.ine.add.PTCONT.851057,LG IGREJA,3,5300-912,ZOIO,-6.896740703701299,41.73864910755505
pt.ine.add.PTCONT.851065,R AQUILINO RIBEIRO,29,5300-087,BRAGANÇA,-6.76472133711065,41.79572693703698
pt.ine.add.PTCONT.851066,R IGREJA,,5300-893,SERAPICOS BGC,-6.738942529579402,41.64435230061856
pt.ine.add.PTCONT.851083,,,5300-822,RIO DE ONOR,-6.569466483716187,41.91497223391705
pt.ine.add.PTCONT.851084,R AMÁLIA RODRIGUES,85,5300-430,BRAGANÇA,-6.756869466691586,41.81800576653671
pt.ine.add.PTCONT.851085,R AMÁLIA RODRIGUES,85,5300-430,BRAGANÇA,-6.756869466691586,41.81800576653671
pt.ine.add.PTCONT.851086,R AMÁLIA RODRIGUES,85,5300-430,BRAGANÇA,-6.756869466691586,41.81800576653671
pt.ine.add.PTCONT.851087,R AMÁLIA RODRIGUES,85,5300-430,BRAGANÇA,-6.756869466691586,41.81800576653671
pt.ine.add.PTCONT.851088,R AMÁLIA RODRIGUES,85,5300-430,BRAGANÇA,-6.756869466691586,41.81800576653671
pt.ine.add.PTCONT.851089,R AMÁLIA RODRIGUES,85,5300-430,BRAGANÇA,-6.756869466691586,41.81800576653671
pt.ine.add.PTCONT.851090,R AMÁLIA RODRIGUES,85,5300-430,BRAGANÇA,-6.756869466691586,41.81800576653671
pt.ine.add.PTCONT.851091,R AMÁLIA RODRIGUES,85,5300-430,BRAGANÇA,-6.756869466691586,41.81800576653671
pt.ine.add.PTCONT.851092,R AMÁLIA RODRIGUES,85,5300-430,BRAGANÇA,-6.756869466691586,41.81800576653671
pt.ine.add.PTCONT.851093,R AMÁLIA RODRIGUES,85,5300-430,BRAGANÇA,-6.756869466691586,41.81800576653671
pt.ine.add.PTCONT.851094,R AMÁLIA RODRIGUES,85,5300-430,BRAGANÇA,-6.756869466691586,41.81800576653671
pt.ine.add.PTCONT.851095,R AMÁLIA RODRIGUES,85,5300-430,BRAGANÇA,-6.756869466691586,41.81800576653671
pt.ine.add.PTCONT.851096,R AMÁLIA RODRIGUES,85,5300-430,BRAGANÇA,-6.756869466691586,41.81800576653671
pt.ine.add.PTCONT.851097,R INÁCIO DE MORAIS,17,5300-174,BRAGANÇA,-6.77185707093893,41.813853908267795
pt.ine.add.PTCONT.851098,R AMÁLIA RODRIGUES,85,5300-430,BRAGANÇA,-6.756869466691586,41.81800576653671
pt.ine.add.PTCONT.851099,R AMÁLIA RODRIGUES,85,5300-430,BRAGANÇA,-6.756869466691586,41.81800576653671
pt.ine.add.PTCONT.851100,AV CANTARIAS,106,5300-107,BRAGANÇA,-6.777698847123109,41.78335748655176
pt.ine.add.PTCONT.851101,AV CANTARIAS,106,5300-107,BRAGANÇA,-6.777698847123109,41.78335748655176
pt.ine.add.PTCONT.851102,R BATOQUES,73,5300-091,BRAGANÇA,-6.756465962117755,41.804253245036904
pt.ine.add.PTCONT.851103,BR PELOURINHO,91,5300-811,REBORDÃOS,-6.824235657884403,41.73911541816223
pt.ine.add.PTCONT.851105,R CÓNEGO ALBANO FALCÃO,12,5300-044,BRAGANÇA,-6.750009838281253,41.81015372107558
pt.ine.add.PTCONT.851106,R D JOÃO IV,45,5300-029,BRAGANÇA,-6.743186489534305,41.80737943243775
pt.ine.add.PTCONT.851107,R ALM GAGO COUTINHO,62,5300-690,BRAGANÇA,-6.780830088978541,41.80549701167948
pt.ine.add.PTCONT.851108,R TRATADO DE ALCANICES,,5300-551,BRAGANÇA,-6.724695914276539,41.811016489073516
pt.ine.add.PTCONT.851109,R AMENDOEIRAS,3,5300-017,BRAGANÇA,-6.747979527731586,41.807203256176514
pt.ine.add.PTCONT.851110,R AMENDOEIRAS,3,5300-017,BRAGANÇA,-6.747979527731586,41.807203256176514
pt.ine.add.PTCONT.851111,R SANTA CRUZ,5,5300-831,RIO FRIO BGC,-6.628395483431136,41.73714943854626
pt.ine.add.PTCONT.851112,R PORTELA,,5300-855,BRAGANÇA,-6.765187442284502,41.7800310709698
pt.ine.add.PTCONT.851113,R MIGUEL TORGA,27,5300-037,BRAGANÇA,-6.74925138960064,41.80625525893997
pt.ine.add.PTCONT.851114,R FONTE DE BAIXO,43,5300-872,SÃO JULIÃO DE PALÁCIOS,-6.62087383873682,41.82659501663876
pt.ine.add.PTCONT.851115,R CRUZ,,5300-873,SÃO JULIÃO DE PALÁCIOS,-6.620817940812987,41.81823050160049
pt.ine.add.PTCONT.851116,R S ROQUE,4,5300-831,RIO FRIO BGC,-6.6292122522603485,41.73562960307763
pt.ine.add.PTCONT.851117,R NOGUEIRA,32,5300-208,BRAGANÇA,-6.7666793557720855,41.81342329833161
pt.ine.add.PTCONT.851118,TV FRAGA,8,5300-852,BRAGANÇA,-6.753204043084599,41.785235585165935
pt.ine.add.PTCONT.851119,R PADRE MANUEL ANTÓNIO CAMINHA,11,5300-476,BRAGANÇA,-6.7536753674239565,41.81261962908372
pt.ine.add.PTCONT.851120,QTA PALHARES,,5300-040,BRAGANÇA,-6.730220639798517,41.79055709989799
pt.ine.add.PTCONT.851121,R CENTRAL,40,5300-871,SÃO JULIÃO DE PALÁCIOS,-6.603094396017268,41.82209210719
pt.ine.add.PTCONT.851122,R TERRA FRIA,8,5300-268,BRAGANÇA,-6.769283672915492,41.81376035749192
pt.ine.add.PTCONT.851123,R TRINDADE COELHO,81,5300-061,BRAGANÇA,-6.754910421648738,41.80553103315757
pt.ine.add.PTCONT.851124,R TRINDADE COELHO,81,5300-061,BRAGANÇA,-6.754910421648738,41.80553103315757
pt.ine.add.PTCONT.851125,R TRINDADE COELHO,81,5300-061,BRAGANÇA,-6.754910421648738,41.80553103315757
pt.ine.add.PTCONT.851126,R TRINDADE COELHO,81,5300-061,BRAGANÇA,-6.754910421648738,41.80553103315757
pt.ine.add.PTCONT.851127,AV FERNANDO PESSOA,31,5300-177,BRAGANÇA,-6.767267655801845,41.816320280678184
pt.ine.add.PTCONT.851128,R TERRA FRIA,20,5300-268,BRAGANÇA,-6.770232639390588,41.814410840151034
pt.ine.add.PTCONT.851129,R CIMO DO POVO,8,5300-855,BRAGANÇA,-6.7607979143342725,41.7749189595924
pt.ine.add.PTCONT.851130,R 4 CAMINHOS,,5300-304,BRAGANÇA,-6.74574511811391,41.812046946515395
pt.ine.add.PTCONT.851131,R NAVALHO,9,5300-874,SÃO PEDRO DE SERRACENOS,-6.7608457563567494,41.76534019958013
pt.ine.add.PTCONT.851132,R AMÁLIA RODRIGUES,85,5300-430,BRAGANÇA,-6.756869466691586,41.81800576653671
pt.ine.add.PTCONT.851133,R AMÁLIA RODRIGUES,85,5300-430,BRAGANÇA,-6.756869466691586,41.81800576653671
pt.ine.add.PTCONT.851751,LG ROSSIO,,5300-722,PARADA BGC,-6.726857995949015,41.698854869486304
pt.ine.add.PTCONT.851747,R PORTELA,14,5300-421,BABE,-6.636343505462524,41.82494306242099
pt.ine.add.PTCONT.851603,R AMÁLIA RODRIGUES,85,5300-430,BRAGANÇA,-6.756869466691586,41.81800576653671
pt.ine.add.PTCONT.851606,R AMÁLIA RODRIGUES,85,5300-430,BRAGANÇA,-6.756869466691586,41.81800576653671
pt.ine.add.PTCONT.851608,R DR FERNANDO NAMORA,27,5300-133,BRAGANÇA,-6.769031022949776,41.810354195699894
pt.ine.add.PTCONT.851613,R CAMILO CASTELO BRANCO,28,5300-106,BRAGANÇA,-6.764692074302849,41.796536866892225
pt.ine.add.PTCONT.851643,R NOGUEIRA,32,5300-208,BRAGANÇA,-6.7666793557720855,41.81342329833161
pt.ine.add.PTCONT.851621,R FRANCISCO COSTA LOBO,1,5300-162,BRAGANÇA,-6.771934951400536,41.80847099243692
pt.ine.add.PTCONT.851623,R EIRAS,4,5300-712,OUTEIRO BGC,-6.577594819625778,41.70293619041815
pt.ine.add.PTCONT.851626,,,5300-783,QUINTELA DE LAMPAÇAS,-6.873046987755768,41.61498321566795
pt.ine.add.PTCONT.851629,ESTR NACIONAL,,5300-692,MÓS BGC,-6.811042173563538,41.719526413146404
pt.ine.add.PTCONT.851630,R PRINCIPAL,58,5300-812,REBORDÃOS,-6.805257207282592,41.743102125020556
pt.ine.add.PTCONT.851642,R AMÁLIA RODRIGUES,85,5300-430,BRAGANÇA,-6.756869466691586,41.81800576653671
pt.ine.add.PTCONT.851648,R PRINCIPAL,3,5300-891,SERAPICOS BGC,-6.761519031605986,41.616659587367465
pt.ine.add.PTCONT.851649,R MANUEL ASSIS PIRES,,5300-722,PARADA BGC,-6.7244716109911105,41.69921277682923
pt.ine.add.PTCONT.851651,R PADRE ANTÓNIO MARTINS,8,5300-432,BAÇAL,-6.721814373058841,41.855095920742144
pt.ine.add.PTCONT.851652,R ANICETO MARTINS,,5300-432,BAÇAL,-6.724739713131765,41.85019819549358
pt.ine.add.PTCONT.851659,AV SANTO ANTÓNIO,84,5300-492,COELHOSO,-6.661792317796715,41.64153581951249
pt.ine.add.PTCONT.851680,AV DR FRANCISCO SA CARNEIRO,231,5300-252,BRAGANÇA,-6.764412931167145,41.79947755176083
pt.ine.add.PTCONT.851682,R EUROPA,6,5300-633,IZEDA,-6.725807503164389,41.55897536102455
pt.ine.add.PTCONT.851683,R DR MARIA GUARDIOLA,30,5300-463,BRAGANÇA,-6.774698321460483,41.80184142572185
pt.ine.add.PTCONT.851684,R DR MARIA GUARDIOLA,30,5300-463,BRAGANÇA,-6.774698321460483,41.80184142572185
pt.ine.add.PTCONT.851685,R DR MARIA GUARDIOLA,30,5300-463,BRAGANÇA,-6.774698321460483,41.80184142572185
pt.ine.add.PTCONT.851686,R DR MARIA GUARDIOLA,30,5300-463,BRAGANÇA,-6.774698321460483,41.80184142572185
pt.ine.add.PTCONT.851687,AV DR FRANCISCO SA CARNEIRO,292,5300-252,BRAGANÇA,-6.766108986314867,41.79949775010185
pt.ine.add.PTCONT.851688,AV DR FRANCISCO SA CARNEIRO,154,5300-252,BRAGANÇA,-6.761260486349007,41.80230292397147
pt.ine.add.PTCONT.851689,AV DR FRANCISCO SA CARNEIRO,154,5300-252,BRAGANÇA,-6.761260486349007,41.80230292397147
pt.ine.add.PTCONT.851690,AV DR FRANCISCO SA CARNEIRO,154,5300-252,BRAGANÇA,-6.761260486349007,41.80230292397147
pt.ine.add.PTCONT.851691,AV DR FRANCISCO SA CARNEIRO,154,5300-252,BRAGANÇA,-6.761260486349007,41.80230292397147
pt.ine.add.PTCONT.851692,AV DR FRANCISCO SA CARNEIRO,154,5300-252,BRAGANÇA,-6.761260486349007,41.80230292397147
pt.ine.add.PTCONT.851693,AV DR FRANCISCO SA CARNEIRO,154,5300-252,BRAGANÇA,-6.761260486349007,41.80230292397147
pt.ine.add.PTCONT.851694,AV DR FRANCISCO SA CARNEIRO,154,5300-252,BRAGANÇA,-6.761260486349007,41.80230292397147
pt.ine.add.PTCONT.851695,AV DR FRANCISCO SA CARNEIRO,154,5300-252,BRAGANÇA,-6.761260486349007,41.80230292397147
pt.ine.add.PTCONT.851696,AV DR FRANCISCO SA CARNEIRO,154,5300-252,BRAGANÇA,-6.761260486349007,41.80230292397147
pt.ine.add.PTCONT.851697,AV DR FRANCISCO SA CARNEIRO,154,5300-252,BRAGANÇA,-6.761260486349007,41.80230292397147
pt.ine.add.PTCONT.851698,AV DR FRANCISCO SA CARNEIRO,154,5300-252,BRAGANÇA,-6.761260486349007,41.80230292397147
pt.ine.add.PTCONT.851699,AV DR FRANCISCO SA CARNEIRO,154,5300-252,BRAGANÇA,-6.761260486349007,41.80230292397147
pt.ine.add.PTCONT.851700,AV DR FRANCISCO SA CARNEIRO,292,5300-252,BRAGANÇA,-6.766108986314867,41.79949775010185
pt.ine.add.PTCONT.851701,AV DR FRANCISCO SA CARNEIRO,292,5300-252,BRAGANÇA,-6.766108986314867,41.79949775010185
pt.ine.add.PTCONT.851702,AV DR FRANCISCO SA CARNEIRO,292,5300-252,BRAGANÇA,-6.766108986314867,41.79949775010185
pt.ine.add.PTCONT.851703,AV DR FRANCISCO SA CARNEIRO,292,5300-252,BRAGANÇA,-6.766108986314867,41.79949775010185
pt.ine.add.PTCONT.851704,AV DR FRANCISCO SA CARNEIRO,292,5300-252,BRAGANÇA,-6.766108986314867,41.79949775010185
pt.ine.add.PTCONT.851705,AV DR FRANCISCO SA CARNEIRO,292,5300-252,BRAGANÇA,-6.766108986314867,41.79949775010185
pt.ine.add.PTCONT.851706,AV DR FRANCISCO SA CARNEIRO,292,5300-252,BRAGANÇA,-6.766108986314867,41.79949775010185
pt.ine.add.PTCONT.851707,R DR MARIA GUARDIOLA,30,5300-463,BRAGANÇA,-6.774698321460483,41.80184142572185
pt.ine.add.PTCONT.851708,AV DR FRANCISCO SA CARNEIRO,154,5300-252,BRAGANÇA,-6.761260486349007,41.80230292397147
pt.ine.add.PTCONT.851709,R ALBINO NOGUEIRO,29,5300-404,BRAGANÇA,-6.78358172324752,41.79306908858318
pt.ine.add.PTCONT.851710,R EIRÓ,9,5300-721,PARADA BGC,-6.69470382716238,41.67762338443132
pt.ine.add.PTCONT.851730,R BAIXO,2,5300-663,MACEDO DO MATO,-6.781527088278798,41.57662440617857
pt.ine.add.PTCONT.851731,TV FONTE,3,5300-701,NOGUEIRA BGC,-6.8176790023933185,41.77235228627625
pt.ine.add.PTCONT.851732,R 25 DE ABRIL,,5300-783,QUINTELA DE LAMPAÇAS,-6.876746502174176,41.61290790950862
pt.ine.add.PTCONT.851733,R EIRO,19,5300-471,CASTRELOS,-6.8864514064654125,41.83300806991945
pt.ine.add.PTCONT.851734,TV SALGUEIRAL,,5300-541,FRANÇA,-6.7392658509604075,41.90154828321849
pt.ine.add.PTCONT.851735,R COUCO,16,5300-492,COELHOSO,-6.664775365387311,41.65393545803005
pt.ine.add.PTCONT.851736,R CENTRAL,18,5300-673,MEIXEDO BGC,-6.771012159767039,41.85200778751447
pt.ine.add.PTCONT.851737,R SERRA DA NOGUEIRA,34,5300-701,NOGUEIRA BGC,-6.791443190234567,41.77376845521295
pt.ine.add.PTCONT.851738,R SERRA NOGUEIRA,30,5300-701,NOGUEIRA BGC,-6.79092383848091,41.770989420786265
pt.ine.add.PTCONT.851739,R EIRA,3,5300-751,PINELA,-6.757020807314703,41.66963536303955
pt.ine.add.PTCONT.851740,R PORTELA,27,5300-492,COELHOSO,-6.6661657579235944,41.652971859292705
pt.ine.add.PTCONT.851741,R DERREIGADA,,5300-511,BRAGANÇA,-6.7954164861103585,41.81058350751137
pt.ine.add.PTCONT.851742,TV PRADOS DO RIO,,5300-541,FRANÇA,-6.737345071612261,41.90120984634629
pt.ine.add.PTCONT.851743,R JOÃO EVANGELISANTA GONÇALVES,,5300-572,BRAGANÇA,-6.8359077191417725,41.795814696596445
pt.ine.add.PTCONT.851744,R ALF MANUEL JOAQUIM SANTOS CASEIRO,100,5300-598,IZEDA,-6.7212735662567,41.56736497914079
pt.ine.add.PTCONT.851745,R BICADA,64,5300-673,MEIXEDO BGC,-6.769932697925441,41.85180591536606
pt.ine.add.PTCONT.851746,TV COSTA,5,5300-422,BABE,-6.640324697284642,41.851481639768856
pt.ine.add.PTCONT.851748,R PARQUE,,5300-553,GIMONDE,-6.6966977669550705,41.80649232431072
pt.ine.add.PTCONT.851749,R DR CORDEIRO,10,5300-712,OUTEIRO BGC,-6.577389135062156,41.702996427562525
pt.ine.add.PTCONT.851750,R FONTE,10,5300-553,GIMONDE,-6.7002425471947555,41.80455593097803
pt.ine.add.PTCONT.851752,BR CORREDOURA,,5300-744,PARÂMIO,-6.866536528230631,41.89848529316475
pt.ine.add.PTCONT.851753,R PRINCIPAL,,5300-802,REBORDAINHOS,-6.862549333060468,41.6693470170922
pt.ine.add.PTCONT.851755,AV S ROQUE,,5300-721,PARADA BGC,-6.702370458444342,41.68011395863603
pt.ine.add.PTCONT.851757,R CASTRO,1,5300-524,ESPINHOSELA,-6.8468217169161,41.88048522209094
pt.ine.add.PTCONT.851758,R IGREJA,7,5300-681,MILHÃO,-6.654018566240072,41.76297000321333
pt.ine.add.PTCONT.851761,LG SEBASTIÃO PORTO,8,5300-523,ESPINHOSELA,-6.847273915966544,41.86514014826122
pt.ine.add.PTCONT.851762,LG SANTA BARBARA,,5300-582,GRIJÓ DE PARADA,-6.683986453518576,41.716382573370005
pt.ine.add.PTCONT.851763,LG FONTE,,5300-582,GRIJÓ DE PARADA,-6.686273940802326,41.716186322950485
pt.ine.add.PTCONT.851764,R PRADO DO VESO,,5300-625,IZEDA,-6.731965333527107,41.554143702500774
pt.ine.add.PTCONT.851766,R FUNDO DO LUGAR,26,5300-433,BAÇAL,-6.696977671971331,41.8564265326689
pt.ine.add.PTCONT.851767,,,5300-516,BRAGANÇA,-6.822963373789215,41.837676187457966
pt.ine.add.PTCONT.851768,R LAMEIRO,,5300-561,GONDESENDE,-6.862000868885387,41.85070117496785
pt.ine.add.PTCONT.851769,R ESCOLA,8,5300-711,OUTEIRO BGC,-6.601459584370688,41.68245047765508
pt.ine.add.PTCONT.851771,BR ESCOLA,18,5300-711,OUTEIRO BGC,-6.60259306163569,41.68225850770626
pt.ine.add.PTCONT.851772,LG BICA,,5300-461,CARRAZEDO BGC,-6.888367078411547,41.79874498676895
pt.ine.add.PTCONT.851773,R ESTADIO,44,5300-722,PARADA BGC,-6.725998194742881,41.70137424805301
pt.ine.add.PTCONT.851774,R CAELHA,,5300-411,AVELEDA BGC,-6.69448946866056,41.890057417054685
pt.ine.add.PTCONT.851776,R VALE ABAIXO,3,5300-492,COELHOSO,-6.666388271745675,41.65533355343906
pt.ine.add.PTCONT.851777,R AMIEIRO,3,5300-083,BRAGANÇA,-6.766599270187719,41.81039731342641
pt.ine.add.PTCONT.851778,R JOSE GARRIDO,16,5300-450,BRAGANÇA,-6.783794616425054,41.79725803295113
pt.ine.add.PTCONT.851779,LG S TIAGO,,5300-689,BRAGANÇA,-6.781390548821203,41.804594297090624
pt.ine.add.PTCONT.851780,LG S TIAGO,,5300-689,BRAGANÇA,-6.781390548821203,41.804594297090624
pt.ine.add.PTCONT.851781,LG S TIAGO,,5300-689,BRAGANÇA,-6.781390548821203,41.804594297090624
pt.ine.add.PTCONT.851782,LG S TIAGO,,5300-689,BRAGANÇA,-6.781390548821203,41.804594297090624
pt.ine.add.PTCONT.851783,LG S TIAGO,,5300-689,BRAGANÇA,-6.781390548821203,41.804594297090624
pt.ine.add.PTCONT.851784,LG S TIAGO,,5300-689,BRAGANÇA,-6.781390548821203,41.804594297090624
pt.ine.add.PTCONT.851785,LG S TIAGO,,5300-689,BRAGANÇA,-6.781390548821203,41.804594297090624
pt.ine.add.PTCONT.851786,LG S TIAGO,,5300-689,BRAGANÇA,-6.781390548821203,41.804594297090624
pt.ine.add.PTCONT.851787,R CONDE DE ARIÃES,54,5300-114,BRAGANÇA,-6.783709110695495,41.79903964210181
pt.ine.add.PTCONT.851788,R PACO,36,5300-223,BRAGANÇA,-6.757589702994935,41.80628339790354
pt.ine.add.PTCONT.851789,LG S TIAGO,,5300-689,BRAGANÇA,-6.781390548821203,41.804594297090624
pt.ine.add.PTCONT.851790,LG S TIAGO,,5300-689,BRAGANÇA,-6.781390548821203,41.804594297090624
pt.ine.add.PTCONT.851791,R OLIMPIO DAS NEVES,21,5300-324,BRAGANÇA,-6.758119212806385,41.80065380972936
pt.ine.add.PTCONT.851792,R DR TEÓFILO BRAGA,21,5300-520,BRAGANÇA,-6.758081100824927,41.79793442127778
pt.ine.add.PTCONT.851793,R DR ADRIAO AMADO,55,5300-073,BRAGANÇA,-6.75618629261076,41.81057005050515
pt.ine.add.PTCONT.851794,R DR JOÃO JOSE FREITAS,15,5300-137,BRAGANÇA,-6.769397683477681,41.81292442569106
pt.ine.add.PTCONT.851795,R PEDRO NUNES,11,5300-706,BRAGANÇA,-6.777945209629759,41.80421158071111
pt.ine.add.PTCONT.851796,R AFONSO DA COSTA,89,5300-387,BRAGANÇA,-6.761356368955772,41.79385917078903
pt.ine.add.PTCONT.851797,R CARREIRA DE TIRO,8,5300-724,BRAGANÇA,-6.778801144861513,41.802421058574986
pt.ine.add.PTCONT.851798,R CARREIRA DE TIRO,8,5300-724,BRAGANÇA,-6.778801144861513,41.802421058574986
pt.ine.add.PTCONT.851799,R CONDE DE ARIÃES,17,5300-114,BRAGANÇA,-6.778279627568832,41.80204578134032
pt.ine.add.PTCONT.851800,R VISC BOUCA,13,5300-318,BRAGANÇA,-6.765524302372701,41.80040010190722
pt.ine.add.PTCONT.851801,R VISC BOUCA,13,5300-318,BRAGANÇA,-6.765524302372701,41.80040010190722
pt.ine.add.PTCONT.851802,R VISC BOUCA,13,5300-318,BRAGANÇA,-6.765524302372701,41.80040010190722
pt.ine.add.PTCONT.851803,R VISC BOUCA,13,5300-318,BRAGANÇA,-6.765524302372701,41.80040010190722
pt.ine.add.PTCONT.851804,R VISC BOUCA,13,5300-318,BRAGANÇA,-6.765524302372701,41.80040010190722
pt.ine.add.PTCONT.851805,R VISC BOUCA,13,5300-318,BRAGANÇA,-6.765524302372701,41.80040010190722
pt.ine.add.PTCONT.851806,R VISC BOUCA,13,5300-318,BRAGANÇA,-6.765524302372701,41.80040010190722
pt.ine.add.PTCONT.851807,R PADRE AMÉRICO,38,5300-287,BRAGANÇA,-6.776281542366334,41.79637725474557
pt.ine.add.PTCONT.851808,R DR RAUL TEIXEIRA,59,5300-246,BRAGANÇA,-6.756356042083074,41.804891146052334
pt.ine.add.PTCONT.851809,R COR ANTÓNIO JOSE TEIXEIRA,14,5300-144,BRAGANÇA,-6.772904775588099,41.79504987266091
pt.ine.add.PTCONT.851810,R AQUILINO RIBEIRO,4,5300-087,BRAGANÇA,-6.76502133898924,41.794632133042086
pt.ine.add.PTCONT.851812,R CABINE,,5300-903,SORTES,-6.829228830806691,41.700845425821065
pt.ine.add.PTCONT.851820,R CIMO DO POVO,,5300-902,SORTES,-6.853383553337294,41.69924430243583
pt.ine.add.PTCONT.851822,LOTEAM PLANTORIO,8 B,5300-232,BRAGANÇA,-6.7677329663666805,41.793845116941505
pt.ine.add.PTCONT.851823,LOTEAM PLANTORIO,8 B,5300-232,BRAGANÇA,-6.7677329663666805,41.793845116941505
pt.ine.add.PTCONT.851824,LOTEAM PLANTORIO,8 B,5300-232,BRAGANÇA,-6.7677329663666805,41.793845116941505
pt.ine.add.PTCONT.851825,LOTEAM PLANTORIO,8 B,5300-232,BRAGANÇA,-6.7677329663666805,41.793845116941505
pt.ine.add.PTCONT.851826,LOTEAM PLANTORIO,8 B,5300-232,BRAGANÇA,-6.7677329663666805,41.793845116941505
pt.ine.add.PTCONT.851827,BR ALTO,,5300-903,SORTES,-6.831982159774305,41.69715828710643
pt.ine.add.PTCONT.851828,R AMADEU SOUZA CARDOSO,22,5300-082,BRAGANÇA,-6.773050781771644,41.78871341631709
pt.ine.add.PTCONT.851829,R CAPELA,7,5300-911,ZOIO,-6.921204482230944,41.75068599736675
pt.ine.add.PTCONT.851831,R PRADINHO,,5300-881,SENDAS,-6.824211496404846,41.62179325191512
pt.ine.add.PTCONT.851838,R CAMILO CASTELO BRANCO,104,5300-106,BRAGANÇA,-6.767858393795094,41.79417071941216
pt.ine.add.PTCONT.851839,R CAMILO CASTELO BRANCO,104,5300-106,BRAGANÇA,-6.767858393795094,41.79417071941216
pt.ine.add.PTCONT.851840,R CAMILO CASTELO BRANCO,104,5300-106,BRAGANÇA,-6.767858393795094,41.79417071941216
pt.ine.add.PTCONT.851841,R CAMILO CASTELO BRANCO,104,5300-106,BRAGANÇA,-6.767858393795094,41.79417071941216
pt.ine.add.PTCONT.851844,R ERMELINDA FERREIRA,8,5300-002,BRAGANÇA,-6.763183231035846,41.79620377260731
pt.ine.add.PTCONT.851853,R PORTO,12,5300-891,SERAPICOS BGC,-6.762382988950989,41.618353521735806
pt.ine.add.PTCONT.851857,R NSA SRA DO AVISO,2,5300-891,SERAPICOS BGC,-6.762481440810831,41.61767044063403
pt.ine.add.PTCONT.851863,R SAGRADO CORACAO DE JESUS,19,5300-891,SERAPICOS BGC,-6.7640063173183,41.61704937577714
pt.ine.add.PTCONT.851864,R S SEBASTIÃO,18,5300-891,SERAPICOS BGC,-6.754862779179366,41.61766937106761
pt.ine.add.PTCONT.851868,R AQUILINO RIBEIRO,4,5300-087,BRAGANÇA,-6.76502133898924,41.794632133042086
pt.ine.add.PTCONT.851871,R LUANDA,4,5300-222,BRAGANÇA,-6.767626142616654,41.815874390054994
pt.ine.add.PTCONT.851872,R D JOÃO IV,8,5300-029,BRAGANÇA,-6.744619326766691,41.805109983228235
pt.ine.add.PTCONT.851873,R PRINCIPAL,42,5300-874,SÃO PEDRO DE SERRACENOS,-6.752393836932557,41.76300614486102
pt.ine.add.PTCONT.851874,BR PELOURINHO,87,5300-811,REBORDÃOS,-6.825056298365272,41.73954791515817
pt.ine.add.PTCONT.851875,BR CARRIGO,158,5300-811,REBORDÃOS,-6.819552033444147,41.7388999057446
pt.ine.add.PTCONT.851876,R S ROQUE,,5300-845,SALSAS,-6.813542908224724,41.63717505723796
pt.ine.add.PTCONT.851877,R ABILIO BESSA,,5300-845,SALSAS,-6.817325001557223,41.637686592403234
pt.ine.add.PTCONT.851878,R PINHAL,,5300-861,SANTA COMBA DE ROSSAS,-6.8284818159349365,41.662906080997985
pt.ine.add.PTCONT.851879,R ABILIO BECA,7,5300-011,BRAGANÇA,-6.752346908405642,41.80555426227247
pt.ine.add.PTCONT.851880,R ABILIO BECA,7,5300-011,BRAGANÇA,-6.752346908405642,41.80555426227247
pt.ine.add.PTCONT.851881,R ABILIO BECA,7,5300-011,BRAGANÇA,-6.752346908405642,41.80555426227247
pt.ine.add.PTCONT.851882,R AMENDOEIRAS,26,5300-017,BRAGANÇA,-6.745018142100079,41.80837391521327
pt.ine.add.PTCONT.851883,R ENG JOSE BECA,35,5300-034,BRAGANÇA,-6.751469698155539,41.805498697930716
pt.ine.add.PTCONT.851884,R ENG JOSE BECA,35,5300-034,BRAGANÇA,-6.751469698155539,41.805498697930716
pt.ine.add.PTCONT.851885,LG CRUZEIRO,,5300-872,SÃO JULIÃO DE PALÁCIOS,-6.620741431693363,41.82710644315931
pt.ine.add.PTCONT.851886,R ROCHA LOUZA,9,5300-728,BRAGANÇA,-6.772312361650693,41.80996997557118
pt.ine.add.PTCONT.851887,R ENG JOSE BECA,7,5300-034,BRAGANÇA,-6.752057805865371,41.80556879253484
pt.ine.add.PTCONT.851888,AV FORÇAS ARMADAS,,5300-440,BRAGANÇA,-6.757341843382471,41.81561661194535
pt.ine.add.PTCONT.851889,AV FORÇAS ARMADAS,,5300-440,BRAGANÇA,-6.757341843382471,41.81561661194535
pt.ine.add.PTCONT.851890,AV FORÇAS ARMADAS,,5300-440,BRAGANÇA,-6.757341843382471,41.81561661194535
pt.ine.add.PTCONT.851891,AV FORÇAS ARMADAS,,5300-440,BRAGANÇA,-6.757341843382471,41.81561661194535
pt.ine.add.PTCONT.851892,AV FORÇAS ARMADAS,,5300-440,BRAGANÇA,-6.757341843382471,41.81561661194535
pt.ine.add.PTCONT.851893,ESTR VILA NOVA,31,5300-120,BRAGANÇA,-6.761932400509858,41.81762517375658
pt.ine.add.PTCONT.851894,ESTR TURISMO,15,5300-852,BRAGANÇA,-6.753620954355296,41.787671430961176
pt.ine.add.PTCONT.851895,BR CIMA,29,5300-871,SÃO JULIÃO DE PALÁCIOS,-6.620593705541366,41.8190648273307
pt.ine.add.PTCONT.851896,R JOSE REGIO,31,5300-410,BRAGANÇA,-6.765949637468347,41.8171778960819
pt.ine.add.PTCONT.851897,AV FORÇAS ARMADAS,,5300-440,BRAGANÇA,-6.757341843382471,41.81561661194535
pt.ine.add.PTCONT.851898,AV FORÇAS ARMADAS,,5300-440,BRAGANÇA,-6.757341843382471,41.81561661194535
pt.ine.add.PTCONT.851899,AV FORÇAS ARMADAS,,5300-440,BRAGANÇA,-6.757341843382471,41.81561661194535
pt.ine.add.PTCONT.851900,AV FORÇAS ARMADAS,,5300-440,BRAGANÇA,-6.757341843382471,41.81561661194535
pt.ine.add.PTCONT.851901,AV FORÇAS ARMADAS,,5300-440,BRAGANÇA,-6.757341843382471,41.81561661194535
pt.ine.add.PTCONT.851902,AV FORÇAS ARMADAS,,5300-440,BRAGANÇA,-6.757341843382471,41.81561661194535
pt.ine.add.PTCONT.851903,AV FORÇAS ARMADAS,,5300-440,BRAGANÇA,-6.757341843382471,41.81561661194535
pt.ine.add.PTCONT.851904,R VIRGILIO FERREIRA,14,5300-448,BRAGANÇA,-6.755528794384168,41.81148948220076
pt.ine.add.PTCONT.851905,R CENTRAL,5,5300-871,SÃO JULIÃO DE PALÁCIOS,-6.605376173007543,41.821798376439105
pt.ine.add.PTCONT.851906,EN 308,8,5300-871,SÃO JULIÃO DE PALÁCIOS,-6.601782680344593,41.82208362711459
pt.ine.add.PTCONT.851907,R PADRE TEOBALDO WISCAMP,40,5300-063,BRAGANÇA,-6.776460214879346,41.78048887491435
pt.ine.add.PTCONT.851908,R IGREJA,19,5300-871,SÃO JULIÃO DE PALÁCIOS,-6.604960048706215,41.82006426674582
pt.ine.add.PTCONT.851909,R CHARCA,8,5300-832,RIO FRIO BGC,-6.609498066825042,41.71485170674632
pt.ine.add.PTCONT.851910,R VALE,22,5300-832,RIO FRIO BGC,-6.6068496853125245,41.71150339772334
pt.ine.add.PTCONT.851911,R CAP SALGUEIRO MAIA,18,5300-067,BRAGANÇA,-6.7629474349411325,41.81630483432119
pt.ine.add.PTCONT.851912,R CENTRAL,,5300-822,RIO DE ONOR,-6.616512060040082,41.93985700506852
pt.ine.add.PTCONT.851913,R PAREDES,,5300-855,BRAGANÇA,-6.760368937392569,41.775859161837275
pt.ine.add.PTCONT.851914,R FONTE DO VALE,26,5300-855,BRAGANÇA,-6.755699766410771,41.775416133585615
pt.ine.add.PTCONT.851915,R PRINCIPAL,20,5300-874,SÃO PEDRO DE SERRACENOS,-6.755631142375071,41.76513373770282
pt.ine.add.PTCONT.851916,R CAP SALGUEIRO MAIA,104,5300-067,BRAGANÇA,-6.765230312367755,41.81535071206437
pt.ine.add.PTCONT.851917,,,5300-822,RIO DE ONOR,-6.569980840655984,41.91562744237963
pt.ine.add.PTCONT.851918,R LOMBADA,,5300-587,BRAGANÇA,-6.744685784065593,41.81261934434292
pt.ine.add.PTCONT.851919,R LAGOAS,19,5300-874,SÃO PEDRO DE SERRACENOS,-6.760677060353527,41.763663600293725
pt.ine.add.PTCONT.851920,R AGOSTINHO LOPES COELHO,79,5300-405,BRAGANÇA,-6.765733538695468,41.81545573811166
pt.ine.add.PTCONT.851921,AV FERNANDO PESSOA,18,5300-177,BRAGANÇA,-6.766430015042523,41.81609424258839
pt.ine.add.PTCONT.852371,AV CANTARIAS,115,5300-107,BRAGANÇA,-6.775491033070481,41.78480792436146
pt.ine.add.PTCONT.852372,R LAMEIRINHA,4,5300-874,SÃO PEDRO DE SERRACENOS,-6.760459194454304,41.76316582442506
pt.ine.add.PTCONT.852375,R COR ANTÓNIO JOSE TEIXEIRA,14,5300-144,BRAGANÇA,-6.772904775588099,41.79504987266091
pt.ine.add.PTCONT.852378,LOTEAM PLANTORIO,8 B,5300-232,BRAGANÇA,-6.7677329663666805,41.793845116941505
pt.ine.add.PTCONT.852380,AV FORÇAS ARMADAS,,5300-440,BRAGANÇA,-6.757341843382471,41.81561661194535
pt.ine.add.PTCONT.852412,R DE STA COLUMBINA EM GIMONDE,,5300-552,GIMONDE,-6.697235285122164,41.80667010347753
pt.ine.add.PTCONT.852414,AV NSA SRA DA ASSUNÇÃO,,5300-615,IZEDA,-6.721064353965606,41.568163713362026
pt.ine.add.PTCONT.852425,R PRADO NOVO,,5300-541,FRANÇA,-6.736005655413188,41.90294912595383
pt.ine.add.PTCONT.852426,AV ABADE BAÇAL,63,5300-068,BRAGANÇA,-6.774951421378308,41.80296080190797
pt.ine.add.PTCONT.852427,AV ABADE BAÇAL,63,5300-068,BRAGANÇA,-6.774951421378308,41.80296080190797
pt.ine.add.PTCONT.852428,AV ABADE BAÇAL,63,5300-068,BRAGANÇA,-6.774951421378308,41.80296080190797
pt.ine.add.PTCONT.852429,AV ABADE BAÇAL,63,5300-068,BRAGANÇA,-6.774951421378308,41.80296080190797
pt.ine.add.PTCONT.852430,AV ABADE BAÇAL,63,5300-068,BRAGANÇA,-6.774951421378308,41.80296080190797
pt.ine.add.PTCONT.852431,AV ABADE BAÇAL,63,5300-068,BRAGANÇA,-6.774951421378308,41.80296080190797
pt.ine.add.PTCONT.852432,AV ABADE BAÇAL,63,5300-068,BRAGANÇA,-6.774951421378308,41.80296080190797
pt.ine.add.PTCONT.852433,AV ABADE BAÇAL,63,5300-068,BRAGANÇA,-6.774951421378308,41.80296080190797
pt.ine.add.PTCONT.852434,AV ABADE BAÇAL,63,5300-068,BRAGANÇA,-6.774951421378308,41.80296080190797
pt.ine.add.PTCONT.852435,AV ABADE BAÇAL,63,5300-068,BRAGANÇA,-6.774951421378308,41.80296080190797
pt.ine.add.PTCONT.852436,AV ABADE BAÇAL,63,5300-068,BRAGANÇA,-6.774951421378308,41.80296080190797
pt.ine.add.PTCONT.852437,AV ABADE BAÇAL,63,5300-068,BRAGANÇA,-6.774951421378308,41.80296080190797
pt.ine.add.PTCONT.852438,AV ABADE BAÇAL,63,5300-068,BRAGANÇA,-6.774951421378308,41.80296080190797
pt.ine.add.PTCONT.852439,AV ABADE BAÇAL,63,5300-068,BRAGANÇA,-6.774951421378308,41.80296080190797
pt.ine.add.PTCONT.852440,AV ABADE BAÇAL,6,5300-068,BRAGANÇA,-6.782378765296309,41.80394869737438
pt.ine.add.PTCONT.852441,R CHÃOS,,5300-846,SALSAS,-6.836627701476942,41.641678361464216
pt.ine.add.PTCONT.852444,AV ABADE BAÇAL,63,5300-068,BRAGANÇA,-6.774951421378308,41.80296080190797
pt.ine.add.PTCONT.852445,R VIRGILIO FERREIRA,13,5300-448,BRAGANÇA,-6.755528794384168,41.81148948220076
pt.ine.add.PTCONT.852446,R VIRGILIO FERREIRA,13,5300-448,BRAGANÇA,-6.755528794384168,41.81148948220076
pt.ine.add.PTCONT.852447,R VIRGILIO FERREIRA,13,5300-448,BRAGANÇA,-6.755528794384168,41.81148948220076
pt.ine.add.PTCONT.852448,R VIRGILIO FERREIRA,13,5300-448,BRAGANÇA,-6.755528794384168,41.81148948220076
pt.ine.add.PTCONT.852449,R VIRGILIO FERREIRA,13,5300-448,BRAGANÇA,-6.755528794384168,41.81148948220076
pt.ine.add.PTCONT.852450,R VIRGILIO FERREIRA,13,5300-448,BRAGANÇA,-6.755528794384168,41.81148948220076
pt.ine.add.PTCONT.852451,R VIRGILIO FERREIRA,13,5300-448,BRAGANÇA,-6.755528794384168,41.81148948220076
pt.ine.add.PTCONT.852452,R VIRGILIO FERREIRA,13,5300-448,BRAGANÇA,-6.755528794384168,41.81148948220076
pt.ine.add.PTCONT.852453,R VIRGILIO FERREIRA,13,5300-448,BRAGANÇA,-6.755528794384168,41.81148948220076
pt.ine.add.PTCONT.852454,R VIRGILIO FERREIRA,13,5300-448,BRAGANÇA,-6.755528794384168,41.81148948220076
pt.ine.add.PTCONT.852455,R VIRGILIO FERREIRA,13,5300-448,BRAGANÇA,-6.755528794384168,41.81148948220076
pt.ine.add.PTCONT.852456,R VIRGILIO FERREIRA,13,5300-448,BRAGANÇA,-6.755528794384168,41.81148948220076
pt.ine.add.PTCONT.852457,R SANTO ANTÓNIO,8,5300-712,OUTEIRO BGC,-6.579591770977558,41.70681655427745
pt.ine.add.PTCONT.852458,R SANTO ANTÓNIO,,5300-542,FRANÇA,-6.765109483447828,41.93849195910533
pt.ine.add.PTCONT.852459,R DR ALEXANDRE FARIA,28,5300-128,BRAGANÇA,-6.764310988915455,41.81217968239849
pt.ine.add.PTCONT.852460,R DR ALEXANDRE FARIA,28,5300-128,BRAGANÇA,-6.764310988915455,41.81217968239849
pt.ine.add.PTCONT.852461,R DR ALEXANDRE FARIA,28,5300-128,BRAGANÇA,-6.764310988915455,41.81217968239849
pt.ine.add.PTCONT.852462,R DR ALEXANDRE FARIA,28,5300-128,BRAGANÇA,-6.764310988915455,41.81217968239849
pt.ine.add.PTCONT.852463,R DR ALEXANDRE FARIA,28,5300-128,BRAGANÇA,-6.764310988915455,41.81217968239849
pt.ine.add.PTCONT.852464,R DR ALEXANDRE FARIA,28,5300-128,BRAGANÇA,-6.764310988915455,41.81217968239849
pt.ine.add.PTCONT.852465,,,5300-811,REBORDÃOS,-6.818651293918211,41.73532433453535
pt.ine.add.PTCONT.852471,LOTEAM TRAJINHA,,5300-440,BRAGANÇA,-6.755805326968212,41.81599433086544
pt.ine.add.PTCONT.852472,LOTEAM TRAJINHA,,5300-440,BRAGANÇA,-6.755805326968212,41.81599433086544
pt.ine.add.PTCONT.852473,LOTEAM TRAJINHA,,5300-440,BRAGANÇA,-6.755805326968212,41.81599433086544
pt.ine.add.PTCONT.852474,LOTEAM TRAJINHA,,5300-440,BRAGANÇA,-6.755805326968212,41.81599433086544
pt.ine.add.PTCONT.852475,LOTEAM TRAJINHA,,5300-440,BRAGANÇA,-6.755805326968212,41.81599433086544
pt.ine.add.PTCONT.852476,LOTEAM TRAJINHA,,5300-440,BRAGANÇA,-6.755805326968212,41.81599433086544
pt.ine.add.PTCONT.852477,LOTEAM TRAJINHA,,5300-440,BRAGANÇA,-6.755805326968212,41.81599433086544
pt.ine.add.PTCONT.852487,LOTEAM TRAJINHA,,5300-440,BRAGANÇA,-6.755805326968212,41.81599433086544
pt.ine.add.PTCONT.852495,R EMÍDIO NAVARRO,34,5300-210,BRAGANÇA,-6.756876550639463,41.80699510090726
pt.ine.add.PTCONT.852496,R JAIME CORTESÃO,29,5300-120,BRAGANÇA,-6.765089267528559,41.816888556210515
pt.ine.add.PTCONT.852498,R FONTE DOS PASSARINHOS,17,5300-608,IZEDA,-6.723949256235823,41.56946859284413
pt.ine.add.PTCONT.852499,R AMENDOEIRAS,12,5300-017,BRAGANÇA,-6.746731310644616,41.806494959596485
pt.ine.add.PTCONT.852500,TV ADEGA,4,5300-406,BRAGANÇA,-6.7626922702907795,41.81641882976738
pt.ine.add.PTCONT.852501,TV ADEGA,4,5300-406,BRAGANÇA,-6.7626922702907795,41.81641882976738
pt.ine.add.PTCONT.852502,R TERRA FRIA,1,5300-268,BRAGANÇA,-6.7692909298667105,41.81341832699382
pt.ine.add.PTCONT.852503,R TERRA FRIA,1,5300-268,BRAGANÇA,-6.7692909298667105,41.81341832699382
pt.ine.add.PTCONT.852504,R AMENDOEIRAS,12,5300-017,BRAGANÇA,-6.746731310644616,41.806494959596485
pt.ine.add.PTCONT.852507,R DA FONTE DO CARRIÇAL,2,5300-721,PARADA BGC,-6.697584005901592,41.681494780266384
pt.ine.add.PTCONT.852527,R CENTRAL,5,5300-412,AVELEDA BGC,-6.682434457083266,41.870630456216844
pt.ine.add.PTCONT.852528,R EIRAS,11,5300-663,MACEDO DO MATO,-6.779897217950917,41.57601100602024
pt.ine.add.PTCONT.852529,R SAMPAIO,9,5300-701,NOGUEIRA BGC,-6.805097304702366,41.76835417232132
pt.ine.add.PTCONT.852530,BR FEIRA,,5300-721,PARADA BGC,-6.6973893018924056,41.68160938974881
pt.ine.add.PTCONT.852531,R FUNDO DO POVO,26,5300-731,PARADINHA NOVA,-6.663114280592435,41.6129402566494
pt.ine.add.PTCONT.852532,R IGREJA,10,5300-751,PINELA,-6.763455759924236,41.67138684981178
pt.ine.add.PTCONT.852533,BR CARRICO,180,5300-811,REBORDÃOS,-6.81567882730681,41.74079124399481
pt.ine.add.PTCONT.852534,R PAULINOS,5,5300-412,AVELEDA BGC,-6.681154578546193,41.870767329454736
pt.ine.add.PTCONT.852535,R PAREDES,,5300-701,NOGUEIRA BGC,-6.809379953560773,41.76828656179106
pt.ine.add.PTCONT.852537,TV CANTO,8,5300-412,AVELEDA BGC,-6.681330338660714,41.87151679642314
pt.ine.add.PTCONT.852538,R MARTINHOS,9,5300-412,AVELEDA BGC,-6.680660276573361,41.8713192606799
pt.ine.add.PTCONT.852539,TV CRUZEIRO,,5300-541,FRANÇA,-6.7372311526677,41.90146054335189
pt.ine.add.PTCONT.852541,AV PORTELA,6,5300-492,COELHOSO,-6.666552191735494,41.65339994468678
pt.ine.add.PTCONT.852542,R CRUZ,,5300-541,FRANÇA,-6.736980417589337,41.90080028102914
pt.ine.add.PTCONT.852543,,,5300-761,POMBARES,-6.8882827587144755,41.640610830993324
pt.ine.add.PTCONT.852544,R CENTRAL,28,5300-673,MEIXEDO BGC,-6.770339143483131,41.85194578463304
pt.ine.add.PTCONT.852545,R VILAR,,5300-673,MEIXEDO BGC,-6.769048919893492,41.851462309425386
pt.ine.add.PTCONT.852546,R ALVAREDO,3,5300-441,CALVELHE,-6.705568245193389,41.604390998440834
pt.ine.add.PTCONT.852547,CAM VALE DE CONDE,,5300-573,BRAGANÇA,-6.78419675780274,41.78324491221635
pt.ine.add.PTCONT.852548,BR OUTEIRO,,5300-741,PARÂMIO,-6.885260800143757,41.90168830915062
pt.ine.add.PTCONT.852549,BR OUTEIRO,,5300-741,PARÂMIO,-6.886319352333403,41.901168632496606
pt.ine.add.PTCONT.852551,R PRINCIPAL,,5300-802,REBORDAINHOS,-6.865491595158432,41.671774393397136
pt.ine.add.PTCONT.852552,R CRUZ,10,5300-421,BABE,-6.6350033780062105,41.82305296540828
pt.ine.add.PTCONT.852553,R SANTA RITA,9,5300-524,ESPINHOSELA,-6.846750917686502,41.882213005130815
pt.ine.add.PTCONT.852554,R IGREJA,11,5300-682,MILHÃO,-6.6276579319265885,41.77694243775647
pt.ine.add.PTCONT.852555,BR CORREDOURA,,5300-744,PARÂMIO,-6.8662279113350975,41.898247810826575
pt.ine.add.PTCONT.852556,R IGREJA,,5300-802,REBORDAINHOS,-6.861214035757865,41.66825184722885
pt.ine.add.PTCONT.852557,R FE,2,5300-711,OUTEIRO BGC,-6.59932769424567,41.686248393051756
pt.ine.add.PTCONT.852558,BR BAIXO,,5300-401,ALFAIÃO,-6.724816258757072,41.762104170415164
pt.ine.add.PTCONT.852559,,,5300-782,QUINTELA DE LAMPAÇAS,-6.85534965483968,41.62779775119637
pt.ine.add.PTCONT.852560,BR CIMA,51,5300-401,ALFAIÃO,-6.725915996170771,41.76350412893231
pt.ine.add.PTCONT.852561,R NSA SRA DA ASSUNÇAO,15,5300-451,CARRAGOSA,-6.798736664656128,41.86163340511886
pt.ine.add.PTCONT.852562,,,5300-512,BRAGANÇA,-6.807758086366473,41.8335943919068
pt.ine.add.PTCONT.852563,LG EIRO,,5300-532,FAILDE,-6.752614076049673,41.724673308588045
pt.ine.add.PTCONT.852564,R ESCOLA,8,5300-662,MACEDO DO MATO,-6.756095494371916,41.58735176742316
pt.ine.add.PTCONT.852565,R ESCOLA,4,5300-662,MACEDO DO MATO,-6.756878292914603,41.58663186631935
pt.ine.add.PTCONT.852566,R PICARRELA,8,5300-711,OUTEIRO BGC,-6.59854361003234,41.68234854917428
pt.ine.add.PTCONT.852567,R SENHORA DO CARMO,106,5300-721,PARADA BGC,-6.695563713342081,41.67460005276871
pt.ine.add.PTCONT.852569,AV S ROQUE,,5300-721,PARADA BGC,-6.69525216488456,41.675109339702196
pt.ine.add.PTCONT.852570,R PRINCIPAL,42,5300-812,REBORDÃOS,-6.8028520367917835,41.743146325998055
pt.ine.add.PTCONT.852572,R REIMONTE,,5300-411,AVELEDA BGC,-6.697631511147667,41.89232946818017
pt.ine.add.PTCONT.852573,R ANDRÉ AVELINO PIRES,,5300-563,GONDESENDE,-6.853103463022838,41.83614343387156
pt.ine.add.PTCONT.852574,TV PELOURINHO,2,5300-661,MACEDO DO MATO,-6.760091683498541,41.57590221291222
pt.ine.add.PTCONT.852575,AV S ROQUE,,5300-721,PARADA BGC,-6.694135256558285,41.67134100569461
pt.ine.add.PTCONT.852576,BR CIMO DE VILA,38,5300-811,REBORDÃOS,-6.828844656474158,41.74005014888122
pt.ine.add.PTCONT.852579,R CIMO DO POVO,26,5300-731,PARADINHA NOVA,-6.664988843822511,41.61598032710611
pt.ine.add.PTCONT.852580,R IGREJA,25A,5300-751,PINELA,-6.764741063097246,41.66966452876654
pt.ine.add.PTCONT.852581,R CENTRAL,1,5300-751,PINELA,-6.761923881913678,41.67171070598895
pt.ine.add.PTCONT.852582,R PRINCIPAL,,5300-514,BRAGANÇA,-6.82350573559023,41.830560951363104
pt.ine.add.PTCONT.852583,R CANTO DO SALGUEIRO,11,5300-627,IZEDA,-6.720042717153855,41.57048304346467
pt.ine.add.PTCONT.852584,R DR EURICO CARRAPATOSO,24,5300-457,BRAGANÇA,-6.775353355680437,41.80102088652887
pt.ine.add.PTCONT.852585,BR GODINHA,133,5300-811,REBORDÃOS,-6.823271815541817,41.74158931701949
pt.ine.add.PTCONT.852586,R ESTRADA DE VALE DE ALVARO,25,5300-274,BRAGANÇA,-6.760722833809604,41.81227190923365
pt.ine.add.PTCONT.852587,R DR EURICO CARRAPATOSO,24,5300-457,BRAGANÇA,-6.775353355680437,41.80102088652887
pt.ine.add.PTCONT.852588,R DR EURICO CARRAPATOSO,24,5300-457,BRAGANÇA,-6.775353355680437,41.80102088652887
pt.ine.add.PTCONT.852589,R FERREIRA DEUSDADO,17,5300-196,BRAGANÇA,-6.786047002338793,41.79984259617363
pt.ine.add.PTCONT.852590,R VASCO DA GAMA,5,5300-417,BRAGANÇA,-6.761013137813121,41.81502131308951
pt.ine.add.PTCONT.852591,R VASCO DA GAMA,5,5300-417,BRAGANÇA,-6.761013137813121,41.81502131308951
pt.ine.add.PTCONT.852592,R VASCO DA GAMA,5,5300-417,BRAGANÇA,-6.761013137813121,41.81502131308951
pt.ine.add.PTCONT.852593,R SENHORA DO AR,5,5300-249,BRAGANÇA,-6.777629780889453,41.8043339018407
pt.ine.add.PTCONT.852594,TV AUGUSTO TRAJANO DE OLIVEIRA,4,5300-270,BRAGANÇA,-6.769965629359926,41.81224693436401
pt.ine.add.PTCONT.852595,R AFONSO DA COSTA,34,5300-387,BRAGANÇA,-6.761364173761982,41.79405733211296
pt.ine.add.PTCONT.852596,R CÓNEGO JOSE MANUEL DA ROCHA,7,5300-066,BRAGANÇA,-6.77049893366672,41.80014411771439
pt.ine.add.PTCONT.852597,R PICADEIRO,6,5300-229,BRAGANÇA,-6.756933318670322,41.807716027053495
pt.ine.add.PTCONT.852598,R GIL VICENTE,12,5300-169,BRAGANÇA,-6.759327744474026,41.79871460121444
pt.ine.add.PTCONT.852599,AV LUCIANO CORDEIRO,1,5300-191,BRAGANÇA,-6.771715902282558,41.808018242251016
pt.ine.add.PTCONT.852600,AV LUCIANO CORDEIRO,19,5300-191,BRAGANÇA,-6.772863740811003,41.80779776195853
pt.ine.add.PTCONT.852601,AV LUCIANO CORDEIRO,19,5300-191,BRAGANÇA,-6.772863740811003,41.80779776195853
pt.ine.add.PTCONT.852602,R DR MARIA GUARDIOLA,6,5300-463,BRAGANÇA,-6.774961063924006,41.801934563756255
pt.ine.add.PTCONT.852603,R DR EDUARDO FARIA,7,5300-566,BRAGANÇA,-6.771252731669654,41.79977492802592
pt.ine.add.PTCONT.852604,R DR ANTÓNIO MOURINHO,6,5300-459,BRAGANÇA,-6.771217577684502,41.799162300944616
pt.ine.add.PTCONT.852605,R PROF EGAS MONIZ,63,5300-239,BRAGANÇA,-6.770584942599494,41.81198419089012
pt.ine.add.PTCONT.852606,R ENG ADOLFO RAMIRES,50,5300-147,BRAGANÇA,-6.7752704645208235,41.80665583927509
pt.ine.add.PTCONT.852607,R LORETO,88,5300-189,BRAGANÇA,-6.7602589829797886,41.802435006994784
pt.ine.add.PTCONT.852608,R ABADE CICOURO,18,5300-069,BRAGANÇA,-6.767127651299566,41.81101580781755
pt.ine.add.PTCONT.852609,R OLMOS,14,5300-219,BRAGANÇA,-6.766954456104383,41.81067163104031
pt.ine.add.PTCONT.852610,R JOSE GARRIDO,36,5300-450,BRAGANÇA,-6.784680478293977,41.796323110508304
pt.ine.add.PTCONT.852616,R CARVALHA,,5300-903,SORTES,-6.830750703754215,41.70520225687103
pt.ine.add.PTCONT.852628,R CABO,5,5300-913,ZOIO,-6.887620478790244,41.7478059128412
pt.ine.add.PTCONT.852629,R CANELHO,6,5300-913,ZOIO,-6.886641298769711,41.746219730123734
pt.ine.add.PTCONT.852633,R CAMILO CASTELO BRANCO,96,5300-106,BRAGANÇA,-6.767541276574146,41.79437402093097
pt.ine.add.PTCONT.852636,R S FRANCISCO,,5300-882,SENDAS,-6.836738776902483,41.601992697056225
pt.ine.add.PTCONT.852649,LG PRAÇA,6,5300-891,SERAPICOS BGC,-6.761315479475417,41.61720636305145
pt.ine.add.PTCONT.852659,R S SEBASTIÃO,12,5300-891,SERAPICOS BGC,-6.75602972843152,41.617521297693024
pt.ine.add.PTCONT.852662,R FORTE,5,5300-891,SERAPICOS BGC,-6.760459390737846,41.615143376666836
pt.ine.add.PTCONT.852663,BR CAPELA,,5300-903,SORTES,-6.831118930878735,41.70660193469819
pt.ine.add.PTCONT.852667,,,5300-822,RIO DE ONOR,-6.566503907817341,41.910925583360644
pt.ine.add.PTCONT.852668,R OROBIO DE CASTRO,12,5300-220,BRAGANÇA,-6.755506174317886,41.80468288799209
pt.ine.add.PTCONT.852669,R TERRA FRIA,43,5300-268,BRAGANÇA,-6.77198670083819,41.812847100554556
pt.ine.add.PTCONT.852670,AV LES PAVILLONS SOUS BOIS,70,5300-655,BRAGANÇA,-6.764167822500815,41.81381653463233
pt.ine.add.PTCONT.852671,AV LES PAVILLONS SOUS BOIS,70,5300-655,BRAGANÇA,-6.764167822500815,41.81381653463233
pt.ine.add.PTCONT.852672,AV LES PAVILLONS SOUS BOIS,70,5300-655,BRAGANÇA,-6.764167822500815,41.81381653463233
pt.ine.add.PTCONT.852673,AV LES PAVILLONS SOUS BOIS,70,5300-655,BRAGANÇA,-6.764167822500815,41.81381653463233
pt.ine.add.PTCONT.852674,BR EIRAS,,5300-845,SALSAS,-6.81090383978776,41.63593827812396
pt.ine.add.PTCONT.852675,R ANTÓNIO DE SOUZA,5,5300-232,BRAGANÇA,-6.77659361174293,41.78329042079301
pt.ine.add.PTCONT.852676,R ANTÓNIO DE SOUZA,5,5300-232,BRAGANÇA,-6.77659361174293,41.78329042079301
pt.ine.add.PTCONT.852677,R CAMINHO DE FERRO,,5300-861,SANTA COMBA DE ROSSAS,-6.830217259701216,41.66317786224296
pt.ine.add.PTCONT.852678,TV LAGOAS,3,5300-874,SÃO PEDRO DE SERRACENOS,-6.759357475319744,41.762387387483365
pt.ine.add.PTCONT.852679,R MOREIRINHAS,28,5300-205,BRAGANÇA,-6.754869372996215,41.804639235987544
pt.ine.add.PTCONT.852680,RECTA DE REBORDAOS,258,5300-811,REBORDÃOS,-6.806236306527493,41.756267084577736
pt.ine.add.PTCONT.852681,R S SEBASTIÃO,43,5300-053,BRAGANÇA,-6.741502077194161,41.80514428088065
pt.ine.add.PTCONT.852682,R S SEBASTIÃO,43,5300-053,BRAGANÇA,-6.741502077194161,41.80514428088065
pt.ine.add.PTCONT.852683,R LUÍS AMORIM,8,5300-714,BRAGANÇA,-6.772425782184889,41.809728236245654
pt.ine.add.PTCONT.852684,R DR JOÃO GONÇALVES,,5300-846,SALSAS,-6.839069431550929,41.63961710063387
pt.ine.add.PTCONT.852685,R FRANCISCO GARCIA,11,5300-206,BRAGANÇA,-6.7739344417201375,41.78389820761661
pt.ine.add.PTCONT.852686,R PROF DR MOTA PINTO,24,5300-437,BRAGANÇA,-6.758839652868343,41.81592264201635
pt.ine.add.PTCONT.852687,R PROF DR MOTA PINTO,24,5300-437,BRAGANÇA,-6.758839652868343,41.81592264201635
pt.ine.add.PTCONT.852688,R NOVA DE S BENTO,14,5300-586,BRAGANÇA,-6.750585583107552,41.80688353551361
pt.ine.add.PTCONT.852689,R NOGUEIRA,52,5300-208,BRAGANÇA,-6.768018841920768,41.81381735569636
pt.ine.add.PTCONT.852690,R IGREJA,9,5300-832,RIO FRIO BGC,-6.607514787668958,41.71487940735539
pt.ine.add.PTCONT.852691,R MADRE ISABEL LARRANHAGA,47,5300-302,BRAGANÇA,-6.758464838636897,41.81769175950203
pt.ine.add.PTCONT.852692,TV ADEGA,8,5300-406,BRAGANÇA,-6.762702766898069,41.81649097952011
pt.ine.add.PTCONT.852693,R DR JOSE MORAIS CARMONA,29,5300-302,BRAGANÇA,-6.759467650594995,41.81807288325922
pt.ine.add.PTCONT.852694,R AMOREIRINHAS,5,5300-205,BRAGANÇA,-6.753967980251122,41.80515059440546
pt.ine.add.PTCONT.852695,R TRINDADE COELHO,37,5300-061,BRAGANÇA,-6.753458288292173,41.80535154382878
pt.ine.add.PTCONT.852696,R FUNDO DO POVO,12,5300-855,BRAGANÇA,-6.757082546735111,41.77655809654309
pt.ine.add.PTCONT.852697,R FUNDO DO POVO,,5300-855,BRAGANÇA,-6.756957876083821,41.77676367477687
pt.ine.add.PTCONT.853161,R DR ANTÓNIO CARMONA E LIMA,ZS,5300-403,BRAGANÇA,-6.761960497307742,41.8174364449074
pt.ine.add.PTCONT.853165,R JOSE SARAMAGO,129,5300-396,BRAGANÇA,-6.760503939889459,41.79377696249827
pt.ine.add.PTCONT.853171,LG ROSSIO,1,5300-722,PARADA BGC,-6.726825935160158,41.69922360917609
pt.ine.add.PTCONT.853186,R ROUPEIRO,85,5300-673,MEIXEDO BGC,-6.769887582855852,41.85449728035028
pt.ine.add.PTCONT.853189,TV ADEGA,8,5300-406,BRAGANÇA,-6.762702766898069,41.81649097952011
pt.ine.add.PTCONT.853197,COUTO DE LIMAOS,,5300-518,BRAGANÇA,-6.794419827037764,41.81741423619436
pt.ine.add.PTCONT.853200,R ALF MANUEL JOAQUIM SANTOS CASEIRO,15,5300-598,IZEDA,-6.719621653855467,41.571099102201934
pt.ine.add.PTCONT.853208,BR SANTO ANTÓNIO,219,5300-811,REBORDÃOS,-6.81145159842211,41.740004429100445
pt.ine.add.PTCONT.853209,R SANTO ANTÓNIO,,5300-542,FRANÇA,-6.764151909247662,41.93759826161356
pt.ine.add.PTCONT.853236,TV OLIVAIS,11,5300-617,IZEDA,-6.723361281245175,41.56397830421676
pt.ine.add.PTCONT.853260,BR QUINTELA,185,5300-811,REBORDÃOS,-6.819253876444556,41.74173250443775
pt.ine.add.PTCONT.853261,TV CORTINHEIROS,1,5300-412,AVELEDA BGC,-6.681975070695996,41.87123685195216
pt.ine.add.PTCONT.853262,R IGREJA,,5300-518,BRAGANÇA,-6.786404774210072,41.82945666306171
pt.ine.add.PTCONT.853263,EN 103 7,,5300-544,FRANÇA,-6.72720762728316,41.92549303506415
pt.ine.add.PTCONT.853264,R CONDE DE ARIÃES,,5300-114,BRAGANÇA,-6.787630983316382,41.79618665177248
pt.ine.add.PTCONT.853265,R JOGO DO FITO,37,5300-473,CASTRELOS,-6.904315546884399,41.82233384818132
pt.ine.add.PTCONT.853266,R COUCO,4,5300-492,COELHOSO,-6.665750875983528,41.654326054892145
pt.ine.add.PTCONT.853267,R ALBINO NOGUEIRO,44,5300-404,BRAGANÇA,-6.783094383438802,41.793360464227014
pt.ine.add.PTCONT.853268,AV S ROQUE,,5300-721,PARADA BGC,-6.700365376962059,41.67900858723915
pt.ine.add.PTCONT.853269,BR BARROSA,16,5300-721,PARADA BGC,-6.689686888209684,41.680720609633966
pt.ine.add.PTCONT.853270,R EIRA,3,5300-441,CALVELHE,-6.70804868637427,41.607780026873264
pt.ine.add.PTCONT.853271,R CASTELO,25,5300-441,CALVELHE,-6.709918649600786,41.60729900795498
pt.ine.add.PTCONT.853272,LG TOURAL,74,5300-640,IZEDA,-6.723161039974359,41.56822546096338
pt.ine.add.PTCONT.853273,R CENTRAL,8,5300-441,CALVELHE,-6.707867675252545,41.60510378778575
pt.ine.add.PTCONT.853274,R IGREJA,9,5300-441,CALVELHE,-6.7075349723752895,41.606594218087565
pt.ine.add.PTCONT.853275,R CRUZEIRO,4,5300-712,OUTEIRO BGC,-6.575099664475085,41.70129081940858
pt.ine.add.PTCONT.853276,R COR CEPEDA,22,5300-553,GIMONDE,-6.698404705769392,41.8033355820058
pt.ine.add.PTCONT.853277,R IGREJA,6,5300-722,PARADA BGC,-6.726936031959285,41.69968412086527
pt.ine.add.PTCONT.853278,LG ROSSIO,,5300-722,PARADA BGC,-6.726980933984787,41.69982872189872
pt.ine.add.PTCONT.853279,R PEDREIRAS,,5300-722,PARADA BGC,-6.730631540074438,41.7009987415985
pt.ine.add.PTCONT.853280,R VALE RODRIGO,2,5300-441,CALVELHE,-6.708721391854386,41.60446612887335
pt.ine.add.PTCONT.853281,R PRINCIPAL,24,5300-773,QUINTANILHA,-6.588764081407603,41.75475572696843
pt.ine.add.PTCONT.853282,R COSTA,22,5300-421,BABE,-6.632915190757219,41.82279162864126
pt.ine.add.PTCONT.853283,R PORTELA,1,5300-581,GRIJÓ DE PARADA,-6.706219676348964,41.73470320453578
pt.ine.add.PTCONT.853284,R FONTE DO MOURO,8,5300-606,IZEDA,-6.723287362203351,41.565724060846094
pt.ine.add.PTCONT.853285,R ALF MANUEL JOAQUIM SANTOS CASEIRO,,5300-598,IZEDA,-6.72371231842286,41.56547717574179
pt.ine.add.PTCONT.853286,R SANTO,7,5300-772,QUINTANILHA,-6.574276440348192,41.747780726154325
pt.ine.add.PTCONT.853287,R CIDADE DE BRAGANÇA,,5300-625,IZEDA,-6.730648847614792,41.561258368845394
pt.ine.add.PTCONT.853290,ESTR AERODROMO,5,5300-431,BAÇAL,-6.702955511656913,41.85945411467527
pt.ine.add.PTCONT.853291,R OUTEIRO,,5300-451,CARRAGOSA,-6.799963886947406,41.866329223300426
pt.ine.add.PTCONT.853292,R DOIROL,41,5300-582,GRIJÓ DE PARADA,-6.688556091908069,41.71676423316364
pt.ine.add.PTCONT.853293,R SANTO CRISTO,32,5300-711,OUTEIRO BGC,-6.6012828443950875,41.683825609014285
pt.ine.add.PTCONT.853294,R IGREJA,,5300-802,REBORDAINHOS,-6.861829998138356,41.66806959301895
pt.ine.add.PTCONT.853295,BR ALEM,,5300-401,ALFAIÃO,-6.725464301599971,41.76381370416399
pt.ine.add.PTCONT.853296,TV OLIVAIS,,5300-617,IZEDA,-6.723149469643377,41.563795638283274
pt.ine.add.PTCONT.853297,,,5300-782,QUINTELA DE LAMPAÇAS,-6.8609023572703,41.62918284357238
pt.ine.add.PTCONT.853298,R RIBEIRA,,5300-481,BRAGANÇA,-6.803186915835226,41.79795236787745
pt.ine.add.PTCONT.853299,,,5300-515,,-6.823632888734994,41.83731469805512
pt.ine.add.PTCONT.853300,R POMAR,,5300-561,GONDESENDE,-6.862269565137468,41.85111828915501
pt.ine.add.PTCONT.853301,R PRINCIPAL,22,5300-812,REBORDÃOS,-6.802989325114033,41.74406624081786
pt.ine.add.PTCONT.853302,R PRINCIPAL,16,5300-812,REBORDÃOS,-6.803901117782467,41.74357261533296
pt.ine.add.PTCONT.853303,R CRUZEIRO,1,5300-751,PINELA,-6.758131670863056,41.67160237118755
pt.ine.add.PTCONT.853304,,,5300-781,QUINTELA DE LAMPAÇAS,-6.891442074202309,41.621710870401074
pt.ine.add.PTCONT.853305,R ARQUEIXADA,,5300-461,CARRAZEDO BGC,-6.887621614472054,41.79809768289656
pt.ine.add.PTCONT.853306,AV S DOMINGOS,10,5300-492,COELHOSO,-6.676239431745537,41.65927624388706
pt.ine.add.PTCONT.853307,R 25 DE ABRIL,,5300-783,QUINTELA DE LAMPAÇAS,-6.874456696706592,41.61467453796761
pt.ine.add.PTCONT.853310,LG SALGUEIRO,24,5300-628,IZEDA,-6.720749471693462,41.5699605274256
pt.ine.add.PTCONT.853311,R VEIGA,18,5300-643,IZEDA,-6.719961383918825,41.570914207281355
pt.ine.add.PTCONT.853312,R BATOCO,12,5300-663,MACEDO DO MATO,-6.785623438167763,41.57798699453758
pt.ine.add.PTCONT.853313,R FONTE,1,5300-701,NOGUEIRA BGC,-6.816082818507406,41.77277515121066
pt.ine.add.PTCONT.853314,R S PLAGIO,14,5300-701,NOGUEIRA BGC,-6.811720264769525,41.77027619379286
pt.ine.add.PTCONT.853315,R TEIXO,6,5300-267,BRAGANÇA,-6.766124736721548,41.81007655893085
pt.ine.add.PTCONT.853316,LG S TIAGO,,5300-689,BRAGANÇA,-6.781075987727181,41.805247820100256
pt.ine.add.PTCONT.853317,LG S TIAGO,,5300-689,BRAGANÇA,-6.781075987727181,41.805247820100256
pt.ine.add.PTCONT.853318,LG S TIAGO,,5300-689,BRAGANÇA,-6.781075987727181,41.805247820100256
pt.ine.add.PTCONT.853319,LG S TIAGO,,5300-689,BRAGANÇA,-6.781075987727181,41.805247820100256
pt.ine.add.PTCONT.853320,LG S TIAGO,,5300-689,BRAGANÇA,-6.781075987727181,41.805247820100256
pt.ine.add.PTCONT.853321,LG S TIAGO,,5300-689,BRAGANÇA,-6.781075987727181,41.805247820100256
pt.ine.add.PTCONT.853322,R DR EURICO CARRAPATOSO,12,5300-189,BRAGANÇA,-6.775243058759456,41.80168581136835
pt.ine.add.PTCONT.853323,BR GODINHA,128,5300-811,REBORDÃOS,-6.822858131763813,41.74124247816719
pt.ine.add.PTCONT.853324,R PROF EGAS MONIZ,15,5300-239,BRAGANÇA,-6.767099227350362,41.81008815315043
pt.ine.add.PTCONT.853325,LG S TIAGO,,5300-689,BRAGANÇA,-6.781075987727181,41.805247820100256
pt.ine.add.PTCONT.853326,LG S TIAGO,,5300-689,BRAGANÇA,-6.781075987727181,41.805247820100256
pt.ine.add.PTCONT.853327,LG S TIAGO,,5300-689,BRAGANÇA,-6.781075987727181,41.805247820100256
pt.ine.add.PTCONT.853328,R DESIDERIO BESSA,9,5300-684,BRAGANÇA,-6.761815305070206,41.802804718968595
pt.ine.add.PTCONT.853329,R GIL VICENTE,17,5300-169,BRAGANÇA,-6.758754693227166,41.79794248319727
pt.ine.add.PTCONT.853330,R DR EDUARDO FARIA,6,5300-566,BRAGANÇA,-6.77056594351539,41.79982080138372
pt.ine.add.PTCONT.853331,R D PEDRO IV L,L 14,5300-124,BRAGANÇA,-6.774232651015973,41.80224105635874
pt.ine.add.PTCONT.853332,R D PEDRO IV L,L 14,5300-124,BRAGANÇA,-6.774232651015973,41.80224105635874
pt.ine.add.PTCONT.853333,R D PEDRO IV L,L 14,5300-124,BRAGANÇA,-6.774232651015973,41.80224105635874
pt.ine.add.PTCONT.853334,R JOSE SARAMAGO,58,5300-396,BRAGANÇA,-6.761964071704331,41.79187674219037
pt.ine.add.PTCONT.853335,R VISC BOUCA,13,5300-318,BRAGANÇA,-6.767142680274335,41.80011325510703
pt.ine.add.PTCONT.853336,R VALE DO CHORIDO,194,5300-389,BRAGANÇA,-6.762299414775381,41.79081837898052
pt.ine.add.PTCONT.853337,R VALE DO CHORIDO,194,5300-389,BRAGANÇA,-6.762299414775381,41.79081837898052
pt.ine.add.PTCONT.853338,R CRISTÓVÃO GIL,7A,5300-117,BRAGANÇA,-6.776003816221222,41.798705775773946
pt.ine.add.PTCONT.853339,AV DR FRANCISCO SA CARNEIRO,260,5300-252,BRAGANÇA,-6.764705414686205,41.79986816956531
pt.ine.add.PTCONT.853340,R ALM GAGO COUTINHO,152,5300-690,BRAGANÇA,-6.776461384725943,41.80610271804801
pt.ine.add.PTCONT.853341,R PADRE AMÉRICO,35,5300-287,BRAGANÇA,-6.7738678190123975,41.79559245607166
pt.ine.add.PTCONT.853342,R GUERRA JUNQUEIRO,70,5300-170,BRAGANÇA,-6.759097627514715,41.808921341890276
pt.ine.add.PTCONT.853343,BR PREVIDENCIA,6,5300-121,BRAGANÇA,-6.76554048251161,41.8013366156681
pt.ine.add.PTCONT.853344,BR PREVIDENCIA,6,5300-121,BRAGANÇA,-6.76554048251161,41.8013366156681
pt.ine.add.PTCONT.853358,R ABEL SALAZAR,89,5300-071,BRAGANÇA,-6.771938340177261,41.79125712109889
pt.ine.add.PTCONT.853359,BR BAIRRINHO,,5300-881,SENDAS,-6.826521266221885,41.62149540991169
pt.ine.add.PTCONT.853361,R ANTÓNIO MENEZES CORDEIRO,,5300-199,BRAGANÇA,-6.7724414897093865,41.7930637032477
pt.ine.add.PTCONT.853365,R ARTUR MIRANDELA,38,5300-018,BRAGANÇA,-6.764377619688808,41.79378717595636
pt.ine.add.PTCONT.853366,R ARTUR MIRANDELA,38,5300-018,BRAGANÇA,-6.764377619688808,41.79378717595636
pt.ine.add.PTCONT.853367,R ARTUR MIRANDELA,38,5300-018,BRAGANÇA,-6.764377619688808,41.79378717595636
pt.ine.add.PTCONT.853368,R PELOURINHO,,5300-883,SENDAS,-6.855438669218484,41.611133455507975
pt.ine.add.PTCONT.853373,R AQUILINO RIBEIRO,49,5300-087,BRAGANÇA,-6.763262684385817,41.79586260265273
pt.ine.add.PTCONT.853382,R ESTREBARIA,10,5300-891,SERAPICOS BGC,-6.762831409871532,41.61644115321558
pt.ine.add.PTCONT.853386,R ARTUR MIRANDELA,28,5300-018,BRAGANÇA,-6.763401701865246,41.795549152224446
