id,street,house,postcode,city,lon,lat
pt.ine.add.PTCONT.1979578,R MOINHO,40,2500-051,A DOS FRANCOS,-9.078967177316574,39.32838303194561
pt.ine.add.PTCONT.1979579,BC ESPERANÇA,1,2500-051,A DOS FRANCOS,-9.074997206351108,39.32292095211979
pt.ine.add.PTCONT.1979580,R S VICENTE,33,2500-001,A DOS FRANCOS,-9.086735579693684,39.31202596712539
pt.ine.add.PTCONT.1979581,R CRUZEIRO,54,2500-377,ALVORNINHA,-9.008913089843313,39.40405842030535
pt.ine.add.PTCONT.1979582,R LAGAR,18 A,2500-357,ALVORNINHA,-9.006433979748472,39.401699229728365
pt.ine.add.PTCONT.1979583,R ESCOLA VELHA,33,2500-368,ALVORNINHA,-9.062136597826697,39.39647607195873
pt.ine.add.PTCONT.1979584,R PRINCIPAL,4A,2500-366,ALVORNINHA,-9.07471133261899,39.40271583123712
pt.ine.add.PTCONT.1979585,R OLIVAIS,15,2500-388,ALVORNINHA,-9.054021563950787,39.38230065063693
pt.ine.add.PTCONT.1979586,ESTR PRINCIPAL,21,2500-373,ALVORNINHA,-9.000557585456544,39.39685243098233
pt.ine.add.PTCONT.1979587,R PRINCIPAL,21,2500-382,ALVORNINHA,-9.007234322925779,39.38675972039894
pt.ine.add.PTCONT.1979588,R MERCADO,22,2500-386,ALVORNINHA,-8.98726985616281,39.380062708863406
pt.ine.add.PTCONT.1979589,R ANDRÉ,7,2500-348,ALVORNINHA,-8.996728572608564,39.37534529402793
pt.ine.add.PTCONT.1979590,R CALOUSTE GULBENKIAN,1,2500-139,CALDAS DA RAINHA,-9.129995104388648,39.40834386934418
pt.ine.add.PTCONT.1979591,R ALM GAGO COUTINHO,10,2500-207,CALDAS DA RAINHA,-9.12974072993682,39.408418103743294
pt.ine.add.PTCONT.1979592,R ALM GAGO COUTINHO,10,2500-207,CALDAS DA RAINHA,-9.12974072993682,39.408418103743294
pt.ine.add.PTCONT.1979593,R 15 DE MAIO,3,2500-114,CALDAS DA RAINHA,-9.134716394006942,39.40805112265544
pt.ine.add.PTCONT.1979594,R CAP FILIPE DE SOUSA,22,2500-140,CALDAS DA RAINHA,-9.132744722455136,39.40540290937631
pt.ine.add.PTCONT.1979595,R COR ANDRADA MENDONÇA,5,2500-148,CALDAS DA RAINHA,-9.136423404174208,39.40401935666677
pt.ine.add.PTCONT.1979596,R LEÃO AZEDO,35,2500-226,CALDAS DA RAINHA,-9.134119757442521,39.405300161425465
pt.ine.add.PTCONT.1979597,R LEÃO AZEDO,35,2500-226,CALDAS DA RAINHA,-9.134119757442521,39.405300161425465
pt.ine.add.PTCONT.1979598,R LEÃO AZEDO,35,2500-226,CALDAS DA RAINHA,-9.134119757442521,39.405300161425465
pt.ine.add.PTCONT.1979599,R LEÃO AZEDO,35,2500-226,CALDAS DA RAINHA,-9.134119757442521,39.405300161425465
pt.ine.add.PTCONT.1979600,R LEÃO AZEDO,35,2500-226,CALDAS DA RAINHA,-9.134119757442521,39.405300161425465
pt.ine.add.PTCONT.1979601,R JOSE VENÂNCIO PAULO RODRIGUES,25,2500-273,CALDAS DA RAINHA,-9.123759401052153,39.397615923633204
pt.ine.add.PTCONT.1979602,R FRANCISCO SA CARNEIRO,2,2500-206,CALDAS DA RAINHA,-9.138754709455856,39.40305350720798
pt.ine.add.PTCONT.1979603,R FRANCISCO SA CARNEIRO,2,2500-206,CALDAS DA RAINHA,-9.138754709455856,39.40305350720798
pt.ine.add.PTCONT.1979604,R FRANCISCO SA CARNEIRO,2,2500-206,CALDAS DA RAINHA,-9.138754709455856,39.40305350720798
pt.ine.add.PTCONT.1979605,R FRANCISCO SA CARNEIRO,2,2500-206,CALDAS DA RAINHA,-9.138754709455856,39.40305350720798
pt.ine.add.PTCONT.1979606,R FRANCISCO SA CARNEIRO,2,2500-206,CALDAS DA RAINHA,-9.138754709455856,39.40305350720798
pt.ine.add.PTCONT.1979607,R FRANCISCO SA CARNEIRO,2,2500-206,CALDAS DA RAINHA,-9.138754709455856,39.40305350720798
pt.ine.add.PTCONT.1979608,R FRANCISCO SA CARNEIRO,2,2500-206,CALDAS DA RAINHA,-9.138754709455856,39.40305350720798
pt.ine.add.PTCONT.1979609,R CABECICO,12,2500-602,NADADOURO,-9.183180195344466,39.41745919247982
pt.ine.add.PTCONT.1979610,TV CABECO,3,2500-638,SALIR DE MATOS,-9.117135200503125,39.45242468343752
pt.ine.add.PTCONT.1979611,R PRINCIPAL,7,2500-638,SALIR DE MATOS,-9.11035095642861,39.45828226375206
pt.ine.add.PTCONT.1979612,R MOINHO,5,2500-630,SALIR DE MATOS,-9.091134845449922,39.432106225282695
pt.ine.add.PTCONT.1979613,R CASAL SANTO AMARO,9,2500-640,SALIR DE MATOS,-9.07279019467213,39.43084180298491
pt.ine.add.PTCONT.1979614,BC HENRIQUES,6,2500-631,SALIR DE MATOS,-9.087116137439457,39.42358275401447
pt.ine.add.PTCONT.1979615,R TALEFE,,2500-631,SALIR DE MATOS,-9.07831754805149,39.42216845297029
pt.ine.add.PTCONT.1979616,R 1 DE NOVEMBRO,47,2500-634,SALIR DE MATOS,-9.080064758763106,39.416551974296546
pt.ine.add.PTCONT.1979617,R ENCOSTA DO SOL,,2500-698,SALIR DO PORTO,-9.157518489601323,39.49439863822938
pt.ine.add.PTCONT.1979618,R PRINCIPAL,7,2500-655,SALIR DO PORTO,-9.141018521218545,39.486851111898154
pt.ine.add.PTCONT.1979619,R PINHAL MANSO,21,2500-767,SANTA CATARINA CLD,-9.066521036858587,39.47105369435315
pt.ine.add.PTCONT.1979620,BC BELA VISTA,2,2500-767,SANTA CATARINA CLD,-9.064145522452009,39.47330642251553
pt.ine.add.PTCONT.1979621,R CANCELA,6,2500-775,SANTA CATARINA CLD,-9.014868191525286,39.4482282260845
pt.ine.add.PTCONT.1979622,R CANCELA,6,2500-775,SANTA CATARINA CLD,-9.014868191525286,39.4482282260845
pt.ine.add.PTCONT.1979623,R PRINCIPAL,49,2500-789,SANTA CATARINA CLD,-8.99236005443087,39.44493806281142
pt.ine.add.PTCONT.1979624,R PRINCIPAL,30,2500-791,SANTA CATARINA CLD,-8.993572129340643,39.43298598719186
pt.ine.add.PTCONT.1979625,R PAULOS,4,2500-795,SANTA CATARINA CLD,-9.02645530589016,39.43405307740554
pt.ine.add.PTCONT.1979626,R CARAPINHEIRA,26,2500-796,SANTA CATARINA CLD,-9.018986759135013,39.428534946079225
pt.ine.add.PTCONT.1979627,R COMBATENTES GRANDE GUERRA,5 B,2500-796,SANTA CATARINA CLD,-9.011868471989565,39.42954367126349
pt.ine.add.PTCONT.1979628,R PRINCIPAL,160,2500-796,SANTA CATARINA CLD,-9.00781713480055,39.42784488694162
pt.ine.add.PTCONT.1979629,R CAPELA,26,2500-793,SANTA CATARINA CLD,-9.004930216118838,39.42730813394658
pt.ine.add.PTCONT.1979630,R PRINCIPAL O CASALINHO,82 A,2500-064,SÃO GREGÓRIO CLD,-9.089445559757717,39.37222435798748
pt.ine.add.PTCONT.1979631,R PRINCIPAL,,2500-065,SÃO GREGÓRIO CLD,-9.019699634392587,39.338072757675256
pt.ine.add.PTCONT.1979632,ESTR MATA VELHA,77,2500-065,SÃO GREGÓRIO CLD,-9.053343219670262,39.33681183597491
pt.ine.add.PTCONT.1979633,R PASSAL,5,2500-712,SERRA DO BOURO,-9.180350667512617,39.454169328284664
pt.ine.add.PTCONT.1979634,R JUNQUEIROS,2,2500-712,SERRA DO BOURO,-9.177269109142866,39.45087354335103
pt.ine.add.PTCONT.1979635,ESTR VALES,9A,2500-712,SERRA DO BOURO,-9.172430326659729,39.45125914494956
pt.ine.add.PTCONT.1979636,R BELA VISTA,14,2500-926,CALDAS DA RAINHA,-9.128175747140213,39.47144311103709
pt.ine.add.PTCONT.1979637,EN 8,110,2500-099,CALDAS DA RAINHA,-9.128463111472085,39.45001353653868
pt.ine.add.PTCONT.1979638,R 1 MAIO,2,2500-314,CALDAS DA RAINHA,-9.141242663702121,39.45728901524816
pt.ine.add.PTCONT.1979639,EN 8,41,2500-315,CALDAS DA RAINHA,-9.130071888426102,39.441443300481055
pt.ine.add.PTCONT.1979640,R APEADEIRO,,2500-303,CALDAS DA RAINHA,-9.152264038326798,39.43704477751532
pt.ine.add.PTCONT.1979641,TV PALHAGUEIRA,5,2500-303,CALDAS DA RAINHA,-9.146603937259437,39.42959156850191
pt.ine.add.PTCONT.1979642,R CENTRAL,40,2500-743,VIDAIS,-9.083214259084937,39.392793158512504
pt.ine.add.PTCONT.1979643,R MÁRIO DUARTE DOS SANTOS,35,2500-744,VIDAIS,-9.064180138362463,39.38166137371926
pt.ine.add.PTCONT.1979644,R CASAIS DAS MAIAS,7,2500-733,VIDAIS,-9.0506477428885,39.36484482406693
pt.ine.add.PTCONT.1979645,R BOAVISTA,20,2500-735,VIDAIS,-9.011524708339632,39.34474589112191
pt.ine.add.PTCONT.1979646,EN 360,,2500-272,CALDAS DA RAINHA,-9.166447033578738,39.41429453482688
pt.ine.add.PTCONT.1979647,R INF D HENRIQUE,74,2500-218,CALDAS DA RAINHA,-9.146217169109526,39.41651703383788
pt.ine.add.PTCONT.1979648,R TRISTAO DA CUNHA,10,2500-862,CALDAS DA RAINHA,-9.14684883099243,39.41282773586647
pt.ine.add.PTCONT.1979649,R TRISTAO DA CUNHA,10,2500-862,CALDAS DA RAINHA,-9.14684883099243,39.41282773586647
pt.ine.add.PTCONT.1979650,R MANUEL MATOS SOUSA,42,2500-857,CALDAS DA RAINHA,-9.149620266815912,39.411776771462485
pt.ine.add.PTCONT.1979651,R MANUEL MATOS SOUSA,42,2500-857,CALDAS DA RAINHA,-9.149620266815912,39.411776771462485
pt.ine.add.PTCONT.1979652,R COMPROMISSO,27,2500-847,CALDAS DA RAINHA,-9.146123580654994,39.41005094080842
pt.ine.add.PTCONT.1979653,TV VISC VILA MATOS,11 A,2500-076,CALDAS DA RAINHA,-9.145815238161333,39.40880167452522
pt.ine.add.PTCONT.1979654,TV VISC VILA MATOS,11 A,2500-076,CALDAS DA RAINHA,-9.145815238161333,39.40880167452522
pt.ine.add.PTCONT.1979655,TV VISC VILA MATOS,11 A,2500-076,CALDAS DA RAINHA,-9.145815238161333,39.40880167452522
pt.ine.add.PTCONT.1979656,TV VISC VILA MATOS,11 A,2500-076,CALDAS DA RAINHA,-9.145815238161333,39.40880167452522
pt.ine.add.PTCONT.1979657,TV VISC VILA MATOS,11 A,2500-076,CALDAS DA RAINHA,-9.145815238161333,39.40880167452522
pt.ine.add.PTCONT.1979658,TV VISC VILA MATOS,11 A,2500-076,CALDAS DA RAINHA,-9.145815238161333,39.40880167452522
pt.ine.add.PTCONT.1979659,TV VISC VILA MATOS,11 A,2500-076,CALDAS DA RAINHA,-9.145815238161333,39.40880167452522
pt.ine.add.PTCONT.1980036,R RA,12,2500-019,A DOS FRANCOS,-9.045395583610622,39.320553690483756
pt.ine.add.PTCONT.1980037,R GIL ALMEIDA REBELO,35,2500-031,A DOS FRANCOS,-9.054138487306703,39.324051620732845
pt.ine.add.PTCONT.1980038,R GIL ALMEIDA REBELO,33,2500-031,A DOS FRANCOS,-9.054138487306703,39.324051620732845
pt.ine.add.PTCONT.1980039,R PRINCIPAL,12,2500-338,ALVORNINHA,-9.053527381817913,39.408289499652994
pt.ine.add.PTCONT.1980040,R ESCOLA,8,2500-389,ALVORNINHA,-9.054741521715375,39.409675954921404
pt.ine.add.PTCONT.1980041,R ESCOLA,8,2500-389,ALVORNINHA,-9.054741521715375,39.409675954921404
pt.ine.add.PTCONT.1980042,ESTR PRINCIPAL,8,2500-351,ALVORNINHA,-9.031033392792464,39.380787022971774
pt.ine.add.PTCONT.1980043,R PRINCIPAL,38,2500-360,ALVORNINHA,-9.016399166382051,39.38086301003227
pt.ine.add.PTCONT.1980044,R CENTRAL,77,2500-388,ALVORNINHA,-9.04826530539028,39.37611326723115
pt.ine.add.PTCONT.1980045,R PRINCIPAL,412,2500-358,ALVORNINHA,-9.047983392257967,39.38741017986294
pt.ine.add.PTCONT.1980046,R PRINCIPAL,51,2500-346,ALVORNINHA,-9.022006522778577,39.374587495539316
pt.ine.add.PTCONT.1980047,R PRINCIPAL,N 40A,2500-370,ALVORNINHA,-9.025065393993112,39.36599846595987
pt.ine.add.PTCONT.1980048,R PROF ABILIO MONIZ BARRETO,65,2500-241,CALDAS DA RAINHA,-9.135413814472521,39.412971860360756
pt.ine.add.PTCONT.1980049,R 31 JANEIRO,63,2500-118,CALDAS DA RAINHA,-9.136951797143645,39.409292812870184
pt.ine.add.PTCONT.1980050,R 31 DE JANEIRO,65,2500-118,CALDAS DA RAINHA,-9.136951797143645,39.409292812870184
pt.ine.add.PTCONT.1980051,R 31 DE JANEIRO,65,2500-118,CALDAS DA RAINHA,-9.136951797143645,39.409292812870184
pt.ine.add.PTCONT.1980052,R 31 DE JANEIRO,65,2500-118,CALDAS DA RAINHA,-9.136951797143645,39.409292812870184
pt.ine.add.PTCONT.1980053,R 31 DE JANEIRO,65,2500-118,CALDAS DA RAINHA,-9.136951797143645,39.409292812870184
pt.ine.add.PTCONT.1980054,R 1 DE DEZEMBRO,35,2500-117,CALDAS DA RAINHA,-9.134564560457635,39.40879999835169
pt.ine.add.PTCONT.1980055,R 1 DE DEZEMBRO,35,2500-117,CALDAS DA RAINHA,-9.134564560457635,39.40879999835169
pt.ine.add.PTCONT.1980056,R 1 DE DEZEMBRO,35,2500-117,CALDAS DA RAINHA,-9.134564560457635,39.40879999835169
pt.ine.add.PTCONT.1980057,R 1 DE DEZEMBRO,35,2500-117,CALDAS DA RAINHA,-9.134564560457635,39.40879999835169
pt.ine.add.PTCONT.1980058,R 1 DE DEZEMBRO,35,2500-117,CALDAS DA RAINHA,-9.134564560457635,39.40879999835169
pt.ine.add.PTCONT.1980065,R DR ARTUR FIGUEIROA REGO,6,2500-301,CALDAS DA RAINHA,-9.13328901095586,39.41135090333532
pt.ine.add.PTCONT.1980066,R MAJOR PASCOAL PIRES GURRDA NACIONAL REPUBLICANA,,2500-232,CALDAS DA RAINHA,-9.137290437903427,39.411046224950084
pt.ine.add.PTCONT.1980067,R MAJ PASCOAL PIRES,3,2500-232,CALDAS DA RAINHA,-9.137290437903427,39.411046224950084
pt.ine.add.PTCONT.1980068,R MAJOR PASCOAL PIRES GURRDA NACIONAL REPUBLICANA,,2500-232,CALDAS DA RAINHA,-9.137290437903427,39.411046224950084
pt.ine.add.PTCONT.1980069,R EMENDA,,2500-154,CALDAS DA RAINHA,-9.139479975684466,39.40828021573494
pt.ine.add.PTCONT.1980070,R EMENDA,,2500-154,CALDAS DA RAINHA,-9.139479975684466,39.40828021573494
pt.ine.add.PTCONT.1980071,R EMENDA,,2500-154,CALDAS DA RAINHA,-9.139479975684466,39.40828021573494
pt.ine.add.PTCONT.1980072,R EMENDA,,2500-154,CALDAS DA RAINHA,-9.139479975684466,39.40828021573494
pt.ine.add.PTCONT.1980073,R DR CALDAS LOPES,2,2500-189,CALDAS DA RAINHA,-9.124783125680727,39.4059655722078
pt.ine.add.PTCONT.1980074,R DR CALDAS LOPES,2,2500-189,CALDAS DA RAINHA,-9.124783125680727,39.4059655722078
pt.ine.add.PTCONT.1980075,R DR CALDAS LOPES,2,2500-189,CALDAS DA RAINHA,-9.124783125680727,39.4059655722078
pt.ine.add.PTCONT.1980076,R DR CALDAS LOPES,2,2500-189,CALDAS DA RAINHA,-9.124783125680727,39.4059655722078
pt.ine.add.PTCONT.1980077,R DR CALDAS LOPES,2,2500-189,CALDAS DA RAINHA,-9.124783125680727,39.4059655722078
pt.ine.add.PTCONT.1980078,R DR CALDAS LOPES,2,2500-189,CALDAS DA RAINHA,-9.124783125680727,39.4059655722078
pt.ine.add.PTCONT.1980079,R LEÃO AZEDO,35,2500-226,CALDAS DA RAINHA,-9.134119757442521,39.405300161425465
pt.ine.add.PTCONT.1980080,R ALEXANDRE HERCULANO,60,2500-123,CALDAS DA RAINHA,-9.133803622759272,39.40511373731914
pt.ine.add.PTCONT.1980081,LG FEIRA GAVETO,20,2500-102,CALDAS DA RAINHA,-9.138088130807974,39.40271700701793
pt.ine.add.PTCONT.1980082,R FEIRA,20,2500-157,CALDAS DA RAINHA,-9.138088130807974,39.40271700701793
pt.ine.add.PTCONT.1980083,R AVENAL,12,2500-274,CALDAS DA RAINHA,-9.129950662076533,39.397067660886925
pt.ine.add.PTCONT.1980084,R JOAQUIM SILVA SANTOS,14,2500-221,CALDAS DA RAINHA,-9.130640747641177,39.397431027471264
pt.ine.add.PTCONT.1980085,PCT AUGUSTO DIAS COIMBRA,41,2500-273,CALDAS DA RAINHA,-9.12707162947266,39.39951514179188
pt.ine.add.PTCONT.1980086,R ARNALDO FORTES,,2500-131,CALDAS DA RAINHA,-9.127470493174721,39.39571984123538
pt.ine.add.PTCONT.1980087,R ARNALDO FORTES,,2500-131,CALDAS DA RAINHA,-9.127470493174721,39.39571984123538
pt.ine.add.PTCONT.1980088,R ARNALDO FORTES,,2500-131,CALDAS DA RAINHA,-9.127470493174721,39.39571984123538
pt.ine.add.PTCONT.1980089,R ARNALDO FORTES,,2500-131,CALDAS DA RAINHA,-9.127470493174721,39.39571984123538
pt.ine.add.PTCONT.1980090,R ARNALDO FORTES,,2500-131,CALDAS DA RAINHA,-9.127470493174721,39.39571984123538
pt.ine.add.PTCONT.1980091,R ARNALDO FORTES,,2500-131,CALDAS DA RAINHA,-9.127470493174721,39.39571984123538
pt.ine.add.PTCONT.1980092,R ARNALDO FORTES,,2500-131,CALDAS DA RAINHA,-9.127470493174721,39.39571984123538
pt.ine.add.PTCONT.1980093,R ARNALDO FORTES,,2500-131,CALDAS DA RAINHA,-9.127470493174721,39.39571984123538
pt.ine.add.PTCONT.1980094,R ARNALDO FORTES,,2500-131,CALDAS DA RAINHA,-9.127470493174721,39.39571984123538
pt.ine.add.PTCONT.1980095,R AVENAL,41,2500-274,CALDAS DA RAINHA,-9.129363025637529,39.394929059273124
pt.ine.add.PTCONT.1980096,R AVENAL,41,2500-274,CALDAS DA RAINHA,-9.129363025637529,39.394929059273124
pt.ine.add.PTCONT.1980097,R ESCOLA,1,2500-412,CARVALHAL BENFEITO,-9.063396618264346,39.46157655980803
pt.ine.add.PTCONT.1980098,R SABINO,5,2500-415,CARVALHAL BENFEITO,-9.058903054384572,39.460936909800836
pt.ine.add.PTCONT.1980099,R PRINCIPAL,45,2500-415,CARVALHAL BENFEITO,-9.057091654092195,39.46014971025678
pt.ine.add.PTCONT.1980100,R RELVEIRO,12,2500-415,CARVALHAL BENFEITO,-9.055770977612159,39.45956574653021
pt.ine.add.PTCONT.1980101,R BELA VISTA,53,2500-414,CARVALHAL BENFEITO,-9.049698198239277,39.45366926849736
pt.ine.add.PTCONT.1980102,R QUINTA BRAVO,2,2500-401,CARVALHAL BENFEITO,-9.044503615867837,39.42326693995685
pt.ine.add.PTCONT.1980103,R ESCOLA,7,2500-434,COTO,-9.120416399541213,39.43056437296833
pt.ine.add.PTCONT.1980104,R PRINCIPAL,10,2500-432,COTO,-9.116444071434561,39.42476159804508
pt.ine.add.PTCONT.1980105,R EIRA,1B,2500-432,COTO,-9.11458969845925,39.42420082250092
pt.ine.add.PTCONT.1980106,R SOL NASCENTE,3,2500-432,COTO,-9.114944326444713,39.422162284329886
pt.ine.add.PTCONT.1980107,R BELA VISTA,16 A,2500-432,COTO,-9.116367819738592,39.420988377813835
pt.ine.add.PTCONT.1980108,R BELA VISTA,24,2500-432,COTO,-9.11668723805845,39.420580369501586
pt.ine.add.PTCONT.1980109,R BELA VISTA,73,2500-432,COTO,-9.118114979058383,39.41558750355836
pt.ine.add.PTCONT.1980110,R JOAQUIM SOARES,13,2500-497,FOZ DO ARELHO,-9.2145444493731,39.439265446077
pt.ine.add.PTCONT.1980111,R ARROTEIAS,15A,2500-472,FOZ DO ARELHO,-9.208939697992927,39.43736295876019
pt.ine.add.PTCONT.1980112,R D CARLOS I,,2500-514,FOZ DO ARELHO,-9.221750768298998,39.43807237103383
pt.ine.add.PTCONT.1980113,R JOAQUIM ALEXANDRE,5,2500-494,FOZ DO ARELHO,-9.20889375154824,39.43588627420882
pt.ine.add.PTCONT.1980114,R MALDONADO FREITAS,2,2500-516,FOZ DO ARELHO,-9.207659465609526,39.42812483906506
pt.ine.add.PTCONT.1980115,R D CARLOS I,26,2500-514,FOZ DO ARELHO,-9.222022338140295,39.43313412454303
pt.ine.add.PTCONT.1980116,R MANUEL LOURO MIGUEL,4,2500-541,LANDAL,-9.00899019793926,39.32012176441624
pt.ine.add.PTCONT.1980117,R MOINHO,14,2500-535,LANDAL,-9.000874334401928,39.2977009094501
pt.ine.add.PTCONT.1980118,R MOINHO,5,2500-535,LANDAL,-9.001348017078259,39.297571278615074
pt.ine.add.PTCONT.1980119,R S SEBASTIÃO,24,2500-535,LANDAL,-9.003776657436042,39.29336484579336
pt.ine.add.PTCONT.1980120,TV JOSE ALFREDO DOS SANTOS,2,2500-535,LANDAL,-9.003366747879094,39.292088903632894
pt.ine.add.PTCONT.1980121,R ROBERTOS,11,2500-600,NADADOURO,-9.186790492357526,39.42356017744939
pt.ine.add.PTCONT.1980122,R BREJO DA COITA,28,2500-560,NADADOURO,-9.183368502179711,39.42381629610187
pt.ine.add.PTCONT.1980123,R LAREIRA,47,2500-593,NADADOURO,-9.168770383431337,39.42691943717688
pt.ine.add.PTCONT.1980124,R LAREIRA,39,2500-593,NADADOURO,-9.169865118908223,39.4263422559196
pt.ine.add.PTCONT.1980125,R PINHAL,1,2500-621,SALIR DE MATOS,-9.112537030280988,39.44596959718108
pt.ine.add.PTCONT.1980126,R CRUZEIRO,72,2500-633,SALIR DE MATOS,-9.102349908554155,39.450216086790185
pt.ine.add.PTCONT.1980127,R CASAL DA OLIVEIRA,1,2500-622,SALIR DE MATOS,-9.087598970568948,39.452157463412355
pt.ine.add.PTCONT.1980128,R SALAZAR,11,2500-627,SALIR DE MATOS,-9.07245387946086,39.443850393776955
pt.ine.add.PTCONT.1980224,R MANUEL MAFRA,5,2500-825,CALDAS DA RAINHA,-9.141508831761831,39.404849050763936
pt.ine.add.PTCONT.1980287,R ANTÓNIO SOUSA LISO,48,2500-297,CALDAS DA RAINHA,-9.152892061904248,39.403632971773014
pt.ine.add.PTCONT.1980288,R FRANCISCO RAMOS,9,2500-831,CALDAS DA RAINHA,-9.146383941167931,39.398357782825244
pt.ine.add.PTCONT.1980356,R D LUISA DE GUSMÃO,,2500-837,CALDAS DA RAINHA,-9.14550511748257,39.39538416297104
pt.ine.add.PTCONT.1982544,R PAZ,9,2500-565,NADADOURO,-9.190259675736954,39.41951166689081
pt.ine.add.PTCONT.1981466,R TRISTAO DA CUNHA,10,2500-862,CALDAS DA RAINHA,-9.14684883099243,39.41282773586647
pt.ine.add.PTCONT.1981478,R TEN ANTÓNIO RODRIGUES FERREIRA,11,2500-846,CALDAS DA RAINHA,-9.152941117680239,39.400624254224034
pt.ine.add.PTCONT.1981490,R CARREIRA DO GADO,150 D,2500-287,CALDAS DA RAINHA,-9.115743707254326,39.40631248378749
pt.ine.add.PTCONT.1981491,LG FEIRA GAVETO,20,2500-102,CALDAS DA RAINHA,-9.138088130807974,39.40271700701793
pt.ine.add.PTCONT.1981493,R 1 DE DEZEMBRO,35,2500-117,CALDAS DA RAINHA,-9.134564560457635,39.40879999835169
pt.ine.add.PTCONT.1981494,R COMBATENTES DA GRANDE GUERRA,34,2500-796,SANTA CATARINA CLD,-9.015321621381316,39.429841779176826
pt.ine.add.PTCONT.1981496,R MAJOR PASCOAL PIRES GURRDA NACIONAL REPUBLICANA,,2500-232,CALDAS DA RAINHA,-9.137290437903427,39.411046224950084
pt.ine.add.PTCONT.1981497,TV VISC VILA MATOS,11 A,2500-076,CALDAS DA RAINHA,-9.145815238161333,39.40880167452522
pt.ine.add.PTCONT.1981517,TV TEN ANTÓNIO RODRIGUES FERREIRA,2,2500-752,CALDAS DA RAINHA,-9.153398139776202,39.399323260257034
pt.ine.add.PTCONT.1981552,R ARNALDO FORTES,,2500-131,CALDAS DA RAINHA,-9.127470493174721,39.39571984123538
pt.ine.add.PTCONT.1981557,R FRANCISCO SA CARNEIRO,2,2500-206,CALDAS DA RAINHA,-9.138754709455856,39.40305350720798
pt.ine.add.PTCONT.1981561,TV VISC VILA MATOS,11 A,2500-076,CALDAS DA RAINHA,-9.145815238161333,39.40880167452522
pt.ine.add.PTCONT.1981571,LG FEIRA GAVETO,20,2500-102,CALDAS DA RAINHA,-9.138088130807974,39.40271700701793
pt.ine.add.PTCONT.1981586,R VITORINO FROIS,43,2500-256,CALDAS DA RAINHA,-9.145859676163845,39.403847522137845
pt.ine.add.PTCONT.1981611,R SALGUEIRAL,,2500-065,SÃO GREGÓRIO CLD,-9.060709924547163,39.355352775128324
pt.ine.add.PTCONT.1981630,R MANUEL MATOS SOUSA,48,2500-857,CALDAS DA RAINHA,-9.149426564917091,39.41203065536308
pt.ine.add.PTCONT.1981652,R DOS SANTOS,,2500-611,NADADOURO,-9.18601519813395,39.42740052618965
pt.ine.add.PTCONT.1981657,R PRINCIPAL,15,2500-354,ALVORNINHA,-9.061178374546433,39.40563472882467
pt.ine.add.PTCONT.1981663,R MAJOR MOREIRA,1,2500-858,CALDAS DA RAINHA,-9.149785876790865,39.41038827125817
pt.ine.add.PTCONT.1981664,R COR ANDRADA MENDONÇA,5,2500-148,CALDAS DA RAINHA,-9.136423404174208,39.40401935666677
pt.ine.add.PTCONT.1981665,URB MOINHOS,7,2500-599,NADADOURO,-9.17671684922496,39.41386959958303
pt.ine.add.PTCONT.1981666,R CHEIA,21,2500-304,CALDAS DA RAINHA,-9.141499355387776,39.46863531174121
pt.ine.add.PTCONT.1981667,R CENTRAL,27,2500-304,CALDAS DA RAINHA,-9.127019739368889,39.465337405692615
pt.ine.add.PTCONT.1981668,R ALTO MOINHOS,27,2500-304,CALDAS DA RAINHA,-9.127350906379478,39.46002958625042
pt.ine.add.PTCONT.1981669,ESTR MOURARIA,20,2500-304,CALDAS DA RAINHA,-9.13071573505475,39.46295499019663
pt.ine.add.PTCONT.1981670,R CAPELA,,2500-304,CALDAS DA RAINHA,-9.136387847904865,39.463077320164764
pt.ine.add.PTCONT.1981674,R MOINHOS,24,2500-359,ALVORNINHA,-9.03569536278825,39.39311747064273
pt.ine.add.PTCONT.1981675,R CACAPOS,26,2500-359,ALVORNINHA,-9.029641400617328,39.393542570194654
pt.ine.add.PTCONT.1981694,R ALTO MOINHOS,7,2500-304,CALDAS DA RAINHA,-9.129388684816842,39.4595257800656
pt.ine.add.PTCONT.1981697,R BAIXO,33A,2500-304,CALDAS DA RAINHA,-9.139614989559986,39.46850752947742
pt.ine.add.PTCONT.1981699,R RAMALHO ORTIGÃO,14,2500-247,CALDAS DA RAINHA,-9.128568505575657,39.406815913820466
pt.ine.add.PTCONT.1981700,R RAMALHO ORTIGÃO,14,2500-247,CALDAS DA RAINHA,-9.128568505575657,39.406815913820466
pt.ine.add.PTCONT.1981706,R SANTO ANTÓNIO,44,2500-363,ALVORNINHA,-9.029905921161054,39.41782315280324
pt.ine.add.PTCONT.1981707,R ESTAÇÃO,27,2500-156,CALDAS DA RAINHA,-9.139979035340671,39.40826689043041
pt.ine.add.PTCONT.1981708,R ESTAÇÃO,27,2500-156,CALDAS DA RAINHA,-9.139979035340671,39.40826689043041
pt.ine.add.PTCONT.1981709,R ESTAÇÃO,27,2500-156,CALDAS DA RAINHA,-9.139979035340671,39.40826689043041
pt.ine.add.PTCONT.1981710,R ESTAÇÃO,27,2500-156,CALDAS DA RAINHA,-9.139979035340671,39.40826689043041
pt.ine.add.PTCONT.1981711,R ESTAÇÃO,27,2500-156,CALDAS DA RAINHA,-9.139979035340671,39.40826689043041
pt.ine.add.PTCONT.1981712,R ESTAÇÃO,54,2500-156,CALDAS DA RAINHA,-9.139979035340671,39.40826689043041
pt.ine.add.PTCONT.1981713,R ESTAÇÃO,27,2500-156,CALDAS DA RAINHA,-9.139979035340671,39.40826689043041
pt.ine.add.PTCONT.1981714,R SANTO ANTÓNIO,1,2500-637,SALIR DE MATOS,-9.095889346637852,39.429878305573126
pt.ine.add.PTCONT.1981715,R SANTO ANTÓNIO,61,2500-065,SÃO GREGÓRIO CLD,-9.045714024975535,39.338808412262225
pt.ine.add.PTCONT.1981716,R CARDEAL ALPEDRINHA,38,2500-843,CALDAS DA RAINHA,-9.146281940114717,39.409761342758344
pt.ine.add.PTCONT.1981717,R CARDEAL ALPEDRINHA,38,2500-843,CALDAS DA RAINHA,-9.146281940114717,39.409761342758344
pt.ine.add.PTCONT.1981718,R CARDEAL ALPEDRINHA,38,2500-843,CALDAS DA RAINHA,-9.146281940114717,39.409761342758344
pt.ine.add.PTCONT.1981719,R CARDEAL ALPEDRINHA,38,2500-843,CALDAS DA RAINHA,-9.146281940114717,39.409761342758344
pt.ine.add.PTCONT.1981733,R ESTAÇÃO,27,2500-156,CALDAS DA RAINHA,-9.139979035340671,39.40826689043041
pt.ine.add.PTCONT.1981734,R ESTAÇÃO,27,2500-156,CALDAS DA RAINHA,-9.139979035340671,39.40826689043041
pt.ine.add.PTCONT.1981735,R ESTAÇÃO,27,2500-156,CALDAS DA RAINHA,-9.139979035340671,39.40826689043041
pt.ine.add.PTCONT.1981736,R ESTAÇÃO,27,2500-156,CALDAS DA RAINHA,-9.139979035340671,39.40826689043041
pt.ine.add.PTCONT.1981773,R ASSOCIAÇÃO,,2500-434,COTO,-9.115970993217388,39.431592773229916
pt.ine.add.PTCONT.1981778,R GIL ALMEIDA REBELO,1,2500-031,A DOS FRANCOS,-9.053941289894922,39.322278797991295
pt.ine.add.PTCONT.1981792,AV DR CARVALHO PARGANA,27,2500-018,A DOS FRANCOS,-9.055589097890875,39.321482139773636
pt.ine.add.PTCONT.1981797,R ARNALDO FORTES,,2500-131,CALDAS DA RAINHA,-9.127470493174721,39.39571984123538
pt.ine.add.PTCONT.1981805,R JOAQUIM SILVA SANTOS,14,2500-221,CALDAS DA RAINHA,-9.130640747641177,39.397431027471264
pt.ine.add.PTCONT.1981807,R JOAQUIM SOARES,13,2500-497,FOZ DO ARELHO,-9.2145444493731,39.439265446077
pt.ine.add.PTCONT.1981809,R COMBATENTES DA GRANDEGUERRA,4,2500-796,SANTA CATARINA CLD,-9.011630253982394,39.429995814708434
pt.ine.add.PTCONT.1981810,R COMBATENTES DA GRANDEGUERRA,4,2500-796,SANTA CATARINA CLD,-9.011630253982394,39.429995814708434
pt.ine.add.PTCONT.1982254,R CONDE,,2500-368,ALVORNINHA,-9.053509411539714,39.391023405781816
pt.ine.add.PTCONT.1982251,BC TEODOROS,5,2500-052,A DOS FRANCOS,-9.01009717344446,39.32519340149523
pt.ine.add.PTCONT.1982252,R ARNEIROS,3,2500-053,A DOS FRANCOS,-9.079819449040748,39.31934207619972
pt.ine.add.PTCONT.1982253,R ARNEIROS,2,2500-053,A DOS FRANCOS,-9.079862306355855,39.319080524257075
pt.ine.add.PTCONT.1982255,R CASAL VELHO,20,2500-368,ALVORNINHA,-9.052991030613473,39.39751248285443
pt.ine.add.PTCONT.1982256,R ESTUFAS,2,2500-128,CALDAS DA RAINHA,-9.133351556244568,39.41572769092259
pt.ine.add.PTCONT.1982257,R ESTUFAS,2,2500-128,CALDAS DA RAINHA,-9.133351556244568,39.41572769092259
pt.ine.add.PTCONT.1982258,R ESTUFAS,2,2500-128,CALDAS DA RAINHA,-9.133351556244568,39.41572769092259
pt.ine.add.PTCONT.1982259,R ESTUFAS,2C,2500-128,CALDAS DA RAINHA,-9.133351556244568,39.41572769092259
pt.ine.add.PTCONT.1982260,R ESTUFAS,2,2500-128,CALDAS DA RAINHA,-9.133351556244568,39.41572769092259
pt.ine.add.PTCONT.1982266,R DR ARTUR FIGUEIROA REGO,70,2500-187,CALDAS DA RAINHA,-9.130527366651137,39.416364406359406
pt.ine.add.PTCONT.1982269,R JOSE PINTO MIRANDA,4,2500-287,CALDAS DA RAINHA,-9.120642619778268,39.406271000256204
pt.ine.add.PTCONT.1982270,R DR BOTELHO MONIZ,N 17,2500-188,CALDAS DA RAINHA,-9.127055396503515,39.41063875065974
pt.ine.add.PTCONT.1982271,R DR BOTELHO MONIZ,N 17,2500-188,CALDAS DA RAINHA,-9.127055396503515,39.41063875065974
pt.ine.add.PTCONT.1982272,R DR BOTELHO MONIZ,13,2500-188,CALDAS DA RAINHA,-9.127055396503515,39.41063875065974
pt.ine.add.PTCONT.1982273,R DR BOTELHO MONIZ,13,2500-188,CALDAS DA RAINHA,-9.127055396503515,39.41063875065974
pt.ine.add.PTCONT.1982276,ESTR CASAL DA PALMEIRA,5,2500-008,A DOS FRANCOS,-9.050777761350435,39.32333958903162
pt.ine.add.PTCONT.1982277,ESTR MALA POSTA,31,2500-002,A DOS FRANCOS,-9.06837322478958,39.31141835536178
pt.ine.add.PTCONT.1982278,R JOSE PINTO MIRANDA,4,2500-287,CALDAS DA RAINHA,-9.120642619778268,39.406271000256204
pt.ine.add.PTCONT.1982279,R JOSE PINTO MIRANDA,4,2500-287,CALDAS DA RAINHA,-9.120642619778268,39.406271000256204
pt.ine.add.PTCONT.1982280,R JOSE PINTO MIRANDA,4,2500-287,CALDAS DA RAINHA,-9.120642619778268,39.406271000256204
pt.ine.add.PTCONT.1982281,R JOSE PINTO MIRANDA,4,2500-287,CALDAS DA RAINHA,-9.120642619778268,39.406271000256204
pt.ine.add.PTCONT.1982282,R JOSE PINTO MIRANDA,4,2500-287,CALDAS DA RAINHA,-9.120642619778268,39.406271000256204
pt.ine.add.PTCONT.1982286,R PINHEIRO MANSO,6,2500-001,A DOS FRANCOS,-9.086466769790691,39.3135773762156
pt.ine.add.PTCONT.1982287,R COUTOS,12,2500-375,ALVORNINHA,-9.002797478383174,39.399609843473925
pt.ine.add.PTCONT.1982288,R CARREIRA DO GADO,103,2500-286,CALDAS DA RAINHA,-9.113654777332174,39.40223198552177
pt.ine.add.PTCONT.1982290,R PRINCIPAL,27,2500-361,ALVORNINHA,-9.042964918098289,39.41031808004449
pt.ine.add.PTCONT.1982291,R COSTA SANTOS,47 A,2500-350,ALVORNINHA,-9.015288371117252,39.397723419811854
pt.ine.add.PTCONT.1982294,SIT OUTEIRO,43,2500-370,ALVORNINHA,-9.024119602426047,39.366447053236875
pt.ine.add.PTCONT.1982295,R SOUSAS,5,2500-370,ALVORNINHA,-9.024645036452478,39.36670423088584
pt.ine.add.PTCONT.1982297,R NICHO,20,2500-382,ALVORNINHA,-9.005028921404596,39.38582153201634
pt.ine.add.PTCONT.1982298,R MOINHOS,6,2500-027,A DOS FRANCOS,-9.044461728467237,39.322758720351196
pt.ine.add.PTCONT.1982303,ESTR SALGUEIRINHA SN,SN,2500-051,A DOS FRANCOS,-9.07294749064596,39.3196679743875
pt.ine.add.PTCONT.1982362,R 1 DE DEZEMBRO,8,2500-118,CALDAS DA RAINHA,-9.135410614885613,39.407883019998046
pt.ine.add.PTCONT.1982363,R DIARIO DE NOTICIAS,41,2500-176,CALDAS DA RAINHA,-9.131329460104245,39.40502691161183
pt.ine.add.PTCONT.1982364,R BELA VISTA,51,2500-293,CALDAS DA RAINHA,-9.11609351013573,39.39814930560427
pt.ine.add.PTCONT.1982365,R DR MARIO CASTRO,40 B,2500-194,CALDAS DA RAINHA,-9.126785367149546,39.40797502931714
pt.ine.add.PTCONT.1982366,R DR MARIO CASTRO,40 C,2500-194,CALDAS DA RAINHA,-9.126785367149546,39.40797502931714
pt.ine.add.PTCONT.1982367,R RESIDENCIA DOS ESTUDANTES,4,2500-273,CALDAS DA RAINHA,-9.126728027547818,39.39575320538004
pt.ine.add.PTCONT.1982368,R RESIDENCIA DOS ESTUDANTES,4,2500-273,CALDAS DA RAINHA,-9.126728027547818,39.39575320538004
pt.ine.add.PTCONT.1982369,R LIBERDADE,26,2500-162,CALDAS DA RAINHA,-9.133491276895514,39.403567244467794
pt.ine.add.PTCONT.1982370,R VACARIAS,30,2500-171,CALDAS DA RAINHA,-9.135778800202814,39.403565564637056
pt.ine.add.PTCONT.1982371,R VACARIAS,30,2500-171,CALDAS DA RAINHA,-9.135778800202814,39.403565564637056
pt.ine.add.PTCONT.1982372,R FONTE DO PINHEIRO,38,2500-203,CALDAS DA RAINHA,-9.138155638335038,39.40822861716286
pt.ine.add.PTCONT.1982373,R FONTE DO PINHEIRO,38,2500-203,CALDAS DA RAINHA,-9.138155638335038,39.40822861716286
pt.ine.add.PTCONT.1982374,AV 1 DE MAIO,1,2500-081,CALDAS DA RAINHA,-9.136729640543019,39.40675479836678
pt.ine.add.PTCONT.1982375,AV 1 DE MAIO,1,2500-081,CALDAS DA RAINHA,-9.136729640543019,39.40675479836678
pt.ine.add.PTCONT.1982376,AV 1 DE MAIO,1,2500-081,CALDAS DA RAINHA,-9.136729640543019,39.40675479836678
pt.ine.add.PTCONT.1982377,R ALECRIM,5,2500-177,CALDAS DA RAINHA,-9.138592481568333,39.40711699982378
pt.ine.add.PTCONT.1982378,R ALECRIM,5,2500-177,CALDAS DA RAINHA,-9.138592481568333,39.40711699982378
pt.ine.add.PTCONT.1982379,R ALECRIM,5,2500-177,CALDAS DA RAINHA,-9.138592481568333,39.40711699982378
pt.ine.add.PTCONT.1982380,R ALECRIM,5,2500-177,CALDAS DA RAINHA,-9.138592481568333,39.40711699982378
pt.ine.add.PTCONT.1982381,R ALECRIM,5,2500-177,CALDAS DA RAINHA,-9.138592481568333,39.40711699982378
pt.ine.add.PTCONT.1982382,R ALECRIM,5,2500-177,CALDAS DA RAINHA,-9.138592481568333,39.40711699982378
pt.ine.add.PTCONT.1982383,R ALECRIM,5,2500-177,CALDAS DA RAINHA,-9.138592481568333,39.40711699982378
pt.ine.add.PTCONT.1982384,R ALECRIM,5,2500-177,CALDAS DA RAINHA,-9.138592481568333,39.40711699982378
pt.ine.add.PTCONT.1982385,R ALECRIM,5,2500-177,CALDAS DA RAINHA,-9.138592481568333,39.40711699982378
pt.ine.add.PTCONT.1982386,R ALECRIM,5,2500-177,CALDAS DA RAINHA,-9.138592481568333,39.40711699982378
pt.ine.add.PTCONT.1982387,CSL CUCOS,22A,2500-885,CALDAS DA RAINHA,-9.138988794141673,39.39671966096775
pt.ine.add.PTCONT.1982388,R S JOÃO DE DEUS,56,2500-885,CALDAS DA RAINHA,-9.13968457931277,39.3942457617232
pt.ine.add.PTCONT.1982389,R S JOÃO DE DEUS,56,2500-885,CALDAS DA RAINHA,-9.13968457931277,39.3942457617232
pt.ine.add.PTCONT.1982411,TV TALEFE,8,2500-064,SÃO GREGÓRIO CLD,-9.073581233823829,39.36610284596369
pt.ine.add.PTCONT.1982390,R ARTUR MALDONADO FREITAS,1,2500-132,CALDAS DA RAINHA,-9.12416658860591,39.405880757685765
pt.ine.add.PTCONT.1982391,R DR CALDAS LOPES,3,2500-189,CALDAS DA RAINHA,-9.124302960627363,39.40567243806591
pt.ine.add.PTCONT.1982392,R FORMOSA,9,2500-158,CALDAS DA RAINHA,-9.139001545893247,39.40811322356942
pt.ine.add.PTCONT.1982393,R FORMOSA,9,2500-158,CALDAS DA RAINHA,-9.139001545893247,39.40811322356942
pt.ine.add.PTCONT.1982394,R RAMINAIS,11,2500-712,SERRA DO BOURO,-9.177143073076303,39.45332451371703
pt.ine.add.PTCONT.1982395,R 1 DE MAIO,,2500-314,CALDAS DA RAINHA,-9.142611240228321,39.45792563042106
pt.ine.add.PTCONT.1982396,R ANTÓNIO SILVA E SOUSA,5A,2500-278,CALDAS DA RAINHA,-9.132485102760686,39.39570389360127
pt.ine.add.PTCONT.1982397,R ANTÓNIO SILVA E SOUSA,5A,2500-278,CALDAS DA RAINHA,-9.132485102760686,39.39570389360127
pt.ine.add.PTCONT.1982398,R GAIOLA,3,2500-303,CALDAS DA RAINHA,-9.14385843152025,39.43248863168861
pt.ine.add.PTCONT.1982399,R NSA SRA DA PIEDADE,10,2500-732,VIDAIS,-9.042021639786995,39.35910302681449
pt.ine.add.PTCONT.1982400,R PRINCIPAL,19,2500-790,SANTA CATARINA CLD,-9.003234216095171,39.42167351267165
pt.ine.add.PTCONT.1982401,R ARNEIROS,38,2500-315,CALDAS DA RAINHA,-9.13106489277646,39.446721774299064
pt.ine.add.PTCONT.1982402,EM 566,192,2500-712,SERRA DO BOURO,-9.17062362260371,39.44694302171021
pt.ine.add.PTCONT.1982403,R CHOUPOS,2,2500-315,CALDAS DA RAINHA,-9.128835421365837,39.447605536077496
pt.ine.add.PTCONT.1982404,R VELHA,4,2500-716,SERRA DO BOURO,-9.184334659015047,39.48190113926105
pt.ine.add.PTCONT.1982405,R FORO,11,2500-315,CALDAS DA RAINHA,-9.12603948533783,39.44705300580433
pt.ine.add.PTCONT.1982406,R COMPROMISSO,8,2500-847,CALDAS DA RAINHA,-9.144896791546428,39.40952120704809
pt.ine.add.PTCONT.1982407,R COMPROMISSO,8,2500-847,CALDAS DA RAINHA,-9.144896791546428,39.40952120704809
pt.ine.add.PTCONT.1982408,R COMPROMISSO,10,2500-847,CALDAS DA RAINHA,-9.144896791546428,39.40952120704809
pt.ine.add.PTCONT.1982409,R COMPROMISSO,8,2500-847,CALDAS DA RAINHA,-9.144896791546428,39.40952120704809
pt.ine.add.PTCONT.1982410,R CANTEIROS,10,2500-314,CALDAS DA RAINHA,-9.144309307160007,39.45322735527355
pt.ine.add.PTCONT.1982412,R POÇO DA PENA,19,2500-741,VIDAIS,-9.072194766275922,39.381272713954985
pt.ine.add.PTCONT.1982413,R TALEFE,,2500-064,SÃO GREGÓRIO CLD,-9.072334379819027,39.364842937027376
pt.ine.add.PTCONT.1982414,R PROF EGEMENIA,19,2500-744,VIDAIS,-9.065616289561753,39.38230737806002
pt.ine.add.PTCONT.1982415,R CIDADE DA PRAIA,5,2500-327,CALDAS DA RAINHA,-9.14355417356473,39.41463975468351
pt.ine.add.PTCONT.1982416,R CIDADE DA PRAIA,5,2500-327,CALDAS DA RAINHA,-9.14355417356473,39.41463975468351
pt.ine.add.PTCONT.1982417,R CIDADE DA PRAIA,5,2500-327,CALDAS DA RAINHA,-9.14355417356473,39.41463975468351
pt.ine.add.PTCONT.1982418,R CIDADE DA PRAIA,5,2500-327,CALDAS DA RAINHA,-9.14355417356473,39.41463975468351
pt.ine.add.PTCONT.1982419,R CIDADE DA PRAIA,5,2500-327,CALDAS DA RAINHA,-9.14355417356473,39.41463975468351
pt.ine.add.PTCONT.1982420,R CIDADE DA PRAIA,5,2500-327,CALDAS DA RAINHA,-9.14355417356473,39.41463975468351
pt.ine.add.PTCONT.1982421,R CIDADE DA PRAIA,5,2500-327,CALDAS DA RAINHA,-9.14355417356473,39.41463975468351
pt.ine.add.PTCONT.1982422,R CIDADE DA PRAIA,5,2500-327,CALDAS DA RAINHA,-9.14355417356473,39.41463975468351
pt.ine.add.PTCONT.1982423,BC COVÃO,6,2500-717,SERRA DO BOURO,-9.191416299373618,39.46602109748246
pt.ine.add.PTCONT.1982424,R MORGADO VALVERDE,24,2500-749,VIDAIS,-9.048832608299941,39.368903245601494
pt.ine.add.PTCONT.1982425,EM 566,75,2500-718,SERRA DO BOURO,-9.1922104603681,39.4586193362834
pt.ine.add.PTCONT.1982426,R DR JOÃO BOTELHO MONIZ,,2500-749,VIDAIS,-9.049403804167875,39.36821422065977
pt.ine.add.PTCONT.1982427,R PRINCIPAL,115,2500-065,SÃO GREGÓRIO CLD,-9.086317516216912,39.3708989852504
pt.ine.add.PTCONT.1982428,R CASAIS MORGADOS,,2500-304,CALDAS DA RAINHA,-9.134882402658866,39.465864382430155
pt.ine.add.PTCONT.1982429,R CHAFARIZ,5,2500-314,CALDAS DA RAINHA,-9.139362441591404,39.456620785020014
pt.ine.add.PTCONT.1982430,R S BARBARA,145,2500-731,VIDAIS,-9.058901777564724,39.36778777075539
pt.ine.add.PTCONT.1982431,TV INF D HENRIQUE,1,2500-269,CALDAS DA RAINHA,-9.142423373208723,39.40949765956164
pt.ine.add.PTCONT.1982432,TV INF D HENRIQUE,1,2500-269,CALDAS DA RAINHA,-9.142423373208723,39.40949765956164
pt.ine.add.PTCONT.1982433,TV INF D HENRIQUE,1,2500-269,CALDAS DA RAINHA,-9.142423373208723,39.40949765956164
pt.ine.add.PTCONT.1982434,TV INF D HENRIQUE,1,2500-269,CALDAS DA RAINHA,-9.142423373208723,39.40949765956164
pt.ine.add.PTCONT.1982435,TV INF D HENRIQUE,1,2500-269,CALDAS DA RAINHA,-9.142423373208723,39.40949765956164
pt.ine.add.PTCONT.1982436,TV INF D HENRIQUE,1,2500-269,CALDAS DA RAINHA,-9.142423373208723,39.40949765956164
pt.ine.add.PTCONT.1982437,TV INF D HENRIQUE,1,2500-269,CALDAS DA RAINHA,-9.142423373208723,39.40949765956164
pt.ine.add.PTCONT.1982438,TV INF D HENRIQUE,1,2500-269,CALDAS DA RAINHA,-9.142423373208723,39.40949765956164
pt.ine.add.PTCONT.1982439,TV INF D HENRIQUE,1,2500-269,CALDAS DA RAINHA,-9.142423373208723,39.40949765956164
pt.ine.add.PTCONT.1982441,R TOMAS DOS SANTOS,23,2500-254,CALDAS DA RAINHA,-9.145847136341413,39.39816430617117
pt.ine.add.PTCONT.1982442,R TOMAS DOS SANTOS,23,2500-254,CALDAS DA RAINHA,-9.145847136341413,39.39816430617117
pt.ine.add.PTCONT.1982447,R COSTA MOTA,15,2500-807,CALDAS DA RAINHA,-9.143261448555663,39.407229667011926
pt.ine.add.PTCONT.1982448,R COSTA MOTA,15,2500-807,CALDAS DA RAINHA,-9.143261448555663,39.407229667011926
pt.ine.add.PTCONT.1982449,R COSTA MOTA,15,2500-807,CALDAS DA RAINHA,-9.143261448555663,39.407229667011926
pt.ine.add.PTCONT.1982450,R COSTA MOTA,15,2500-807,CALDAS DA RAINHA,-9.143261448555663,39.407229667011926
pt.ine.add.PTCONT.1982454,R ANTÓNIO JOSE ALVES,14,2500-822,CALDAS DA RAINHA,-9.142657992191578,39.40402846724599
pt.ine.add.PTCONT.1982455,R ANTÓNIO JOSE ALVES,14,2500-822,CALDAS DA RAINHA,-9.142657992191578,39.40402846724599
pt.ine.add.PTCONT.1982456,R DR FERNANDO CORREIA,23,2500-810,CALDAS DA RAINHA,-9.139820636065547,39.40371079512454
pt.ine.add.PTCONT.1982457,R ANTÓNIO JOSE ALVES,14,2500-822,CALDAS DA RAINHA,-9.142657992191578,39.40402846724599
pt.ine.add.PTCONT.1982458,R ANTÓNIO JOSE ALVES,14,2500-822,CALDAS DA RAINHA,-9.142657992191578,39.40402846724599
pt.ine.add.PTCONT.1982459,R ANTÓNIO JOSE ALVES,14,2500-822,CALDAS DA RAINHA,-9.142657992191578,39.40402846724599
pt.ine.add.PTCONT.1982460,R ANTÓNIO JOSE ALVES,14,2500-822,CALDAS DA RAINHA,-9.142657992191578,39.40402846724599
pt.ine.add.PTCONT.1982461,R ANTÓNIO JOSE ALVES,14,2500-822,CALDAS DA RAINHA,-9.142657992191578,39.40402846724599
pt.ine.add.PTCONT.1982482,R JACINTO RIBEIRO,57,2500-813,CALDAS DA RAINHA,-9.144265761658243,39.40522142159862
pt.ine.add.PTCONT.1982494,R HERMENEGILDO GOMES PEREIRA,9,2500-833,CALDAS DA RAINHA,-9.144673752793114,39.398102459906376
pt.ine.add.PTCONT.1982495,R HERMENEGILDO GOMES PEREIRA,5A,2500-833,CALDAS DA RAINHA,-9.145048441138266,39.39832437282667
pt.ine.add.PTCONT.1982500,R HERMENEGILDO GOMES PEREIRA,5A,2500-833,CALDAS DA RAINHA,-9.145048441138266,39.39832437282667
pt.ine.add.PTCONT.1982501,R HERMENEGILDO GOMES PEREIRA,5A,2500-833,CALDAS DA RAINHA,-9.145048441138266,39.39832437282667
pt.ine.add.PTCONT.1982502,R CIDADE DE ABRANTES,J,2500-146,CALDAS DA RAINHA,-9.13996523426327,39.40165598076422
pt.ine.add.PTCONT.1982505,R QUINTA,17,2500-791,SANTA CATARINA CLD,-8.998272415868023,39.436445789031005
pt.ine.add.PTCONT.1982506,R POCA DOS NINHOS,5,2500-487,FOZ DO ARELHO,-9.194890649969068,39.43007048019915
pt.ine.add.PTCONT.1982507,R PONTE,1,2500-674,SALIR DO PORTO,-9.150861941361308,39.495501878532046
pt.ine.add.PTCONT.1982508,R S JACINTO,53,2500-431,COTO,-9.102580473407288,39.42327475556682
pt.ine.add.PTCONT.1982509,R DIREITA,45,2500-476,FOZ DO ARELHO,-9.212864688384492,39.435795436209425
pt.ine.add.PTCONT.1982510,R PRINCIPAL,92,2500-763,SANTA CATARINA CLD,-9.034674839976706,39.45538091412847
pt.ine.add.PTCONT.1982511,R S JACINTO,26,2500-431,COTO,-9.10680469232884,39.422230705182315
pt.ine.add.PTCONT.1982512,R JOÃO EMILIO DA SILVA,12,2500-493,FOZ DO ARELHO,-9.215210583014612,39.43577363383947
pt.ine.add.PTCONT.1982513,R 1 DE NOVEMBRO,77,2500-634,SALIR DE MATOS,-9.076239154603089,39.418744702130184
pt.ine.add.PTCONT.1982514,R 25 DE ABRIL,8 A,2500-668,SALIR DO PORTO,-9.152615682074439,39.49698162641689
pt.ine.add.PTCONT.1982515,R PRINCIPAL,33,2500-535,LANDAL,-9.000818713223923,39.29789047279394
pt.ine.add.PTCONT.1982516,R FONTE,2,2500-635,SALIR DE MATOS,-9.064564243280225,39.43759104889101
pt.ine.add.PTCONT.1982517,R 1 DE NOVEMBRO,27A,2500-635,SALIR DE MATOS,-9.082431633143681,39.41383962921303
pt.ine.add.PTCONT.1982518,R HORTAS,1,2500-676,SALIR DO PORTO,-9.155661462406401,39.49063216733446
pt.ine.add.PTCONT.1982519,R PROF MONTENEGRO,30,2500-691,SALIR DO PORTO,-9.155584575303394,39.49173166257723
pt.ine.add.PTCONT.1982520,R ANGOLA,10,2500-897,SALIR DO PORTO,-9.152944347794639,39.49640231458771
pt.ine.add.PTCONT.1982521,R FONTE,,2500-413,CARVALHAL BENFEITO,-9.044377655755104,39.453711080809455
pt.ine.add.PTCONT.1982522,R PORTINHO,1,2500-535,LANDAL,-9.003702337881334,39.29485157119163
pt.ine.add.PTCONT.1982523,R ENG LUIS PAIVA E SOUSA,63,2500-582,NADADOURO,-9.189000220812838,39.41992841254031
pt.ine.add.PTCONT.1982524,R PRESA,22,2500-413,CARVALHAL BENFEITO,-9.043173181925573,39.448649666336685
pt.ine.add.PTCONT.1982525,R J PEREIRA DA SILVA,2,2500-492,FOZ DO ARELHO,-9.214883635082334,39.437163716677965
pt.ine.add.PTCONT.1982526,R J PEREIRA DA SILVA,2,2500-492,FOZ DO ARELHO,-9.214883635082334,39.437163716677965
pt.ine.add.PTCONT.1982527,R LAREIRA,37,2500-593,NADADOURO,-9.17003556059435,39.42608854609226
pt.ine.add.PTCONT.1982528,R GRUTAS,14,2500-675,SALIR DO PORTO,-9.157463248572329,39.491426910712214
pt.ine.add.PTCONT.1982529,R PRINCIPAL,59,2500-633,SALIR DE MATOS,-9.103366798596578,39.44145298858339
pt.ine.add.PTCONT.1982530,R MINA,4,2500-637,SALIR DE MATOS,-9.097172873960846,39.432839929538794
pt.ine.add.PTCONT.1982531,R IGREJA,4A,2500-470,FOZ DO ARELHO,-9.216885305139867,39.435163593950854
pt.ine.add.PTCONT.1982532,R IGREJA,6,2500-470,FOZ DO ARELHO,-9.216889910389131,39.43546077421333
pt.ine.add.PTCONT.1982533,R 11 DE AGOSTO,49,2500-541,LANDAL,-9.00980667538127,39.32050292087423
pt.ine.add.PTCONT.1982534,R CEDRO,3,2500-639,SALIR DE MATOS,-9.103637691603183,39.40907113717073
pt.ine.add.PTCONT.1982535,R ARROTEIAS,,2500-568,NADADOURO,-9.17792246670214,39.41684903968132
pt.ine.add.PTCONT.1982536,R VISC DE MORAIS,,2500-509,FOZ DO ARELHO,-9.226558319146058,39.43279434556522
pt.ine.add.PTCONT.1982537,R ENG LUIS PAIVA E SOUSA,17,2500-582,NADADOURO,-9.186767395136991,39.42742430168348
pt.ine.add.PTCONT.1982538,R CARAMUJO,2 5,2500-653,SALIR DO PORTO,-9.14697545303456,39.49844500318269
pt.ine.add.PTCONT.1982539,R PINHAL MANSO,29,2500-767,SANTA CATARINA CLD,-9.067212319178406,39.47060681055425
pt.ine.add.PTCONT.1982540,BC CASINHAS CASA DA LAGOA,12,2500-604,NADADOURO,-9.201252096328489,39.41465565440036
pt.ine.add.PTCONT.1982541,R CORREDOURA,19,2500-622,SALIR DE MATOS,-9.08534977571587,39.45761601198328
pt.ine.add.PTCONT.1982542,R ANTÓNIO IVO PERALTA,25,2500-773,SANTA CATARINA CLD,-9.010496668497435,39.4386960033375
pt.ine.add.PTCONT.1982543,R PONTE,,2500-434,COTO,-9.120092853327266,39.43561994489936
pt.ine.add.PTCONT.1982545,R PRINCIPAL,16 A,2500-584,NADADOURO,-9.187347144576137,39.41965518896751
pt.ine.add.PTCONT.1982546,R D LEONOR,,2500-620,NADADOURO,-9.170722585833676,39.41759800491425
pt.ine.add.PTCONT.1982547,R CHAFARIZ,6 A,2500-575,NADADOURO,-9.185115478656721,39.4171985220839
pt.ine.add.PTCONT.1982548,R PRINCIPAL,7,2500-766,SANTA CATARINA CLD,-9.036077988401928,39.4668627302552
pt.ine.add.PTCONT.1982549,R PRINCIPAL,46,2500-584,NADADOURO,-9.182152808807476,39.41709017650576
pt.ine.add.PTCONT.1982550,R DR GAGLIARDINI GRAÇA,,2500-672,SALIR DO PORTO,-9.14972745640566,39.49423285135595
pt.ine.add.PTCONT.1982551,R DR GAGLIARDINI GRAÇA,,2500-672,SALIR DO PORTO,-9.14972745640566,39.49423285135595
pt.ine.add.PTCONT.1982552,R DR GAGLIARDINI GRAÇA,,2500-672,SALIR DO PORTO,-9.14972745640566,39.49423285135595
pt.ine.add.PTCONT.1982553,R DR GAGLIARDINI GRAÇA,,2500-672,SALIR DO PORTO,-9.14972745640566,39.49423285135595
pt.ine.add.PTCONT.1982554,R PRINCIPAL,6,2500-764,SANTA CATARINA CLD,-9.043323534128826,39.45930356647783
pt.ine.add.PTCONT.1982555,R PONTE DO REI,5,2500-539,LANDAL,-9.026263699893438,39.307912055654185
pt.ine.add.PTCONT.1982556,R GUILHERMES,16,2500-640,SALIR DE MATOS,-9.063024579037926,39.430118678356806
pt.ine.add.PTCONT.1982557,R CIMA,8,2500-635,SALIR DE MATOS,-9.062971661283221,39.43225372537996
pt.ine.add.PTCONT.1982558,R ENCOSTA DO SOL,,2500-698,SALIR DO PORTO,-9.15713333990878,39.495086540992666
pt.ine.add.PTCONT.1983757,R MORGADO VALVERDE,55,2500-748,VIDAIS,-9.028645176024188,39.36100813010044
pt.ine.add.PTCONT.1983782,TV INF D HENRIQUE,1,2500-269,CALDAS DA RAINHA,-9.142423373208723,39.40949765956164
pt.ine.add.PTCONT.1983786,R HERMENEGILDO GOMES PEREIRA,5A,2500-833,CALDAS DA RAINHA,-9.145048441138266,39.39832437282667
pt.ine.add.PTCONT.1983787,R TEN ANTÓNIO RODRIGUES FERREIRA,75,2500-846,CALDAS DA RAINHA,-9.152872258168452,39.40067889895533
pt.ine.add.PTCONT.1983788,R ANTÓNIO JOSE ALVES,14,2500-822,CALDAS DA RAINHA,-9.142657992191578,39.40402846724599
pt.ine.add.PTCONT.1983793,R CLAUDINA CHAMICO,18,2500-823,CALDAS DA RAINHA,-9.142123951115204,39.404834710255884
pt.ine.add.PTCONT.1983832,R FONTE,33,2500-791,SANTA CATARINA CLD,-9.000727915316002,39.43495037055954
pt.ine.add.PTCONT.1983833,R FRANCISCO ALMEIDA GRANDELA,345,2500-487,FOZ DO ARELHO,-9.19448804212645,39.431091921301864
pt.ine.add.PTCONT.1983864,R ESTUFAS,2,2500-128,CALDAS DA RAINHA,-9.133351556244568,39.41572769092259
pt.ine.add.PTCONT.1983865,R JULIÃO DE ALMEIDA,3,2500-541,LANDAL,-9.001162581740006,39.30602130077304
pt.ine.add.PTCONT.1983874,R PAZ,1,2500-936,NADADOURO,-9.189395316027404,39.41917726078299
pt.ine.add.PTCONT.1983875,R DOS ANTUNES,12,2500-577,NADADOURO,-9.190934770852627,39.418848032885315
pt.ine.add.PTCONT.1983885,BC FLORES,,2500-739,VIDAIS,-9.008368279238079,39.350227917258394
pt.ine.add.PTCONT.1983901,TV MIMOSA,57,2500-359,ALVORNINHA,-9.03177094972725,39.39123838133251
pt.ine.add.PTCONT.1983902,R MOINHOS,70,2500-359,ALVORNINHA,-9.030787801755253,39.39060647914908
pt.ine.add.PTCONT.1983904,R RESIDENCIA DOS ESTUDANTES,4,2500-273,CALDAS DA RAINHA,-9.126728027547818,39.39575320538004
pt.ine.add.PTCONT.1983905,R ESCOLA,4,2500-304,CALDAS DA RAINHA,-9.136281771262944,39.46459137183143
pt.ine.add.PTCONT.1983906,TV ESCOLA,4,2500-304,CALDAS DA RAINHA,-9.140743439001701,39.46537241144432
pt.ine.add.PTCONT.1983907,R PINHAL,,2500-304,CALDAS DA RAINHA,-9.138032854515092,39.468386111877315
pt.ine.add.PTCONT.1983908,R ALTO MOINHOS,5,2500-304,CALDAS DA RAINHA,-9.129870786919467,39.459926953638124
pt.ine.add.PTCONT.1983909,R CAPELA,29,2500-304,CALDAS DA RAINHA,-9.135906362699854,39.464342420409835
pt.ine.add.PTCONT.1983910,R ESCOLA,42,2500-304,CALDAS DA RAINHA,-9.138517605481692,39.465733934460765
pt.ine.add.PTCONT.1983918,TV MIMOSA,57,2500-359,ALVORNINHA,-9.03177094972725,39.39123838133251
pt.ine.add.PTCONT.1983921,R RESIDENCIA DOS ESTUDANTES,4,2500-273,CALDAS DA RAINHA,-9.126728027547818,39.39575320538004
pt.ine.add.PTCONT.1983922,R PALMEIRAS,5,2500-304,CALDAS DA RAINHA,-9.132751231651111,39.46309963197473
pt.ine.add.PTCONT.1983978,R DR ÂNGELO FERRARI,9,2500-113,CALDAS DA RAINHA,-9.133019226268894,39.4127853109387
pt.ine.add.PTCONT.1983979,R DR ÂNGELO FERRARI,9,2500-113,CALDAS DA RAINHA,-9.133019226268894,39.4127853109387
pt.ine.add.PTCONT.1983980,R DR ÂNGELO FERRARI,9,2500-113,CALDAS DA RAINHA,-9.133019226268894,39.4127853109387
pt.ine.add.PTCONT.1983981,R DR ÂNGELO FERRARI,9,2500-113,CALDAS DA RAINHA,-9.133019226268894,39.4127853109387
pt.ine.add.PTCONT.1983982,R DR ÂNGELO FERRARI,9,2500-113,CALDAS DA RAINHA,-9.133019226268894,39.4127853109387
pt.ine.add.PTCONT.1983989,R PRÍNCIPE D AFONSO,4,2500-840,CALDAS DA RAINHA,-9.14422598302389,39.396034774367735
pt.ine.add.PTCONT.1984002,R PRINCIPAL,4,2500-531,LANDAL,-9.000207455068873,39.31129755379442
pt.ine.add.PTCONT.1984009,TV VENDA DO MARCO,6,2500-535,LANDAL,-8.997406081385886,39.29658280904992
pt.ine.add.PTCONT.1984022,R 1 DE MAIO,4,2500-315,CALDAS DA RAINHA,-9.129537618983822,39.446338570720215
pt.ine.add.PTCONT.1984023,R 1 DE MAIO,4,2500-315,CALDAS DA RAINHA,-9.129537618983822,39.446338570720215
pt.ine.add.PTCONT.1984024,R 1 DE MAIO,4,2500-315,CALDAS DA RAINHA,-9.129537618983822,39.446338570720215
pt.ine.add.PTCONT.1984025,R 1 DE MAIO,4,2500-315,CALDAS DA RAINHA,-9.129537618983822,39.446338570720215
pt.ine.add.PTCONT.1984026,R 1 DE MAIO,4,2500-315,CALDAS DA RAINHA,-9.129537618983822,39.446338570720215
pt.ine.add.PTCONT.1984027,R 1 DE MAIO,4,2500-315,CALDAS DA RAINHA,-9.129537618983822,39.446338570720215
pt.ine.add.PTCONT.1984034,R 1 DE MAIO,4,2500-315,CALDAS DA RAINHA,-9.129537618983822,39.446338570720215
pt.ine.add.PTCONT.1984423,EM 567,3,2500-376,ALVORNINHA,-9.067560694890021,39.38973149266203
pt.ine.add.PTCONT.1984424,EN 114,39,2500-383,ALVORNINHA,-9.072017760282396,39.38798429634971
pt.ine.add.PTCONT.1984425,R QUEIXAIS,18,2500-340,ALVORNINHA,-9.042865652659732,39.37675907591184
pt.ine.add.PTCONT.1984429,R TELHAIS,1,2500-020,A DOS FRANCOS,-9.055155814069769,39.32292669610435
pt.ine.add.PTCONT.1984430,R PADRE ANTÓNIO SOUSA,6,2500-334,ALVORNINHA,-9.037326390760837,39.382782863734924
pt.ine.add.PTCONT.1984450,R CRUZEIRO,29,2500-377,ALVORNINHA,-9.011100895866454,39.40632067931668
pt.ine.add.PTCONT.1984431,R INSEPARAVEIS DE LUBANGO,8,2500-288,CALDAS DA RAINHA,-9.122575734579044,39.408326151274
pt.ine.add.PTCONT.1984434,R PRINCIPAL,9,2500-361,ALVORNINHA,-9.045456652933245,39.409073627165206
pt.ine.add.PTCONT.1984435,R PRINCIPAL,11,2500-333,ALVORNINHA,-9.026216387335703,39.37710422700604
pt.ine.add.PTCONT.1984436,R PRINCIPAL,16,2500-332,ALVORNINHA,-9.026107473618485,39.376753791790094
pt.ine.add.PTCONT.1984438,R SOUSAS,3,2500-370,ALVORNINHA,-9.024760031137951,39.36662228707402
pt.ine.add.PTCONT.1984439,AV ENG MARCELO MORGADO,B,2500-919,CALDAS DA RAINHA,-9.138341692189218,39.41309971215428
pt.ine.add.PTCONT.1984442,AV ENG MARCELO MORGADO,B,2500-919,CALDAS DA RAINHA,-9.138341692189218,39.41309971215428
pt.ine.add.PTCONT.1984443,AV ENG MARCELO MORGADO,B,2500-919,CALDAS DA RAINHA,-9.138341692189218,39.41309971215428
pt.ine.add.PTCONT.1984444,AV ENG MARCELO MORGADO,B,2500-919,CALDAS DA RAINHA,-9.138341692189218,39.41309971215428
pt.ine.add.PTCONT.1984445,AV ENG MARCELO MORGADO,6,2500-919,CALDAS DA RAINHA,-9.138341692189218,39.41309971215428
pt.ine.add.PTCONT.1984446,AV ENG MARCELO MORGADO,6,2500-919,CALDAS DA RAINHA,-9.138341692189218,39.41309971215428
pt.ine.add.PTCONT.1984447,AV ENG MARCELO MORGADO,B,2500-919,CALDAS DA RAINHA,-9.138341692189218,39.41309971215428
pt.ine.add.PTCONT.1984449,LG SRA DA GRAÇA,18 A,2500-377,ALVORNINHA,-9.012270519289737,39.407005378457555
pt.ine.add.PTCONT.1984451,LG SR DA BRAGA,22,2500-377,ALVORNINHA,-9.012519927474786,39.406526126921094
pt.ine.add.PTCONT.1984452,R OUTEIRO,20,2500-371,ALVORNINHA,-9.01254699219705,39.40683215739431
pt.ine.add.PTCONT.1984453,R CAMPO DA BOLA,,2500-052,A DOS FRANCOS,-9.002780054486813,39.328977215497865
pt.ine.add.PTCONT.1984454,URB FORMIGAL,19 A,2500-292,CALDAS DA RAINHA,-9.105516199131726,39.40638941747116
pt.ine.add.PTCONT.1984456,R PINHAL,6,2500-360,ALVORNINHA,-9.008982721612666,39.379919302886925
pt.ine.add.PTCONT.1984458,SIT BOAVISTA,12,2500-337,ALVORNINHA,-9.003870963060844,39.37483270837519
pt.ine.add.PTCONT.1984460,R CASAL CÂNDIDO,14,2500-357,ALVORNINHA,-9.005745331802112,39.40233488192932
pt.ine.add.PTCONT.1984506,R JOAQUIM VASCONCELOS,1,2500-273,CALDAS DA RAINHA,-9.124830591852902,39.39784097586935
pt.ine.add.PTCONT.1984507,R JOAQUIM VASCONCELOS,1,2500-273,CALDAS DA RAINHA,-9.124830591852902,39.39784097586935
pt.ine.add.PTCONT.1984508,R JOAQUIM VASCONCELOS,1,2500-273,CALDAS DA RAINHA,-9.124830591852902,39.39784097586935
pt.ine.add.PTCONT.1984509,R JOAQUIM VASCONCELOS,1,2500-273,CALDAS DA RAINHA,-9.124830591852902,39.39784097586935
pt.ine.add.PTCONT.1984510,R JOAQUIM VASCONCELOS,1,2500-273,CALDAS DA RAINHA,-9.124830591852902,39.39784097586935
pt.ine.add.PTCONT.1984511,R JOAQUIM VASCONCELOS,1,2500-273,CALDAS DA RAINHA,-9.124830591852902,39.39784097586935
pt.ine.add.PTCONT.1984568,R LARANJEIRAS,2,2500-716,SERRA DO BOURO,-9.185287935434841,39.47883023404957
pt.ine.add.PTCONT.1984512,R JOAQUIM VASCONCELOS,1,2500-273,CALDAS DA RAINHA,-9.124830591852902,39.39784097586935
pt.ine.add.PTCONT.1984513,R JOAQUIM VASCONCELOS,1,2500-273,CALDAS DA RAINHA,-9.124830591852902,39.39784097586935
pt.ine.add.PTCONT.1984514,R JOAQUIM VASCONCELOS,1,2500-273,CALDAS DA RAINHA,-9.124830591852902,39.39784097586935
pt.ine.add.PTCONT.1984515,R JOAQUIM VASCONCELOS,1,2500-273,CALDAS DA RAINHA,-9.124830591852902,39.39784097586935
pt.ine.add.PTCONT.1984516,R HEROIS DA GRANDE GUERRA,169,2500-215,CALDAS DA RAINHA,-9.134767751015431,39.40677170764521
pt.ine.add.PTCONT.1984517,R HEROIS DA GRANDE GUERRA,169,2500-215,CALDAS DA RAINHA,-9.134767751015431,39.40677170764521
pt.ine.add.PTCONT.1984518,R HEROIS DA GRANDE GUERRA,169,2500-215,CALDAS DA RAINHA,-9.134767751015431,39.40677170764521
pt.ine.add.PTCONT.1984519,R COR ANDRADA MENDONÇA,41,2500-148,CALDAS DA RAINHA,-9.136115786750372,39.40523793463365
pt.ine.add.PTCONT.1984520,R COR ANDRADA MENDONÇA,41,2500-148,CALDAS DA RAINHA,-9.136115786750372,39.40523793463365
pt.ine.add.PTCONT.1984521,R COR ANDRADA MENDONÇA,41,2500-148,CALDAS DA RAINHA,-9.136115786750372,39.40523793463365
pt.ine.add.PTCONT.1984522,R COR ANDRADA MENDONÇA,41,2500-148,CALDAS DA RAINHA,-9.136115786750372,39.40523793463365
pt.ine.add.PTCONT.1984523,R COR ANDRADA MENDONÇA,41,2500-148,CALDAS DA RAINHA,-9.136115786750372,39.40523793463365
pt.ine.add.PTCONT.1984524,R COR ANDRADA MENDONÇA,41,2500-148,CALDAS DA RAINHA,-9.136115786750372,39.40523793463365
pt.ine.add.PTCONT.1984525,R COR ANDRADA MENDONÇA,41,2500-148,CALDAS DA RAINHA,-9.136115786750372,39.40523793463365
pt.ine.add.PTCONT.1984526,R COR ANDRADA MENDONÇA,41,2500-148,CALDAS DA RAINHA,-9.136115786750372,39.40523793463365
pt.ine.add.PTCONT.1984527,R DR JOSÉ SAUDADE E SILVA,13,2500-191,CALDAS DA RAINHA,-9.136959466857274,39.40496945867461
pt.ine.add.PTCONT.1984528,R DR JOSÉ SAUDADE E SILVA,13,2500-191,CALDAS DA RAINHA,-9.136959466857274,39.40496945867461
pt.ine.add.PTCONT.1984529,R DR JOSÉ SAUDADE E SILVA,13,2500-191,CALDAS DA RAINHA,-9.136959466857274,39.40496945867461
pt.ine.add.PTCONT.1984530,R DR JOSÉ SAUDADE E SILVA,13,2500-191,CALDAS DA RAINHA,-9.136959466857274,39.40496945867461
pt.ine.add.PTCONT.1984531,R ODETTE DE SAINT-MAURICE,9,2500-069,CALDAS DA RAINHA,-9.118387964007795,39.39538279918967
pt.ine.add.PTCONT.1984532,R LUIS TEIXEIRA,11,2500-229,CALDAS DA RAINHA,-9.127720282819805,39.39696065423276
pt.ine.add.PTCONT.1984533,R DR JOSÉ SAUDADE E SILVA,13,2500-191,CALDAS DA RAINHA,-9.136959466857274,39.40496945867461
pt.ine.add.PTCONT.1984534,R DR JOSE SAUDADE E SILVA,5B,2500-191,CALDAS DA RAINHA,-9.136493448511716,39.4048563899998
pt.ine.add.PTCONT.1984535,R ALMADA NEGREIROS,6,2500-322,CALDAS DA RAINHA,-9.137413516410932,39.400200912560685
pt.ine.add.PTCONT.1984536,R ALMADA NEGREIROS,6,2500-322,CALDAS DA RAINHA,-9.137413516410932,39.400200912560685
pt.ine.add.PTCONT.1984537,R ALMADA NEGREIROS,6,2500-322,CALDAS DA RAINHA,-9.137413516410932,39.400200912560685
pt.ine.add.PTCONT.1984538,R ALMADA NEGREIROS,6,2500-322,CALDAS DA RAINHA,-9.137413516410932,39.400200912560685
pt.ine.add.PTCONT.1984539,R ALMADA NEGREIROS,6,2500-322,CALDAS DA RAINHA,-9.137413516410932,39.400200912560685
pt.ine.add.PTCONT.1984540,R ALMADA NEGREIROS,6,2500-322,CALDAS DA RAINHA,-9.137413516410932,39.400200912560685
pt.ine.add.PTCONT.1984541,R MANUEL GUSTAVO BORDALO PINHEIRO,31,2500-273,CALDAS DA RAINHA,-9.1259411026834,39.400020173034214
pt.ine.add.PTCONT.1984542,R MANUEL PINHEIRO CHAGAS,18,2500-233,CALDAS DA RAINHA,-9.12903151380961,39.396922416156784
pt.ine.add.PTCONT.1984543,R HEROIS DA GRANDE GUERRA,17,2500-215,CALDAS DA RAINHA,-9.135625611284192,39.403133878438716
pt.ine.add.PTCONT.1984544,LG JOÃO DE DEUS,10,2500-108,CALDAS DA RAINHA,-9.13181895895373,39.402716954729414
pt.ine.add.PTCONT.1984545,R PEDRO NUNES,10,2500-303,CALDAS DA RAINHA,-9.15495854510611,39.4314639399738
pt.ine.add.PTCONT.1984546,SIT MIMOSA,,2500-315,CALDAS DA RAINHA,-9.123328584687581,39.44840011815275
pt.ine.add.PTCONT.1984547,AV VASCO DA GAMA,,2500-282,CALDAS DA RAINHA,-9.155454423977087,39.41294156604968
pt.ine.add.PTCONT.1984548,R D JOÃO II,47,2500-852,CALDAS DA RAINHA,-9.145533328655155,39.41018217515739
pt.ine.add.PTCONT.1984549,R D JOÃO II,47,2500-852,CALDAS DA RAINHA,-9.145533328655155,39.41018217515739
pt.ine.add.PTCONT.1984550,R D JOÃO II,47,2500-852,CALDAS DA RAINHA,-9.145533328655155,39.41018217515739
pt.ine.add.PTCONT.1984551,R D JOÃO II,47,2500-852,CALDAS DA RAINHA,-9.145533328655155,39.41018217515739
pt.ine.add.PTCONT.1984552,R D JOÃO II,47,2500-852,CALDAS DA RAINHA,-9.145533328655155,39.41018217515739
pt.ine.add.PTCONT.1984553,R D JOÃO II,47,2500-852,CALDAS DA RAINHA,-9.145533328655155,39.41018217515739
pt.ine.add.PTCONT.1984554,R PRINCIPAL,46,2500-761,SANTA CATARINA CLD,-9.032449512283133,39.43954610176235
pt.ine.add.PTCONT.1984555,R PRINCIPAL,84,2500-794,SANTA CATARINA CLD,-9.01927310871781,39.424551723677965
pt.ine.add.PTCONT.1984556,R CASAL FRADE,8,2500-794,SANTA CATARINA CLD,-9.01986792350671,39.42383564681638
pt.ine.add.PTCONT.1984557,R VINDIMAS,11,2500-315,CALDAS DA RAINHA,-9.1295874331051,39.42863976565998
pt.ine.add.PTCONT.1984558,R D AFONSO HENRIQUES,116,2500-739,VIDAIS,-9.004688146187664,39.36215377576595
pt.ine.add.PTCONT.1984559,R JOAQUIM COSTA,10,2500-739,VIDAIS,-9.00471306090608,39.36042424778158
pt.ine.add.PTCONT.1984560,LG ROSSIO,2,2500-719,SERRA DO BOURO,-9.184443009680331,39.446629773594786
pt.ine.add.PTCONT.1984561,R COMPROMISSO,2,2500-847,CALDAS DA RAINHA,-9.144650210249216,39.409517733907286
pt.ine.add.PTCONT.1984562,R COMPROMISSO,2,2500-847,CALDAS DA RAINHA,-9.144650210249216,39.409517733907286
pt.ine.add.PTCONT.1984563,R COMPROMISSO,6,2500-847,CALDAS DA RAINHA,-9.144767918587473,39.40944126629372
pt.ine.add.PTCONT.1984564,R COMPROMISSO,6,2500-847,CALDAS DA RAINHA,-9.144767918587473,39.40944126629372
pt.ine.add.PTCONT.1984565,R COMPROMISSO,6,2500-847,CALDAS DA RAINHA,-9.144767918587473,39.40944126629372
pt.ine.add.PTCONT.1984566,R COMPROMISSO,6,2500-847,CALDAS DA RAINHA,-9.144767918587473,39.40944126629372
pt.ine.add.PTCONT.1984567,R CENTRAL,49,2500-314,CALDAS DA RAINHA,-9.145572498398007,39.45381081188846
pt.ine.add.PTCONT.1984569,R JOÃO ALVES,144,2500-741,VIDAIS,-9.074470437002242,39.38479404387729
pt.ine.add.PTCONT.1984570,R COMBATENTES GRANDE GUERRA,38,2500-796,SANTA CATARINA CLD,-9.015914909499532,39.429918339661626
pt.ine.add.PTCONT.1984571,R PRINCIPAL,130,2500-304,CALDAS DA RAINHA,-9.13930703838432,39.469717099839706
pt.ine.add.PTCONT.1984572,R RODELA,1,2500-304,CALDAS DA RAINHA,-9.13930703838432,39.469717099839706
pt.ine.add.PTCONT.1984573,EN 8,39,2500-315,CALDAS DA RAINHA,-9.130059118223343,39.44136234872837
pt.ine.add.PTCONT.1984574,R MOINHO,6,2500-794,SANTA CATARINA CLD,-9.027118112453504,39.4268424880863
pt.ine.add.PTCONT.1984575,R ENG ADELINO AMARO DA COSTA,83,2500-065,SÃO GREGÓRIO CLD,-9.055337303197101,39.350864967863004
pt.ine.add.PTCONT.1984576,R SERRADINHA,11,2500-796,SANTA CATARINA CLD,-9.008354686752591,39.42996646745491
pt.ine.add.PTCONT.1984577,R ENG MANUEL DA MAIA,20,2500-856,CALDAS DA RAINHA,-9.147326263342418,39.41212104098497
pt.ine.add.PTCONT.1984578,R ENG MANUEL DA MAIA,20,2500-856,CALDAS DA RAINHA,-9.147326263342418,39.41212104098497
pt.ine.add.PTCONT.1984579,R ENG MANUEL DA MAIA,20,2500-856,CALDAS DA RAINHA,-9.147326263342418,39.41212104098497
pt.ine.add.PTCONT.1984580,R ENG MANUEL DA MAIA,20,2500-856,CALDAS DA RAINHA,-9.147326263342418,39.41212104098497
pt.ine.add.PTCONT.1984581,R ENG MANUEL DA MAIA,20,2500-856,CALDAS DA RAINHA,-9.147326263342418,39.41212104098497
pt.ine.add.PTCONT.1984582,R ENG MANUEL DA MAIA,20,2500-856,CALDAS DA RAINHA,-9.147326263342418,39.41212104098497
pt.ine.add.PTCONT.1984583,R ENG MANUEL DA MAIA,20,2500-856,CALDAS DA RAINHA,-9.147326263342418,39.41212104098497
pt.ine.add.PTCONT.1984584,R ENG MANUEL DA MAIA,20,2500-856,CALDAS DA RAINHA,-9.147326263342418,39.41212104098497
pt.ine.add.PTCONT.1984585,R GIL VICENTE,7,2500-850,CALDAS DA RAINHA,-9.147121328929408,39.40919560483504
pt.ine.add.PTCONT.1984586,R GIL VICENTE,7,2500-850,CALDAS DA RAINHA,-9.147121328929408,39.40919560483504
pt.ine.add.PTCONT.1984607,R CASAIS DA RIBEIRA,23 A,2500-144,CALDAS DA RAINHA,-9.143289048786482,39.40109576177296
pt.ine.add.PTCONT.1984587,R GIL VICENTE,7,2500-850,CALDAS DA RAINHA,-9.147121328929408,39.40919560483504
pt.ine.add.PTCONT.1984588,R GIL VICENTE,7,2500-850,CALDAS DA RAINHA,-9.147121328929408,39.40919560483504
pt.ine.add.PTCONT.1984589,R GIL VICENTE,7,2500-850,CALDAS DA RAINHA,-9.147121328929408,39.40919560483504
pt.ine.add.PTCONT.1984590,R GIL VICENTE,7,2500-850,CALDAS DA RAINHA,-9.147121328929408,39.40919560483504
pt.ine.add.PTCONT.1984591,R GIL VICENTE,7,2500-850,CALDAS DA RAINHA,-9.147121328929408,39.40919560483504
pt.ine.add.PTCONT.1984592,R PRINCIPAL,93,2500-065,SÃO GREGÓRIO CLD,-9.082758467998046,39.36858628299203
pt.ine.add.PTCONT.1984593,R VASCO DA GAMA,14,2500-714,SERRA DO BOURO,-9.190915542891213,39.453668405227745
pt.ine.add.PTCONT.1984594,R LIBERDADE,7,2500-314,CALDAS DA RAINHA,-9.138677208835777,39.45744632865466
pt.ine.add.PTCONT.1984595,R TOMAS SALES,16,2500-303,CALDAS DA RAINHA,-9.147778402077662,39.43849806443551
pt.ine.add.PTCONT.1984596,R S BARBARA,20,2500-731,VIDAIS,-9.051881337312144,39.359809205991226
pt.ine.add.PTCONT.1984597,EN 360,43,2500-791,SANTA CATARINA CLD,-8.99761359703903,39.43201029637932
pt.ine.add.PTCONT.1984598,R FORNO,,2500-099,CALDAS DA RAINHA,-9.13209792719223,39.436904499660756
pt.ine.add.PTCONT.1984599,R LUISA SATANELA,2,2500-296,CALDAS DA RAINHA,-9.173962460767799,39.41292154152489
pt.ine.add.PTCONT.1984600,R LUISA SATANELA,2,2500-296,CALDAS DA RAINHA,-9.173962460767799,39.41292154152489
pt.ine.add.PTCONT.1984601,R D JOÃO II,57A,2500-852,CALDAS DA RAINHA,-9.147383654723606,39.411273897866565
pt.ine.add.PTCONT.1984605,R CLAUDINA CHAMIGO,7,2500-823,CALDAS DA RAINHA,-9.141796708244383,39.404684431694534
pt.ine.add.PTCONT.1984606,R CLAUDINA CHAMIGO,7,2500-823,CALDAS DA RAINHA,-9.141796708244383,39.404684431694534
pt.ine.add.PTCONT.1984611,R D LUISA DE GUSMÃO,,2500-837,CALDAS DA RAINHA,-9.145073710578622,39.39525281336043
pt.ine.add.PTCONT.1984619,R ANTÓNIO SOUSA JUNIOR,131,2500-829,CALDAS DA RAINHA,-9.14509893002527,39.3978015358102
pt.ine.add.PTCONT.1984624,R MANUEL MAFRA,53,2500-825,CALDAS DA RAINHA,-9.142291162059236,39.40676973238272
pt.ine.add.PTCONT.1984631,R MARQUES VIDAL,,2500-297,CALDAS DA RAINHA,-9.154225432306006,39.403513193539226
pt.ine.add.PTCONT.1984641,R HERMENEGILDO GOMES PEREIRA,27,2500-833,CALDAS DA RAINHA,-9.143107587750864,39.39736849787621
pt.ine.add.PTCONT.1984642,R HERMENEGILDO GOMES PEREIRA,27,2500-833,CALDAS DA RAINHA,-9.143107587750864,39.39736849787621
pt.ine.add.PTCONT.1984646,R JOAQUIM CLAUDINO FERREIRA,15,2500-835,CALDAS DA RAINHA,-9.146568608558827,39.39908572971303
pt.ine.add.PTCONT.1984647,R HERMENEGILDO GOMES PEREIRA,27,2500-833,CALDAS DA RAINHA,-9.143107587750864,39.39736849787621
pt.ine.add.PTCONT.1984648,R HERMENEGILDO GOMES PEREIRA,27,2500-833,CALDAS DA RAINHA,-9.143107587750864,39.39736849787621
pt.ine.add.PTCONT.1984649,R HERMENEGILDO GOMES PEREIRA,27,2500-833,CALDAS DA RAINHA,-9.143107587750864,39.39736849787621
pt.ine.add.PTCONT.1984650,R HERMENEGILDO GOMES PEREIRA,27,2500-833,CALDAS DA RAINHA,-9.143107587750864,39.39736849787621
pt.ine.add.PTCONT.1984651,R HERMENEGILDO GOMES PEREIRA,27,2500-833,CALDAS DA RAINHA,-9.143107587750864,39.39736849787621
pt.ine.add.PTCONT.1984652,R HERMENEGILDO GOMES PEREIRA,27,2500-833,CALDAS DA RAINHA,-9.143107587750864,39.39736849787621
pt.ine.add.PTCONT.1984653,R HERMENEGILDO GOMES PEREIRA,27,2500-833,CALDAS DA RAINHA,-9.143107587750864,39.39736849787621
pt.ine.add.PTCONT.1984654,R HERMENEGILDO GOMES PEREIRA,27,2500-833,CALDAS DA RAINHA,-9.143107587750864,39.39736849787621
pt.ine.add.PTCONT.1984658,R PRINCIPAL,49,2500-540,LANDAL,-9.003869586557556,39.307415194135366
pt.ine.add.PTCONT.1984659,R BREJO DA COITA,24A,2500-560,NADADOURO,-9.184048189713842,39.42422446971203
pt.ine.add.PTCONT.1984660,R PRINCIPAL,5,2500-627,SALIR DE MATOS,-9.077628702978815,39.44081821622071
pt.ine.add.PTCONT.1984661,R 1 DE MAIO,14,2500-667,SALIR DO PORTO,-9.152784072785776,39.4973674379962
pt.ine.add.PTCONT.1984662,R PRINCIPAL,28,2500-876,SANTA CATARINA CLD,-9.021867878481663,39.46241475299687
pt.ine.add.PTCONT.1984663,R CAPELA,16,2500-878,SANTA CATARINA CLD,-9.026398238105807,39.46049761458596
pt.ine.add.PTCONT.1984664,R LUMIAO,7,2500-791,SANTA CATARINA CLD,-8.987255778935154,39.43410436213111
pt.ine.add.PTCONT.1984665,R BOA VISTA,5,2500-403,CARVALHAL BENFEITO,-9.051551180925136,39.43995525457749
pt.ine.add.PTCONT.1984666,R QUINTA,1,2500-431,COTO,-9.101853785644769,39.42446971330064
pt.ine.add.PTCONT.1984667,R CAIS,,2500-594,NADADOURO,-9.178705036869294,39.41249171595318
pt.ine.add.PTCONT.1984668,R PRINCIPAL,,2500-632,SALIR DE MATOS,-9.064684963425552,39.44316531440017
pt.ine.add.PTCONT.1984669,R CUCO,14,2500-631,SALIR DE MATOS,-9.08371816826465,39.42392581326657
pt.ine.add.PTCONT.1984670,R GRUTAS,33,2500-675,SALIR DO PORTO,-9.156614517894173,39.49220896266535
pt.ine.add.PTCONT.1984671,R BOA VISTA,10,2500-403,CARVALHAL BENFEITO,-9.051546663417374,39.44049570090023
pt.ine.add.PTCONT.1984672,R VALE DE MOLEIRO,9,2500-508,FOZ DO ARELHO,-9.212255692104568,39.43772853575521
pt.ine.add.PTCONT.1984673,R PRINCIPAL,44,2500-584,NADADOURO,-9.182791519709564,39.41786800693989
pt.ine.add.PTCONT.1984674,R POCA DOS NINHOS,48,2500-567,NADADOURO,-9.195586398308004,39.427704349139944
pt.ine.add.PTCONT.1984675,R TAXEIRA,7,2500-621,SALIR DE MATOS,-9.11010969874576,39.44517940113337
pt.ine.add.PTCONT.1984676,R EIRAS,54,2500-777,SANTA CATARINA CLD,-9.024210166635708,39.458388790207
pt.ine.add.PTCONT.1984677,R BERNARDINO SIMÕES,13 A,2500-138,CALDAS DA RAINHA,-9.132488867303692,39.39027271640646
pt.ine.add.PTCONT.1984678,BC CASEMIROS,6,2500-634,SALIR DE MATOS,-9.08347226207065,39.41266023917409
pt.ine.add.PTCONT.1984679,TV FONTE,2,2500-639,SALIR DE MATOS,-9.094681467273372,39.414666721765116
pt.ine.add.PTCONT.1984680,R PALHANA,14,2500-673,SALIR DO PORTO,-9.15325272278528,39.492049368108006
pt.ine.add.PTCONT.1984681,R CASAL DO MOINHO,19,2500-656,SALIR DO PORTO,-9.149219224057711,39.495255052739836
pt.ine.add.PTCONT.1984682,R DIREITA,17,2500-779,SANTA CATARINA CLD,-9.017037326719272,39.44796857517452
pt.ine.add.PTCONT.1984683,BC CAVADAS,2,2500-553,NADADOURO,-9.198269652574059,39.41858294776708
pt.ine.add.PTCONT.1984684,TV MELQUITES,,2500-633,SALIR DE MATOS,-9.102911212879368,39.44545581348931
pt.ine.add.PTCONT.1984685,R PAIOL,2,2500-869,SANTA CATARINA CLD,-9.016257913540004,39.447884427883146
pt.ine.add.PTCONT.1984686,LG S JACINTO,10,2500-433,COTO,-9.12279818689017,39.4191324761681
pt.ine.add.PTCONT.1984687,R EMIGRANTE,2,2500-478,FOZ DO ARELHO,-9.216485817262488,39.43561765395971
pt.ine.add.PTCONT.1984688,R EMIGRANTE,2,2500-478,FOZ DO ARELHO,-9.216485817262488,39.43561765395971
pt.ine.add.PTCONT.1984689,R EMIGRANTE,2,2500-478,FOZ DO ARELHO,-9.216485817262488,39.43561765395971
pt.ine.add.PTCONT.1984690,R ALTO MARIANO,50,2500-535,LANDAL,-9.008184198125251,39.29824066172559
pt.ine.add.PTCONT.1984691,R ENG LUIS PAIVA E SOUSA,67,2500-576,NADADOURO,-9.189141027367688,39.41848604580229
pt.ine.add.PTCONT.1984692,BC ASSIMOA,2 A,2500-659,SALIR DO PORTO,-9.162043836649383,39.48989134875897
pt.ine.add.PTCONT.1984693,R PROF MONTENEGRO,66,2500-691,SALIR DO PORTO,-9.151495248279007,39.49428943365717
pt.ine.add.PTCONT.1984694,R EMIGRANTE,2,2500-478,FOZ DO ARELHO,-9.216485817262488,39.43561765395971
pt.ine.add.PTCONT.1984695,R IGREJA,8,2500-470,FOZ DO ARELHO,-9.217063830355018,39.43544113991103
pt.ine.add.PTCONT.1984696,R 11 DE AGOSTO,64,2500-541,LANDAL,-9.008955586512975,39.321995490270915
pt.ine.add.PTCONT.1984697,R CANTO,5,2500-633,SALIR DE MATOS,-9.104804641103748,39.44126985511836
pt.ine.add.PTCONT.1984698,BC QUINTA NOVA,4,2500-602,NADADOURO,-9.179483636801963,39.41719527908465
pt.ine.add.PTCONT.1984699,EN 360,83,2500-432,COTO,-9.116322257692445,39.42435732021991
pt.ine.add.PTCONT.1984700,R JOAQUIM ALEXANDRE,14,2500-494,FOZ DO ARELHO,-9.206333417589175,39.43555866414443
pt.ine.add.PTCONT.1984701,BC CASINHAS ALDEAMENTO D DINIS,6,2500-604,NADADOURO,-9.201436216645313,39.41606803142597
pt.ine.add.PTCONT.1984702,BC PATALUGO,3,2500-641,SALIR DE MATOS,-9.093404183005573,39.407895102385545
pt.ine.add.PTCONT.1984703,R VÁRZEAS,4 A,2500-475,FOZ DO ARELHO,-9.205054294362593,39.43546237907487
pt.ine.add.PTCONT.1984704,URB QUINTA DA BOAVISTA,2,2500-605,NADADOURO,-9.200370835276116,39.40788161653716
pt.ine.add.PTCONT.1984705,R CRUZEIRO,,2500-766,SANTA CATARINA CLD,-9.035425106962922,39.46669666867853
pt.ine.add.PTCONT.1984706,R 13 DE MAIO,8 D,2500-486,FOZ DO ARELHO,-9.205062042819852,39.43521011810908
pt.ine.add.PTCONT.1984707,TV VITÓRIA,3,2500-586,NADADOURO,-9.187192135026041,39.4193863896564
pt.ine.add.PTCONT.1984708,R BAIXO,1A,2500-640,SALIR DE MATOS,-9.07641596041611,39.43013694082378
pt.ine.add.PTCONT.1984709,ESTR PALMEIRAS,17,2500-433,COTO,-9.120176052811942,39.4168219841074
pt.ine.add.PTCONT.1986045,R HEROIS DA GRANDE GUERRA,17,2500-215,CALDAS DA RAINHA,-9.135625611284192,39.403133878438716
pt.ine.add.PTCONT.1986046,R VITORINO FROIS,41,2500-256,CALDAS DA RAINHA,-9.145612906672858,39.403642512601756
pt.ine.add.PTCONT.1986049,R ARTUR MALDONADO FREITAS,20,2500-132,CALDAS DA RAINHA,-9.124345680942644,39.40786974725484
pt.ine.add.PTCONT.1986056,R D JOÃO II,47,2500-852,CALDAS DA RAINHA,-9.145533328655155,39.41018217515739
pt.ine.add.PTCONT.1986062,AV ENG MARCELO MORGADO,B,2500-919,CALDAS DA RAINHA,-9.138341692189218,39.41309971215428
pt.ine.add.PTCONT.1986068,R GIL VICENTE,7,2500-850,CALDAS DA RAINHA,-9.147121328929408,39.40919560483504
pt.ine.add.PTCONT.1986078,R DR JOSÉ SAUDADE E SILVA,13,2500-191,CALDAS DA RAINHA,-9.136959466857274,39.40496945867461
pt.ine.add.PTCONT.1986102,R BOAVISTA,3,2500-412,CARVALHAL BENFEITO,-9.062425126085568,39.464538559251565
pt.ine.add.PTCONT.1986130,AV ENG MARCELO MORGADO,6,2500-919,CALDAS DA RAINHA,-9.138341692189218,39.41309971215428
pt.ine.add.PTCONT.1986137,R CENTRAL,31,2500-314,CALDAS DA RAINHA,-9.14402316947694,39.454328669619606
pt.ine.add.PTCONT.1986160,TV APEADEIRO,3,2500-902,SALIR DO PORTO,-9.147821437300713,39.49266432065819
pt.ine.add.PTCONT.1986168,R LUISA SATANELA,2,2500-296,CALDAS DA RAINHA,-9.173962460767799,39.41292154152489
pt.ine.add.PTCONT.1986179,GUISADO,3,2500-643,SALIR DE MATOS,-9.103996536996283,39.44414077064984
pt.ine.add.PTCONT.1986187,R JOAQUIM VASCONCELOS,1,2500-273,CALDAS DA RAINHA,-9.124830591852902,39.39784097586935
pt.ine.add.PTCONT.1986191,R PRINCIPAL,7,2500-359,ALVORNINHA,-9.030904226201772,39.388822208525845
pt.ine.add.PTCONT.1986192,R COR ANDRADA MENDONÇA,17,2500-148,CALDAS DA RAINHA,-9.136403800788697,39.40427171766966
pt.ine.add.PTCONT.1986193,TV ESCOLA,141,2500-304,CALDAS DA RAINHA,-9.140169262905257,39.46584573693743
pt.ine.add.PTCONT.1986194,R CENTRAL,5A,2500-304,CALDAS DA RAINHA,-9.126136442048166,39.46450732256242
pt.ine.add.PTCONT.1986195,R PINHAL,8,2500-304,CALDAS DA RAINHA,-9.135209943200689,39.468446500542136
pt.ine.add.PTCONT.1986196,R CARVALHEIROS,9,2500-304,CALDAS DA RAINHA,-9.136775721120113,39.46581202929033
pt.ine.add.PTCONT.1986209,R MORGADO VALVERDE,28,2500-749,VIDAIS,-9.04891594583536,39.36906471490003
pt.ine.add.PTCONT.1986249,R GIL ALMEIDA REBELO,11,2500-031,A DOS FRANCOS,-9.053647018616337,39.32283055386898
pt.ine.add.PTCONT.1986250,R GIL ALMEIDA REBELO,16,2500-031,A DOS FRANCOS,-9.053655308052969,39.32257829172788
pt.ine.add.PTCONT.1986251,R DIVINO ESPÍRITO SANTO,18,2500-539,LANDAL,-9.022485639410759,39.31536279267328
pt.ine.add.PTCONT.1986265,R DR JOSÉ SAUDADE E SILVA,13,2500-191,CALDAS DA RAINHA,-9.136959466857274,39.40496945867461
pt.ine.add.PTCONT.1986267,TV MESTRES,3,2500-481,FOZ DO ARELHO,-9.216717632697033,39.43633603535503
pt.ine.add.PTCONT.1986268,TV MESTRES,3,2500-481,FOZ DO ARELHO,-9.216717632697033,39.43633603535503
pt.ine.add.PTCONT.1986272,R JOAQUIM VASCONCELOS,1,2500-273,CALDAS DA RAINHA,-9.124830591852902,39.39784097586935
pt.ine.add.PTCONT.1986637,R DR ARTUR FIGUEIROA REGO,53,2500-186,CALDAS DA RAINHA,-9.133169780530565,39.41600846583729
pt.ine.add.PTCONT.1986639,R PRINCIPAL,7,2500-358,ALVORNINHA,-9.0552425363444,39.38864986953296
pt.ine.add.PTCONT.1986640,R PRINCIPAL,6,2500-048,A DOS FRANCOS,-9.043268321402858,39.31567952437485
pt.ine.add.PTCONT.1986644,R OLIVAIS,8,2500-388,ALVORNINHA,-9.0543971870925,39.383504605563985
pt.ine.add.PTCONT.1986647,R MATA FARINHA,18,2500-043,A DOS FRANCOS,-9.061512714469954,39.31869690968122
pt.ine.add.PTCONT.1986649,R 1 CIRCULAR,11,2500-286,CALDAS DA RAINHA,-9.118555086192238,39.40478455652175
pt.ine.add.PTCONT.1986650,R CARREIRA DO GADO,62,2500-286,CALDAS DA RAINHA,-9.113586936566888,39.39738685934109
pt.ine.add.PTCONT.1986654,R PRINCIPAL,7,2500-336,ALVORNINHA,-9.021834725692157,39.4150209047701
pt.ine.add.PTCONT.1986655,LG CAPELA,10,2500-331,ALVORNINHA,-9.01551804138412,39.39107456297603
pt.ine.add.PTCONT.1986656,R S MARTA,17,2500-380,ALVORNINHA,-9.047606459851306,39.40476946428926
pt.ine.add.PTCONT.1986657,R PRINCIPAL,13A,2500-370,ALVORNINHA,-9.026846858745172,39.36920929105802
pt.ine.add.PTCONT.1986660,ESTR CASAL DA PALMEIRA,47,2500-008,A DOS FRANCOS,-9.046572554303953,39.329020067138394
pt.ine.add.PTCONT.1986661,R MOINHOS,1,2500-354,ALVORNINHA,-9.040943153431119,39.3958777919838
pt.ine.add.PTCONT.1986662,R DR ARTUR FIGUEIROA REGO,,2500-187,CALDAS DA RAINHA,-9.13129219143146,39.41706938607748
pt.ine.add.PTCONT.1986663,R REGUEIRINHA,12,2500-040,A DOS FRANCOS,-9.046800101686687,39.323334852105255
pt.ine.add.PTCONT.1986666,R MOINHO VELHO,9,2500-025,A DOS FRANCOS,-9.047264828391034,39.321619868602
pt.ine.add.PTCONT.1986669,BC ESPERANÇA,6,2500-051,A DOS FRANCOS,-9.075566819168312,39.32302442558608
pt.ine.add.PTCONT.1986672,BC POENTE,4,2500-053,A DOS FRANCOS,-9.081440211053668,39.32000440887799
pt.ine.add.PTCONT.1986673,R PICARRAS,17,2500-053,A DOS FRANCOS,-9.081158490645343,39.320610173441345
pt.ine.add.PTCONT.1986674,R MOINHOS,46,2500-357,ALVORNINHA,-9.01593360721444,39.39825894089058
pt.ine.add.PTCONT.1986736,R MARIA ERNESTINA MARTINS PEREIRA,25,2500-234,CALDAS DA RAINHA,-9.130500437947351,39.40225090295585
pt.ine.add.PTCONT.1986737,R OLIVENCA,3,2500-164,CALDAS DA RAINHA,-9.130709349889187,39.407950451796445
pt.ine.add.PTCONT.1986738,TV AGUA QUENTE,3,2500-258,CALDAS DA RAINHA,-9.136701728294453,39.402377708116425
pt.ine.add.PTCONT.1986739,TV AGUA QUENTE,3,2500-258,CALDAS DA RAINHA,-9.136701728294453,39.402377708116425
pt.ine.add.PTCONT.1986740,R RAFAEL BORDALO PINHEIRO,6,2500-246,CALDAS DA RAINHA,-9.132151483677355,39.402425880075704
pt.ine.add.PTCONT.1986741,R ARNALDO FORTES,21,2500-131,CALDAS DA RAINHA,-9.12782685707711,39.39547360927451
pt.ine.add.PTCONT.1986742,R ARNALDO FORTES,21,2500-131,CALDAS DA RAINHA,-9.12782685707711,39.39547360927451
pt.ine.add.PTCONT.1986743,R ARNALDO FORTES,21,2500-131,CALDAS DA RAINHA,-9.12782685707711,39.39547360927451
pt.ine.add.PTCONT.1986744,R CAP FILIPE DE SOUSA,14,2500-140,CALDAS DA RAINHA,-9.132784801554545,39.40528396000279
pt.ine.add.PTCONT.1986745,R ANTONIO MONTEZ,36,2500-129,CALDAS DA RAINHA,-9.13919862969588,39.41051634698959
pt.ine.add.PTCONT.1986746,R ANTONIO MONTEZ,36,2500-129,CALDAS DA RAINHA,-9.13919862969588,39.41051634698959
pt.ine.add.PTCONT.1986747,R ANTONIO MONTEZ,36,2500-129,CALDAS DA RAINHA,-9.13919862969588,39.41051634698959
pt.ine.add.PTCONT.1986748,R ANTONIO MONTEZ,36,2500-129,CALDAS DA RAINHA,-9.13919862969588,39.41051634698959
pt.ine.add.PTCONT.1986749,R ANTONIO MONTEZ,36,2500-129,CALDAS DA RAINHA,-9.13919862969588,39.41051634698959
pt.ine.add.PTCONT.1986750,R ANTONIO MONTEZ,36,2500-129,CALDAS DA RAINHA,-9.13919862969588,39.41051634698959
pt.ine.add.PTCONT.1986751,R ANTONIO MONTEZ,36,2500-129,CALDAS DA RAINHA,-9.13919862969588,39.41051634698959
pt.ine.add.PTCONT.1986752,R ANTONIO MONTEZ,36,2500-129,CALDAS DA RAINHA,-9.13919862969588,39.41051634698959
pt.ine.add.PTCONT.1986753,R ANTONIO MONTEZ,36,2500-129,CALDAS DA RAINHA,-9.13919862969588,39.41051634698959
pt.ine.add.PTCONT.1986754,R ANTONIO MONTEZ,36,2500-129,CALDAS DA RAINHA,-9.13919862969588,39.41051634698959
pt.ine.add.PTCONT.1986755,R ANTONIO MONTEZ,36,2500-129,CALDAS DA RAINHA,-9.13919862969588,39.41051634698959
pt.ine.add.PTCONT.1986756,R ANTONIO MONTEZ,36,2500-129,CALDAS DA RAINHA,-9.13919862969588,39.41051634698959
pt.ine.add.PTCONT.1986757,R ANTONIO MONTEZ,36,2500-129,CALDAS DA RAINHA,-9.13919862969588,39.41051634698959
pt.ine.add.PTCONT.1986758,PCT ANTONIO MONTEZ,36,2500-112,CALDAS DA RAINHA,-9.13919862969588,39.41051634698959
pt.ine.add.PTCONT.1986759,R ANTONIO MONTEZ,36,2500-129,CALDAS DA RAINHA,-9.13919862969588,39.41051634698959
pt.ine.add.PTCONT.1986760,R ANTONIO MONTEZ,36,2500-129,CALDAS DA RAINHA,-9.13919862969588,39.41051634698959
pt.ine.add.PTCONT.1986761,R ANTONIO MONTEZ,36,2500-129,CALDAS DA RAINHA,-9.13919862969588,39.41051634698959
pt.ine.add.PTCONT.1986762,R ANTONIO MONTEZ,36,2500-129,CALDAS DA RAINHA,-9.13919862969588,39.41051634698959
pt.ine.add.PTCONT.1986763,R ANTONIO MONTEZ,36,2500-129,CALDAS DA RAINHA,-9.13919862969588,39.41051634698959
pt.ine.add.PTCONT.1986764,R TRANSMISSOR,19,2500-183,CALDAS DA RAINHA,-9.120560823599675,39.40458741151473
pt.ine.add.PTCONT.1986765,BC JOÃO DE ALMEIDA CABACO,4,2500-090,CALDAS DA RAINHA,-9.136651182624563,39.40371115889164
pt.ine.add.PTCONT.1986766,R BIBLIOTECA MUNICIPAL,24,2500-273,CALDAS DA RAINHA,-9.125335053860017,39.39493646156718
pt.ine.add.PTCONT.1986767,R MIGUEL BOMBARDA,11,2500-238,CALDAS DA RAINHA,-9.135356589223727,39.40492023116914
pt.ine.add.PTCONT.1986768,R ALM GAGO COUTINHO,26,2500-207,CALDAS DA RAINHA,-9.128319380058777,39.40970924515845
pt.ine.add.PTCONT.1986769,R MESTRE MATEUS FERNANDES,,2500-237,CALDAS DA RAINHA,-9.128081791730224,39.40606350179136
pt.ine.add.PTCONT.1986770,R MESTRE MATEUS FERNANDES,,2500-237,CALDAS DA RAINHA,-9.128081791730224,39.40606350179136
pt.ine.add.PTCONT.1986771,R MESTRE MATEUS FERNANDES,,2500-237,CALDAS DA RAINHA,-9.128081791730224,39.40606350179136
pt.ine.add.PTCONT.1986772,TV COVA DA ONCA,24,2500-259,CALDAS DA RAINHA,-9.133914301510695,39.40473449729237
pt.ine.add.PTCONT.1986773,TV COVA DA ONCA,24,2500-259,CALDAS DA RAINHA,-9.133914301510695,39.40473449729237
pt.ine.add.PTCONT.1986774,TV ALM GAGO COUTINHO,15,2500-268,CALDAS DA RAINHA,-9.130499623173234,39.40952844908182
pt.ine.add.PTCONT.1986775,TV ALM GAGO COUTINHO,15,2500-268,CALDAS DA RAINHA,-9.130499623173234,39.40952844908182
pt.ine.add.PTCONT.1986776,TV ALM GAGO COUTINHO,15,2500-268,CALDAS DA RAINHA,-9.130499623173234,39.40952844908182
pt.ine.add.PTCONT.1986777,TV ALM GAGO COUTINHO,15,2500-268,CALDAS DA RAINHA,-9.130499623173234,39.40952844908182
pt.ine.add.PTCONT.1986778,TV ALM GAGO COUTINHO,15,2500-268,CALDAS DA RAINHA,-9.130499623173234,39.40952844908182
pt.ine.add.PTCONT.1986779,TV ALM GAGO COUTINHO,15,2500-268,CALDAS DA RAINHA,-9.130499623173234,39.40952844908182
pt.ine.add.PTCONT.1986780,TV ALM GAGO COUTINHO,15,2500-268,CALDAS DA RAINHA,-9.130499623173234,39.40952844908182
pt.ine.add.PTCONT.1986781,TV ALM GAGO COUTINHO,15,2500-268,CALDAS DA RAINHA,-9.130499623173234,39.40952844908182
pt.ine.add.PTCONT.1986782,TV ALM GAGO COUTINHO,15,2500-268,CALDAS DA RAINHA,-9.130499623173234,39.40952844908182
pt.ine.add.PTCONT.1986783,R FEIRA,21,2500-157,CALDAS DA RAINHA,-9.137356947373961,39.40273232808773
pt.ine.add.PTCONT.1986784,R PRINCIPAL,19,2500-788,SANTA CATARINA CLD,-9.000360402565358,39.43153950419639
pt.ine.add.PTCONT.1986785,R SERRADINHA,2,2500-793,SANTA CATARINA CLD,-9.00616494236926,39.42853281607356
pt.ine.add.PTCONT.1986786,R RAMINAIS,15,2500-712,SERRA DO BOURO,-9.177266502075502,39.453809770490054
pt.ine.add.PTCONT.1986787,R SARG NORTE PEDRO,31,2500-303,CALDAS DA RAINHA,-9.137364446884703,39.43400398713688
pt.ine.add.PTCONT.1986788,R JOSE FULLER,14,2500-815,CALDAS DA RAINHA,-9.144515885673583,39.406462192253784
pt.ine.add.PTCONT.1986789,R JOSE FULLER,14,2500-815,CALDAS DA RAINHA,-9.144515885673583,39.406462192253784
pt.ine.add.PTCONT.1986790,R JOSE FULLER,14,2500-815,CALDAS DA RAINHA,-9.144515885673583,39.406462192253784
pt.ine.add.PTCONT.1986791,R CAPELA,15,2500-793,SANTA CATARINA CLD,-9.005028219949851,39.42678499993407
pt.ine.add.PTCONT.1986792,R FIGUEIRAS,6,2500-712,SERRA DO BOURO,-9.175484410002621,39.45116876330651
pt.ine.add.PTCONT.1986793,R LAVRADIO,22,2500-790,SANTA CATARINA CLD,-9.005422432121856,39.42114373052147
pt.ine.add.PTCONT.1986794,R BICA,21,2500-742,VIDAIS,-9.032475304334772,39.35929428752803
pt.ine.add.PTCONT.1986795,R PINHAL,8,2500-712,SERRA DO BOURO,-9.169993983873109,39.446002925968735
pt.ine.add.PTCONT.1986796,CSL LAVRADIO,7,2500-294,CALDAS DA RAINHA,-9.13293815576495,39.42824173155607
pt.ine.add.PTCONT.1986797,R CALMEIRO,25,2500-743,VIDAIS,-9.083235146170514,39.399467097058206
pt.ine.add.PTCONT.1986798,R CENTRAL,39 A,2500-314,CALDAS DA RAINHA,-9.144785959505288,39.45405183307864
pt.ine.add.PTCONT.1986799,R COMPROMISSO,37,2500-847,CALDAS DA RAINHA,-9.146685131159588,39.410343275043076
pt.ine.add.PTCONT.1986800,R COMPROMISSO,37,2500-847,CALDAS DA RAINHA,-9.146685131159588,39.410343275043076
pt.ine.add.PTCONT.1986801,R VITOR LOPES,4,2500-821,CALDAS DA RAINHA,-9.1403774198498,39.405291181524746
pt.ine.add.PTCONT.1986802,R PRINCIPAL,48,2500-796,SANTA CATARINA CLD,-9.012061154757783,39.431938044818104
pt.ine.add.PTCONT.1986803,R VITOR LOPES,22,2500-821,CALDAS DA RAINHA,-9.141145529179491,39.405419631005174
pt.ine.add.PTCONT.1986804,R VITOR LOPES,22,2500-821,CALDAS DA RAINHA,-9.141145529179491,39.405419631005174
pt.ine.add.PTCONT.1986805,R VITOR LOPES,22,2500-821,CALDAS DA RAINHA,-9.141145529179491,39.405419631005174
pt.ine.add.PTCONT.1986806,R JUNQUEIRA,4,2500-796,SANTA CATARINA CLD,-9.012255300037465,39.4316753781511
pt.ine.add.PTCONT.1986807,R PRINCIPAL,41,2500-794,SANTA CATARINA CLD,-9.02171211279358,39.4263975412127
pt.ine.add.PTCONT.1986808,R VICENTE DA SILVA,12,2500-744,VIDAIS,-9.066218522438652,39.3813388088772
pt.ine.add.PTCONT.1986809,R JOSE LEAL DE OLIVEIRA,,2500-749,VIDAIS,-9.0447093816565,39.36861137013229
pt.ine.add.PTCONT.1986810,R GIL VICENTE,5,2500-850,CALDAS DA RAINHA,-9.147053630483489,39.409331297549066
pt.ine.add.PTCONT.1986811,R GIL VICENTE,5,2500-850,CALDAS DA RAINHA,-9.147053630483489,39.409331297549066
pt.ine.add.PTCONT.1986812,R DR FRANCISCO SA CARNEIRO,,2500-065,SÃO GREGÓRIO CLD,-9.056848979643178,39.352014878653385
pt.ine.add.PTCONT.1986813,R SEIXAL,,2500-065,SÃO GREGÓRIO CLD,-9.029600159715914,39.338591381402395
pt.ine.add.PTCONT.1986814,R JOSE MALHOA,4,2500-715,SERRA DO BOURO,-9.191206142681155,39.45598049587283
pt.ine.add.PTCONT.1986815,R S BARBARA,129,2500-731,VIDAIS,-9.056794532560549,39.36549873709292
pt.ine.add.PTCONT.1986816,R ENG MANUEL DA MAIA,23,2500-856,CALDAS DA RAINHA,-9.147819221729154,39.41248602225706
pt.ine.add.PTCONT.1986817,R GIL VICENTE,5,2500-850,CALDAS DA RAINHA,-9.147053630483489,39.409331297549066
pt.ine.add.PTCONT.1986818,R GIL VICENTE,5,2500-850,CALDAS DA RAINHA,-9.147053630483489,39.409331297549066
pt.ine.add.PTCONT.1986819,R GIL VICENTE,5,2500-850,CALDAS DA RAINHA,-9.147053630483489,39.409331297549066
pt.ine.add.PTCONT.1986820,R GIL VICENTE,5,2500-850,CALDAS DA RAINHA,-9.147053630483489,39.409331297549066
pt.ine.add.PTCONT.1986821,R LIBERDADE,9,2500-314,CALDAS DA RAINHA,-9.138341734472807,39.45754830353005
pt.ine.add.PTCONT.1986822,BC SAPATEIRO,5,2500-303,CALDAS DA RAINHA,-9.146998564094902,39.43838777689957
pt.ine.add.PTCONT.1986823,R MANUEL BERNARDO FRANCISCO BALTAZAR,,2500-743,VIDAIS,-9.101197237191682,39.387916292444594
pt.ine.add.PTCONT.1986824,ESTR FANADIA,27,2500-749,VIDAIS,-9.097961245520388,39.378819176968896
pt.ine.add.PTCONT.1986825,R VASCO DA GAMA,3,2500-714,SERRA DO BOURO,-9.188907780052594,39.45227259054703
pt.ine.add.PTCONT.1986826,R 1 DEZEMBRO,16,2500-314,CALDAS DA RAINHA,-9.140244428257787,39.45816231485577
pt.ine.add.PTCONT.1986827,R VITORINO FROIS,44,2500-256,CALDAS DA RAINHA,-9.144162003614936,39.40366413834109
pt.ine.add.PTCONT.1986828,R VITORINO FROIS,44,2500-256,CALDAS DA RAINHA,-9.144162003614936,39.40366413834109
pt.ine.add.PTCONT.1986831,PCT PADRE MIGUEL AMORIM,2,2500-819,CALDAS DA RAINHA,-9.141612081115797,39.407180929661095
pt.ine.add.PTCONT.1986832,R TOMAS DOS SANTOS,1,2500-254,CALDAS DA RAINHA,-9.146735303838891,39.39696766571026
pt.ine.add.PTCONT.1986840,R AUGUSTO JOSE BAPTISTA,8,2500-804,CALDAS DA RAINHA,-9.144293368651656,39.40632902394926
pt.ine.add.PTCONT.1986841,R VICENTE PARAMOS,13,2500-828,CALDAS DA RAINHA,-9.141648455927623,39.40406424429677
pt.ine.add.PTCONT.1986846,R AFONSO ENES,29,2500-802,CALDAS DA RAINHA,-9.142714244220942,39.40551410939542
pt.ine.add.PTCONT.1986847,R AFONSO ENES,29,2500-802,CALDAS DA RAINHA,-9.142714244220942,39.40551410939542
pt.ine.add.PTCONT.1986848,R AFONSO ENES,29,2500-802,CALDAS DA RAINHA,-9.142714244220942,39.40551410939542
pt.ine.add.PTCONT.1986849,R AFONSO ENES,29,2500-802,CALDAS DA RAINHA,-9.142714244220942,39.40551410939542
pt.ine.add.PTCONT.1986850,R AFONSO ENES,29,2500-802,CALDAS DA RAINHA,-9.142714244220942,39.40551410939542
pt.ine.add.PTCONT.1986851,R AFONSO ENES,29,2500-802,CALDAS DA RAINHA,-9.142714244220942,39.40551410939542
pt.ine.add.PTCONT.1986852,R ANTÓNIO SOUSA JUNIOR,25 B,2500-829,CALDAS DA RAINHA,-9.14503829097919,39.39762192608138
pt.ine.add.PTCONT.1986855,R RAINHA D LEONOR,42,2500-836,CALDAS DA RAINHA,-9.143688853917052,39.39501265890842
pt.ine.add.PTCONT.1986859,R ANTÓNIO JOSE ALVES,15,2500-822,CALDAS DA RAINHA,-9.142413568028505,39.40398555387223
pt.ine.add.PTCONT.1986860,R ANTÓNIO JOSE ALVES,15,2500-822,CALDAS DA RAINHA,-9.142413568028505,39.40398555387223
pt.ine.add.PTCONT.1986861,R ANTÓNIO JOSE ALVES,15,2500-822,CALDAS DA RAINHA,-9.142413568028505,39.40398555387223
pt.ine.add.PTCONT.1986868,R CLAUDINA CHAMICO,6A,2500-823,CALDAS DA RAINHA,-9.141682180515522,39.40479350689244
pt.ine.add.PTCONT.1986890,R VITORINO FROIS,44,2500-256,CALDAS DA RAINHA,-9.144162003614936,39.40366413834109
pt.ine.add.PTCONT.1986891,R VITORINO FROIS,44,2500-256,CALDAS DA RAINHA,-9.144162003614936,39.40366413834109
pt.ine.add.PTCONT.1986892,R VITORINO FROIS,44,2500-256,CALDAS DA RAINHA,-9.144162003614936,39.40366413834109
pt.ine.add.PTCONT.1986893,R VITORINO FROIS,44,2500-256,CALDAS DA RAINHA,-9.144162003614936,39.40366413834109
pt.ine.add.PTCONT.1986894,R VITORINO FROIS,44,2500-256,CALDAS DA RAINHA,-9.144162003614936,39.40366413834109
pt.ine.add.PTCONT.1986895,R VITORINO FROIS,44,2500-256,CALDAS DA RAINHA,-9.144162003614936,39.40366413834109
pt.ine.add.PTCONT.1986896,R VITORINO FROIS,44,2500-256,CALDAS DA RAINHA,-9.144162003614936,39.40366413834109
pt.ine.add.PTCONT.1986897,R VITORINO FROIS,44,2500-256,CALDAS DA RAINHA,-9.144162003614936,39.40366413834109
pt.ine.add.PTCONT.1986898,R VITORINO FROIS,44,2500-256,CALDAS DA RAINHA,-9.144162003614936,39.40366413834109
pt.ine.add.PTCONT.1986899,R VITORINO FROIS,44,2500-256,CALDAS DA RAINHA,-9.144162003614936,39.40366413834109
pt.ine.add.PTCONT.1986900,R TEN ANTÓNIO RODRIGUES FERREIRA,,2500-846,CALDAS DA RAINHA,-9.152734801087286,39.40080619970158
pt.ine.add.PTCONT.1986901,R OUTEIROS DO VALE,20,2500-434,COTO,-9.124424729370041,39.42820651911831
pt.ine.add.PTCONT.1986902,R JOÃO EMILIO DA SILVA,26,2500-493,FOZ DO ARELHO,-9.213599668238917,39.43600477284923
pt.ine.add.PTCONT.1986903,R JOÃO EMILIO DA SILVA,26,2500-493,FOZ DO ARELHO,-9.213599668238917,39.43600477284923
pt.ine.add.PTCONT.1986904,R JOÃO EMILIO DA SILVA,26,2500-493,FOZ DO ARELHO,-9.213599668238917,39.43600477284923
pt.ine.add.PTCONT.1986905,R PRINCIPAL,25,2500-540,LANDAL,-9.00231949611465,39.306760255237464
pt.ine.add.PTCONT.1986906,R BREJO DA COITA,34,2500-560,NADADOURO,-9.182535578047954,39.423256385475035
pt.ine.add.PTCONT.1986907,R PRINCIPAL,11,2500-627,SALIR DE MATOS,-9.07711783644328,39.44169602636159
pt.ine.add.PTCONT.1986908,R CABINE,11,2500-632,SALIR DE MATOS,-9.069975229831302,39.440925152711266
pt.ine.add.PTCONT.1986909,R D FERNANDO,23A,2500-685,SALIR DO PORTO,-9.151650779571762,39.4969810771473
pt.ine.add.PTCONT.1986910,R JOÃO EMILIO DA SILVA,26,2500-493,FOZ DO ARELHO,-9.213599668238917,39.43600477284923
pt.ine.add.PTCONT.1986911,R JOÃO EMILIO DA SILVA,26,2500-493,FOZ DO ARELHO,-9.213599668238917,39.43600477284923
pt.ine.add.PTCONT.1986912,R JOÃO EMILIO DA SILVA,26,2500-493,FOZ DO ARELHO,-9.213599668238917,39.43600477284923
pt.ine.add.PTCONT.1986913,R FONTE,12,2500-469,FOZ DO ARELHO,-9.212760863388185,39.4358414338714
pt.ine.add.PTCONT.1986914,R PADRE FRAZAO,10,2500-690,SALIR DO PORTO,-9.15383768847012,39.495484797326355
pt.ine.add.PTCONT.1986915,R 1 DE NOVEMBRO,69,2500-634,SALIR DE MATOS,-9.077074418026598,39.418683885730054
pt.ine.add.PTCONT.1986916,R PAULINO L SILVA,49,2500-504,FOZ DO ARELHO,-9.213499614105553,39.43930217697404
pt.ine.add.PTCONT.1986917,R JOAQUIM SOARES,14,2500-497,FOZ DO ARELHO,-9.214210209951219,39.4386831141616
pt.ine.add.PTCONT.1986918,BC CASAL NOVO,4,2500-584,NADADOURO,-9.185008704668276,39.42091029157667
pt.ine.add.PTCONT.1986919,R PRINCIPAL,40,2500-584,NADADOURO,-9.183039933667098,39.41817199645824
pt.ine.add.PTCONT.1986920,URB EIRA,5,2500-608,NADADOURO,-9.188658353406492,39.42112941992172
pt.ine.add.PTCONT.1986921,R BAIXO,15,2500-635,SALIR DE MATOS,-9.062722617062567,39.43798407038215
pt.ine.add.PTCONT.1986922,R PRINCIPAL,12,2500-621,SALIR DE MATOS,-9.109989404257243,39.44737807212983
pt.ine.add.PTCONT.1986923,R PROF MONTENEGRO,68,2500-691,SALIR DO PORTO,-9.151766396059644,39.49454825285201
pt.ine.add.PTCONT.1986924,BC FLORES,11,2500-278,CALDAS DA RAINHA,-9.13164578294582,39.389757556385554
pt.ine.add.PTCONT.1986925,R FORNO,5A,2500-432,COTO,-9.116195696692886,39.4252680802352
pt.ine.add.PTCONT.1986926,BC PEDRA DE AGUIA,,2500-606,FOZ DO ARELHO,-9.203086289853706,39.422222519695424
pt.ine.add.PTCONT.1986927,R MINA,1,2500-633,SALIR DE MATOS,-9.096603775619393,39.4319980028899
pt.ine.add.PTCONT.1986928,R AZENHA,18,2500-637,SALIR DE MATOS,-9.094633750702851,39.43232053773124
pt.ine.add.PTCONT.1986929,R CAMPO BOLA,20,2500-407,CARVALHAL BENFEITO,-9.067094015048985,39.46610436388557
pt.ine.add.PTCONT.1986930,R PROF MONTENEGRO,10,2500-691,SALIR DO PORTO,-9.156125585269978,39.489781453248014
pt.ine.add.PTCONT.1986931,R 11 DE AGOSTO,17,2500-541,LANDAL,-9.012731263684815,39.318841574928165
pt.ine.add.PTCONT.1986932,R BREJOEIRA,16,2500-637,SALIR DE MATOS,-9.098668085433074,39.42925181341701
pt.ine.add.PTCONT.1986933,R FRANCISCO ALMEIDA GRANDELA,22,2500-487,FOZ DO ARELHO,-9.214320614619494,39.43680868160723
pt.ine.add.PTCONT.1986934,R FRANCISCO ALMEIDA GRANDELA,22,2500-487,FOZ DO ARELHO,-9.214320614619494,39.43680868160723
pt.ine.add.PTCONT.1986935,R OUTEIRO,30,2500-636,SALIR DE MATOS,-9.080615297257737,39.46748109754121
pt.ine.add.PTCONT.1986936,PCT D LEONOR,15,2500-641,SALIR DE MATOS,-9.105482271896152,39.40729038778213
pt.ine.add.PTCONT.1986937,EN 360,2,2500-770,SANTA CATARINA CLD,-9.02033912837292,39.445421515594404
pt.ine.add.PTCONT.1986938,R LUZEIRAO,9,2500-866,SANTA CATARINA CLD,-9.018562262374678,39.44454337861658
pt.ine.add.PTCONT.1986939,R ROBERTOS,21,2500-600,NADADOURO,-9.186338955855602,39.422879750248306
pt.ine.add.PTCONT.1986940,R PRINCIPAL,51,2500-789,SANTA CATARINA CLD,-8.992243234200277,39.44488488462735
pt.ine.add.PTCONT.1986941,R PRINCIPAL,33,2500-531,LANDAL,-9.006937434848696,39.314507785056094
pt.ine.add.PTCONT.1986942,R PRINCIPAL,5,2500-640,SALIR DE MATOS,-9.086849107817255,39.43040312655476
pt.ine.add.PTCONT.1986943,R CAVADAS,2,2500-789,SANTA CATARINA CLD,-8.991868438071208,39.443689739405876
pt.ine.add.PTCONT.1986944,R PRINCIPAL,9,2500-538,LANDAL,-9.01453896294188,39.30395724916187
pt.ine.add.PTCONT.1986945,R ARROTEIAS,,2500-568,NADADOURO,-9.17009268383611,39.41740547212582
pt.ine.add.PTCONT.1986946,R PRINCIPAL,6,2500-643,SALIR DE MATOS,-9.086792409862955,39.46286415924003
pt.ine.add.PTCONT.1986947,R BELA VISTA,88,2500-432,COTO,-9.118412083960408,39.41607135709342
pt.ine.add.PTCONT.1986948,R PRINCIPAL,56,2500-584,NADADOURO,-9.18053103534053,39.41579880341281
pt.ine.add.PTCONT.1986949,R PRINCIPAL,41,2500-638,SALIR DE MATOS,-9.109330967413088,39.45929058402594
pt.ine.add.PTCONT.1986950,R CIMA,12,2500-640,SALIR DE MATOS,-9.061646908759059,39.43220126065589
pt.ine.add.PTCONT.1986951,BR CARAMUJO,,2500-653,SALIR DO PORTO,-9.145736244045581,39.4971678440888
pt.ine.add.PTCONT.1988195,R CAP LOURENÇO,43D,2500-466,FOZ DO ARELHO,-9.215393240723117,39.43932059786768
pt.ine.add.PTCONT.1988207,R DR FRANCISCO SA CARNEIRO,68,2500-065,SÃO GREGÓRIO CLD,-9.056281378257632,39.35031706407211
pt.ine.add.PTCONT.1988220,R BAIRRO CAPRISTAMOS,11,2500-881,CALDAS DA RAINHA,-9.13261848410002,39.41155481719668
pt.ine.add.PTCONT.1988222,R MANUEL MAFRA,51,2500-825,CALDAS DA RAINHA,-9.142243428786095,39.406680077987396
pt.ine.add.PTCONT.1988227,R MANUEL MAFRA,30,2500-825,CALDAS DA RAINHA,-9.1420240300564,39.40676304263194
pt.ine.add.PTCONT.1988228,R AFONSO ENES,29,2500-802,CALDAS DA RAINHA,-9.142714244220942,39.40551410939542
pt.ine.add.PTCONT.1988231,R PINHAL MANSO,60,2500-767,SANTA CATARINA CLD,-9.069825704454967,39.46877542276655
pt.ine.add.PTCONT.1988238,R ALM GAGO COUTINHO,26A,2500-207,CALDAS DA RAINHA,-9.128319380058777,39.40970924515845
pt.ine.add.PTCONT.1988240,ESTR CASAL DA PALMEIRA,56,2500-008,A DOS FRANCOS,-9.040778593006506,39.3311820426408
pt.ine.add.PTCONT.1988246,R MOIRANA,5,2500-793,SANTA CATARINA CLD,-9.005347999913134,39.42821469723368
pt.ine.add.PTCONT.1988273,R MOINHO,42,2500-345,ALVORNINHA,-9.075340747825903,39.395135936681825
pt.ine.add.PTCONT.1988282,R ALTO NOBRE,49,2500-593,NADADOURO,-9.168325794428323,39.426698224871636
pt.ine.add.PTCONT.1988287,R ANTONIO MONTEZ,36,2500-129,CALDAS DA RAINHA,-9.13919862969588,39.41051634698959
pt.ine.add.PTCONT.1988288,R BREJOEIRA,18,2500-637,SALIR DE MATOS,-9.099274183301654,39.42940890347964
pt.ine.add.PTCONT.1988313,CSL AGUAS SANTAS,,2500-067,CALDAS DA RAINHA,-9.143352327381816,39.407895384427654
pt.ine.add.PTCONT.1988314,CSL AGUAS SANTAS,,2500-067,CALDAS DA RAINHA,-9.143352327381816,39.407895384427654
pt.ine.add.PTCONT.1988315,CSL AGUAS SANTAS,,2500-067,CALDAS DA RAINHA,-9.143352327381816,39.407895384427654
pt.ine.add.PTCONT.1988316,CSL AGUAS SANTAS,,2500-067,CALDAS DA RAINHA,-9.143352327381816,39.407895384427654
pt.ine.add.PTCONT.1988317,CSL AGUAS SANTAS,,2500-067,CALDAS DA RAINHA,-9.143352327381816,39.407895384427654
pt.ine.add.PTCONT.1988318,CSL AGUAS SANTAS,,2500-067,CALDAS DA RAINHA,-9.143352327381816,39.407895384427654
pt.ine.add.PTCONT.1988319,CSL AGUAS SANTAS,,2500-067,CALDAS DA RAINHA,-9.143352327381816,39.407895384427654
pt.ine.add.PTCONT.1988320,CSL AGUAS SANTAS,,2500-067,CALDAS DA RAINHA,-9.143352327381816,39.407895384427654
pt.ine.add.PTCONT.1988321,CSL AGUAS SANTAS,,2500-067,CALDAS DA RAINHA,-9.143352327381816,39.407895384427654
pt.ine.add.PTCONT.1988322,R FRANCISCO ALMEIDA GRANDELA,231,2500-487,FOZ DO ARELHO,-9.194661962788873,39.43183789693179
pt.ine.add.PTCONT.1988332,R DA BARREIRA,16,2500-540,LANDAL,-9.005304069885575,39.3099624621426
pt.ine.add.PTCONT.1988333,R JOÃO EMILIO DA SILVA,26,2500-493,FOZ DO ARELHO,-9.213599668238917,39.43600477284923
pt.ine.add.PTCONT.1988337,R CENTRAL,35,2500-304,CALDAS DA RAINHA,-9.128011806308717,39.46564415890609
pt.ine.add.PTCONT.1988338,R CAPELA,18,2500-304,CALDAS DA RAINHA,-9.135767214189181,39.46517224256413
pt.ine.add.PTCONT.1988339,R CAPELA,20,2500-304,CALDAS DA RAINHA,-9.135602745874525,39.46504756587632
pt.ine.add.PTCONT.1988340,R CASAIS MORGADOS,1,2500-304,CALDAS DA RAINHA,-9.135209791119868,39.46600566976169
pt.ine.add.PTCONT.1988341,R CARVALHEIROS,15,2500-304,CALDAS DA RAINHA,-9.13667878622371,39.46634426483314
pt.ine.add.PTCONT.1988357,R RAMALHO ORTIGÃO,32,2500-247,CALDAS DA RAINHA,-9.130480566982921,39.40737597495211
pt.ine.add.PTCONT.1988358,R ILIDIO AMADO,86,2500-217,CALDAS DA RAINHA,-9.121219432254748,39.395313750775884
pt.ine.add.PTCONT.1988383,R PROF EUGÉNIA NOGUEIRA,14,2500-039,A DOS FRANCOS,-9.045508713084663,39.321228330862496
pt.ine.add.PTCONT.1988386,R ESTAÇÃO,20,2500-156,CALDAS DA RAINHA,-9.139903811854312,39.40788024706913
pt.ine.add.PTCONT.1988387,R ESTAÇÃO,20,2500-156,CALDAS DA RAINHA,-9.139903811854312,39.40788024706913
pt.ine.add.PTCONT.1988388,R SANTO ANTÓNIO,44,2500-065,SÃO GREGÓRIO CLD,-9.0459990515384,39.33842788295322
pt.ine.add.PTCONT.1988415,R REGUEIRINHA,9,2500-040,A DOS FRANCOS,-9.04695271603643,39.32347776640851
pt.ine.add.PTCONT.1988416,R SANTO ANTÓNIO,35,2500-065,SÃO GREGÓRIO CLD,-9.048936227932709,39.34129605407388
pt.ine.add.PTCONT.1988426,R JOÃO EMILIO DA SILVA,26,2500-493,FOZ DO ARELHO,-9.213599668238917,39.43600477284923
pt.ine.add.PTCONT.1988427,R JOÃO EMILIO DA SILVA,26,2500-493,FOZ DO ARELHO,-9.213599668238917,39.43600477284923
pt.ine.add.PTCONT.1988441,BC AUGUSTO OLIVEIRA,2,2500-005,A DOS FRANCOS,-9.054809139646355,39.32301951193806
pt.ine.add.PTCONT.1988442,AV DR CARVALHO PARGANA,12,2500-018,A DOS FRANCOS,-9.056103532812676,39.3209196263523
pt.ine.add.PTCONT.1988443,R EÇA DE QUEIROZ,3,2500-824,CALDAS DA RAINHA,-9.141713435729203,39.40373943425705
pt.ine.add.PTCONT.1988444,R EÇA DE QUEIROZ,3,2500-824,CALDAS DA RAINHA,-9.141713435729203,39.40373943425705
pt.ine.add.PTCONT.1988445,R EÇA DE QUEIROZ,3,2500-824,CALDAS DA RAINHA,-9.141713435729203,39.40373943425705
pt.ine.add.PTCONT.1988446,R EÇA DE QUEIROZ,3,2500-824,CALDAS DA RAINHA,-9.141713435729203,39.40373943425705
pt.ine.add.PTCONT.1988447,R EÇA DE QUEIROZ,3,2500-824,CALDAS DA RAINHA,-9.141713435729203,39.40373943425705
pt.ine.add.PTCONT.1988452,R EÇA DE QUEIROZ,3,2500-824,CALDAS DA RAINHA,-9.141713435729203,39.40373943425705
pt.ine.add.PTCONT.1988458,R DIREITA,28 C,2500-476,FOZ DO ARELHO,-9.210668099811558,39.43570772686019
pt.ine.add.PTCONT.1988459,R DIREITA,28 C,2500-476,FOZ DO ARELHO,-9.210668099811558,39.43570772686019
pt.ine.add.PTCONT.1988460,R DIREITA,28 C,2500-476,FOZ DO ARELHO,-9.210668099811558,39.43570772686019
pt.ine.add.PTCONT.1988855,R CARREIRA GADO,S N,2500-287,CALDAS DA RAINHA,-9.117643246867468,39.40846707641221
pt.ine.add.PTCONT.1988856,R PONTINHA,8,2500-043,A DOS FRANCOS,-9.067986957505022,39.31811367813952
pt.ine.add.PTCONT.1988860,R S MARIA,5,2500-335,ALVORNINHA,-9.047731811774884,39.4179185378549
pt.ine.add.PTCONT.1988861,R PRINCIPAL,3,2500-347,ALVORNINHA,-9.051710956106017,39.41320360453643
pt.ine.add.PTCONT.1988864,R CEMITÉRIO,,2500-351,ALVORNINHA,-9.034201798638815,39.37897915368821
pt.ine.add.PTCONT.1988865,R CESTEIRO,17,2500-351,ALVORNINHA,-9.031331540623153,39.38050550645167
pt.ine.add.PTCONT.1988870,ESTR TRAVESSA LEAIS,41 B,2500-286,CALDAS DA RAINHA,-9.118518486051611,39.404658770463854
pt.ine.add.PTCONT.1988876,R CASAL SALVADOR,26,2500-336,ALVORNINHA,-9.019420478787357,39.417849475807195
pt.ine.add.PTCONT.1988880,R CARREIRA DO GADO,150 C,2500-287,CALDAS DA RAINHA,-9.115605791746258,39.40641272414557
pt.ine.add.PTCONT.1988883,R MOINHO,18,2500-371,ALVORNINHA,-9.013593408940267,39.406950338941215
pt.ine.add.PTCONT.1988886,R GESTEIRA,13,2500-360,ALVORNINHA,-9.012744401455654,39.37817960403898
pt.ine.add.PTCONT.1988887,R REGATO,5,2500-298,CALDAS DA RAINHA,-9.126033344966308,39.41552918997185
pt.ine.add.PTCONT.1988889,R PINHAL,9,2500-360,ALVORNINHA,-9.0090229392586,39.38035133401137
pt.ine.add.PTCONT.1988893,EN 115,16,2500-051,A DOS FRANCOS,-9.073108708187807,39.32045028289044
pt.ine.add.PTCONT.1988895,R CASAL DO HAVER,12,2500-348,ALVORNINHA,-8.992808157138688,39.376464168823524
pt.ine.add.PTCONT.1988899,R ANTÓNIO FILIPE MADEIRA,1B,2500-053,A DOS FRANCOS,-9.079913539997179,39.31772004842855
