id,street,house,postcode,city,lon,lat
pt.ine.add.PTCONT.861032,,,5140-222,POMBAL CRZ,-7.373776192821252,41.2909851246639
pt.ine.add.PTCONT.863862,,,5140-222,POMBAL CRZ,-7.373987723250792,41.291274650216884
pt.ine.add.PTCONT.877197,,,5140-154,LINHARES CRZ,-7.363397667606373,41.204944675111264
pt.ine.add.PTCONT.849383,LOTEAM DO ALTO DO VILARINHO,,5140-095,CARRAZEDA DE ANSIÃES,-7.3112161968548754,41.24373416377803
pt.ine.add.PTCONT.849384,R DE NSA SRA DE FÁTIMA,167,5140-089,CARRAZEDA DE ANSIÃES,-7.311069232749391,41.240230506780996
pt.ine.add.PTCONT.849385,R DE NSA SRA DE FÁTIMA,57,5140-089,CARRAZEDA DE ANSIÃES,-7.310015338505588,41.23961069637639
pt.ine.add.PTCONT.849386,AV AQUILINO RIBEIRO,,5140-058,CARRAZEDA DE ANSIÃES,-7.30478366129001,41.23543127433397
pt.ine.add.PTCONT.849387,R CENTRAL,28,5140-136,CASTANHEIRO,-7.404443197979249,41.232134250394544
pt.ine.add.PTCONT.849388,BC 1 DE MAIO,1,5140-136,CASTANHEIRO,-7.405221523907205,41.231860043777495
pt.ine.add.PTCONT.849389,R DE PARAMBO,10,5140-131,CASTANHEIRO,-7.385904956059079,41.23449158942672
pt.ine.add.PTCONT.849390,R DO CRUZEIRO,90,5140-201,PEREIROS CRZ,-7.313654243757099,41.3301995679289
pt.ine.add.PTCONT.849391,R CÂNDIDO DOS REIS,,5140-202,PEREIROS CRZ,-7.29738060648043,41.31556809417354
pt.ine.add.PTCONT.849392,R AUGUSTO MARTINS,,5140-203,PINHAL DO NORTE,-7.352602446020609,41.32264579662451
pt.ine.add.PTCONT.849393,,,5140-203,PINHAL DO NORTE,-7.355915361501564,41.33031262433635
pt.ine.add.PTCONT.849394,R DA CARREIRA,,5140-233,SEIXO DE ANSIÃES,-7.264240491147741,41.188562927046036
pt.ine.add.PTCONT.849395,R DO OLMO,,5140-252,SELORES,-7.292615841044632,41.20479197697208
pt.ine.add.PTCONT.849396,R 22 DE JULHO,,5140-286,VILARINHO DA CASTANHEIRA,-7.2154593506611535,41.20866904769669
pt.ine.add.PTCONT.849397,R 22 DE JULHO,,5140-286,VILARINHO DA CASTANHEIRA,-7.216079409246904,41.208664983080666
pt.ine.add.PTCONT.849616,BC DO MARQUES,,5140-031,BELVER CRZ,-7.261668476234944,41.26112590035305
pt.ine.add.PTCONT.849614,AV PRINCIPAL,,5140-021,BEIRA GRANDE,-7.277808682856724,41.185522025400665
pt.ine.add.PTCONT.849615,R DO LOBATO,,5140-031,BELVER CRZ,-7.25585835058139,41.264611375687046
pt.ine.add.PTCONT.849617,BR DO REBOREDO,,5140-032,BELVER CRZ,-7.290910535620057,41.24757624926416
pt.ine.add.PTCONT.849618,R LUIS DE CAMOES,,5140-080,CARRAZEDA DE ANSIÃES,-7.29853700522563,41.24639821880651
pt.ine.add.PTCONT.849619,QTA DO TUA,,5140-133,CASTANHEIRO,-7.428354411984953,41.211339321482725
pt.ine.add.PTCONT.849620,R DA PRAÇA,,5140-142,FONTE LONGA CRZ,-7.263100382996734,41.22964934626999
pt.ine.add.PTCONT.849621,R DA CARREIRA BRANCA,,5140-144,LAVANDEIRA,-7.303184957830697,41.19583742507556
pt.ine.add.PTCONT.849622,R DO JARDIM,,5140-144,LAVANDEIRA,-7.299240790226726,41.1928915718321
pt.ine.add.PTCONT.849623,R NOVA,,5140-144,LAVANDEIRA,-7.302695281136774,41.19402405034137
pt.ine.add.PTCONT.849624,R DO ARRABALDE DAS EIRAS,,5140-154,LINHARES CRZ,-7.366468901161552,41.20739629730059
pt.ine.add.PTCONT.849645,R DAS FLORES,85,5140-012,AMEDO,-7.324930049902438,41.27705640365599
pt.ine.add.PTCONT.849646,R DO SENHOR DOS AFLITOS,101,5140-098,CARRAZEDA DE ANSIÃES,-7.300141845001413,41.244969180601295
pt.ine.add.PTCONT.849647,R JERÓNIMO BARBOSA,,5140-077,CARRAZEDA DE ANSIÃES,-7.305864979706721,41.24332667106785
pt.ine.add.PTCONT.849648,R JERÓNIMO BARBOSA,,5140-077,CARRAZEDA DE ANSIÃES,-7.305960293119578,41.24333635997093
pt.ine.add.PTCONT.849649,R CAMÕES,6,5140-152,LINHARES CRZ,-7.353135415428246,41.1705425000748
pt.ine.add.PTCONT.849650,LG DA IGREJA,,5140-162,MARZAGÃO,-7.319452809195678,41.21060333724448
pt.ine.add.PTCONT.849651,BC MANUEL DE M MAGALHÃES BORGES,,5140-182,PARAMBOS,-7.361795634292946,41.23779921194716
pt.ine.add.PTCONT.849652,R DA RELVA,4,5140-222,POMBAL CRZ,-7.3544545657716425,41.28443614482558
pt.ine.add.PTCONT.849653,R DO CANTO DO LOUREIRO,8,5140-222,POMBAL CRZ,-7.359506127613745,41.28323664353178
pt.ine.add.PTCONT.849654,R DO SALGUEIRO,,5140-221,POMBAL CRZ,-7.356495291395245,41.26736015949921
pt.ine.add.PTCONT.849655,R DA ESCOLA,,5140-221,POMBAL CRZ,-7.355286894965154,41.263597287743245
pt.ine.add.PTCONT.849656,QTA DO BARRABÁZ,,5140-222,POMBAL CRZ,-7.389852522871177,41.27979892001222
pt.ine.add.PTCONT.849657,R DO PICO,,5140-279,VILARINHO DA CASTANHEIRA,-7.2142668088233135,41.20357218933866
pt.ine.add.PTCONT.849658,R DO AREAL,,5140-278,VILARINHO DA CASTANHEIRA,-7.2146327433999975,41.20298083391118
pt.ine.add.PTCONT.849659,R DA CORÔA DA LAMEIRA,,5140-279,VILARINHO DA CASTANHEIRA,-7.217299611423686,41.201534394956774
pt.ine.add.PTCONT.849660,LG DA FEIRA,,5140-279,VILARINHO DA CASTANHEIRA,-7.215404950745463,41.20317607778789
pt.ine.add.PTCONT.849661,R DE STO ANTÓNIO,,5140-276,VILARINHO DA CASTANHEIRA,-7.214763153459118,41.20218050347812
pt.ine.add.PTCONT.850084,R DO ARRABALDE,7,5140-205,PINHAL DO NORTE,-7.339744512779314,41.29755367500086
pt.ine.add.PTCONT.850087,R LUIS CAMOES,44,5140-080,CARRAZEDA DE ANSIÃES,-7.29853700522563,41.24639821880651
pt.ine.add.PTCONT.850100,R VASCO DA GAMA,,5140-102,CARRAZEDA DE ANSIÃES,-7.30249677816617,41.24270814924221
pt.ine.add.PTCONT.850159,R DA PEREIRA,,5140-162,MARZAGÃO,-7.320520593057844,41.21007062594032
pt.ine.add.PTCONT.850267,R DAS EIRAS,,5140-154,LINHARES CRZ,-7.365728718742001,41.208498884053235
pt.ine.add.PTCONT.850249,LG DA IGREJA,,5140-021,BEIRA GRANDE,-7.278170081104953,41.18522756987316
pt.ine.add.PTCONT.850250,R DO JARDIM,,5140-144,LAVANDEIRA,-7.299154727790268,41.193098045355214
pt.ine.add.PTCONT.850251,R DA PORTELA,,5140-201,PEREIROS CRZ,-7.313005554041297,41.32953765556882
pt.ine.add.PTCONT.850252,R DA EIRA VELHA,,5140-270,VILARINHO DA CASTANHEIRA,-7.2231643835055115,41.16801325511897
pt.ine.add.PTCONT.850255,R DA PORTELA,4,5140-021,BEIRA GRANDE,-7.279370869820645,41.183624723723696
pt.ine.add.PTCONT.850256,R CAP LOBO,,5140-063,CARRAZEDA DE ANSIÃES,-7.30066624856297,41.24500898976995
pt.ine.add.PTCONT.850257,R CAP LOBO,4,5140-063,CARRAZEDA DE ANSIÃES,-7.30066624856297,41.24500898976995
pt.ine.add.PTCONT.850258,R CAP LOBO,,5140-063,CARRAZEDA DE ANSIÃES,-7.30066624856297,41.24500898976995
pt.ine.add.PTCONT.850259,R DE S JOÃO BAPTISTA,,5140-162,MARZAGÃO,-7.319705755837108,41.209434580192834
pt.ine.add.PTCONT.850260,R 25 DE ABRIL,25,5140-202,PEREIROS CRZ,-7.299131296489157,41.31501353934494
pt.ine.add.PTCONT.850261,R DO CEMITÉRIO,,5140-252,SELORES,-7.2903787440918935,41.20259661445482
pt.ine.add.PTCONT.850262,R LUIS DE CAMÕES,,5140-080,CARRAZEDA DE ANSIÃES,-7.303558706486555,41.24363422636245
pt.ine.add.PTCONT.850263,R DE NSA SRA DE FÁTIMA,145,5140-089,CARRAZEDA DE ANSIÃES,-7.310856111882743,41.240102927094036
pt.ine.add.PTCONT.850265,R LUIS DE CAMÕES,1905,5140-080,CARRAZEDA DE ANSIÃES,-7.315089473886697,41.23638735907804
pt.ine.add.PTCONT.850266,R DAS FIGUEIRAS,,5140-154,LINHARES CRZ,-7.363527116943054,41.2050896075567
pt.ine.add.PTCONT.850268,R DA SENHORA DA FÉ,,5140-286,VILARINHO DA CASTANHEIRA,-7.2142731374966464,41.20738099880063
pt.ine.add.PTCONT.850269,R DOS BOMBEIROS VOLUNTÁRIOS,88,5140-060,CARRAZEDA DE ANSIÃES,-7.3075750427605275,41.24299678796775
pt.ine.add.PTCONT.850270,AV DE STA CATARINA,,5140-171,MOGO DE MALTA,-7.259858107347195,41.26803632239704
pt.ine.add.PTCONT.850271,BC DO FONTANÁRIO DO CANTO,,5140-203,PINHAL DO NORTE,-7.351666593032107,41.3229996073792
pt.ine.add.PTCONT.850273,R DO CANTO,,5140-154,LINHARES CRZ,-7.362331348297459,41.20640522821011
pt.ine.add.PTCONT.850274,R DA FONTAINHA,,5140-280,VILARINHO DA CASTANHEIRA,-7.214923517882654,41.20520718041369
pt.ine.add.PTCONT.850277,R DOS REBELOS,1,5140-182,PARAMBOS,-7.363253339215435,41.23657539833452
pt.ine.add.PTCONT.850278,R MARECHAL GOMES DA COSTA,686,5140-083,CARRAZEDA DE ANSIÃES,-7.306593415438072,41.23758726484788
pt.ine.add.PTCONT.850282,R MARECHAL GOMES DA COSTA,,5140-032,BELVER CRZ,-7.276188141956239,41.2467022653412
pt.ine.add.PTCONT.850283,R DO CARDAL,415,5140-064,CARRAZEDA DE ANSIÃES,-7.3110405378208645,41.23680872927171
pt.ine.add.PTCONT.850285,R DO OURO,,5140-152,LINHARES CRZ,-7.353661609326565,41.17038398565884
pt.ine.add.PTCONT.850286,R DR JOSÉ DE FREITAS,,5140-181,PARAMBOS,-7.348406323014829,41.2332786965265
pt.ine.add.PTCONT.850287,R DE S BARTOLOMEU,,5140-205,PINHAL DO NORTE,-7.340332053359454,41.2963601833575
pt.ine.add.PTCONT.850288,R DA LAMEIRA,,5140-233,SEIXO DE ANSIÃES,-7.26469033535108,41.19060126907354
pt.ine.add.PTCONT.850289,R DO ARIEIRO,,5140-233,SEIXO DE ANSIÃES,-7.2651946965046195,41.18941651698225
pt.ine.add.PTCONT.850290,R DO CASTELO,,5140-279,VILARINHO DA CASTANHEIRA,-7.215086076371767,41.203812831643994
pt.ine.add.PTCONT.850291,LG DO PAÇO,71,5140-011,AMEDO,-7.324523491477644,41.258739214771474
pt.ine.add.PTCONT.850292,R DE NSA SRA DA GRAÇA,,5140-120,CARRAZEDA DE ANSIÃES,-7.301711591838362,41.25571343452666
pt.ine.add.PTCONT.850293,R DE STO ANTÓNIO,,5140-095,CARRAZEDA DE ANSIÃES,-7.3076510313678,41.24264617167545
pt.ine.add.PTCONT.850294,R 22 DE JULHO,,5140-286,VILARINHO DA CASTANHEIRA,-7.214108390682928,41.204669432753796
pt.ine.add.PTCONT.850295,R DA PADARIA,,5140-284,VILARINHO DA CASTANHEIRA,-7.213027040169996,41.20356229041324
pt.ine.add.PTCONT.850299,R DA CEREZADA,5,5140-144,LAVANDEIRA,-7.300657861106014,41.19582818980135
pt.ine.add.PTCONT.850300,R DA ALEGRIA,2,5140-233,SEIXO DE ANSIÃES,-7.266585475749286,41.18970612011407
pt.ine.add.PTCONT.850301,R 22 DE JULHO,,5140-286,VILARINHO DA CASTANHEIRA,-7.214067853591088,41.202454085592144
pt.ine.add.PTCONT.850303,R DO MOINHO DE VENTO,,5140-086,CARRAZEDA DE ANSIÃES,-7.298518903203815,41.2478207387943
pt.ine.add.PTCONT.850304,R DO LOUREIRO,27,5140-233,SEIXO DE ANSIÃES,-7.266758575844795,41.188329779711516
pt.ine.add.PTCONT.850306,BC DO SOALHEIRO,6,5140-131,CASTANHEIRO,-7.384575809577908,41.23389768566181
pt.ine.add.PTCONT.850780,R DA BOAVISTA,,5140-152,LINHARES CRZ,-7.353428626600263,41.172948621073694
pt.ine.add.PTCONT.850782,R DO OLMO,,5140-279,VILARINHO DA CASTANHEIRA,-7.2145775064862185,41.20352064304218
pt.ine.add.PTCONT.850800,R DA REGADA,,5140-171,MOGO DE MALTA,-7.260512848733668,41.26815833997672
pt.ine.add.PTCONT.850872,AV AQUILINO RIBEIRO,559,5140-058,CARRAZEDA DE ANSIÃES,-7.304706160400863,41.23873523571355
pt.ine.add.PTCONT.850876,LG DO TERREIRO,5,5140-205,PINHAL DO NORTE,-7.339825633948014,41.296770881142024
pt.ine.add.PTCONT.851021,LOTEAM DO ALTO DO VILARINHO,,5140-095,CARRAZEDA DE ANSIÃES,-7.310143020085743,41.24274504774936
pt.ine.add.PTCONT.851022,QTA DO SOUTO,,5140-161,MARZAGÃO,-7.31970489546596,41.232602298403926
pt.ine.add.PTCONT.851023,TV DO CALVÁRIO,,5140-222,POMBAL CRZ,-7.355549929243405,41.280652829450105
pt.ine.add.PTCONT.851024,LOTEAM PANORAMA,,5140-123,CARRAZEDA DE ANSIÃES,-7.311392809422649,41.24201563517236
pt.ine.add.PTCONT.851025,LOTEAM PANORAMA,,5140-123,CARRAZEDA DE ANSIÃES,-7.311392809422649,41.24201563517236
pt.ine.add.PTCONT.851026,R DAS ADEGAS,,5140-270,VILARINHO DA CASTANHEIRA,-7.222263749327627,41.16765497156707
pt.ine.add.PTCONT.851027,LG DO EITÃO,,5140-270,VILARINHO DA CASTANHEIRA,-7.223257748904936,41.167293655185546
pt.ine.add.PTCONT.851029,LOTEAM PANORAMA,,5140-123,CARRAZEDA DE ANSIÃES,-7.311392809422649,41.24201563517236
pt.ine.add.PTCONT.851030,LOTEAM PANORAMA,,5140-123,CARRAZEDA DE ANSIÃES,-7.311392809422649,41.24201563517236
pt.ine.add.PTCONT.851031,LOTEAM PANORAMA,,5140-123,CARRAZEDA DE ANSIÃES,-7.311392809422649,41.24201563517236
pt.ine.add.PTCONT.851032,LOTEAM PANORAMA,,5140-123,CARRAZEDA DE ANSIÃES,-7.311392809422649,41.24201563517236
pt.ine.add.PTCONT.851033,LOTEAM PANORAMA,,5140-123,CARRAZEDA DE ANSIÃES,-7.311392809422649,41.24201563517236
pt.ine.add.PTCONT.851034,LOTEAM PANORAMA,,5140-123,CARRAZEDA DE ANSIÃES,-7.311392809422649,41.24201563517236
pt.ine.add.PTCONT.851035,R DA CARVALHA,,5140-252,SELORES,-7.292758437931383,41.201101300740774
pt.ine.add.PTCONT.851037,R DA COSTA,4,5140-021,BEIRA GRANDE,-7.278337071434117,41.1843013756701
pt.ine.add.PTCONT.851038,TV DA FONTE,1,5140-300,ZEDES,-7.30157486261758,41.28059975221366
pt.ine.add.PTCONT.851048,R DR JOÃO TRIGO MOUTINHO,,5140-171,MOGO DE MALTA,-7.258757654592396,41.26822605952598
pt.ine.add.PTCONT.851049,R DA FONTE,,5140-224,RIBALONGA CRZ,-7.390033241823574,41.221741377971604
pt.ine.add.PTCONT.851050,R DA SENHORA DA FÉ,,5140-286,VILARINHO DA CASTANHEIRA,-7.214199512202223,41.20667808714556
pt.ine.add.PTCONT.851052,R MARECHAL GOMES DA COSTA,747,5140-083,CARRAZEDA DE ANSIÃES,-7.306062247134445,41.237142247914036
pt.ine.add.PTCONT.851053,R DA CANENHA DE BAIXO,,5140-224,RIBALONGA CRZ,-7.390319230539421,41.221761231508104
pt.ine.add.PTCONT.851058,BR DA TELHEIRA,,5140-108,CARRAZEDA DE ANSIÃES,-7.311832991247634,41.238300067552856
pt.ine.add.PTCONT.851059,,,5140-154,LINHARES CRZ,-7.363243109413901,41.20490762512726
pt.ine.add.PTCONT.851060,R DO VALE,7,5140-205,PINHAL DO NORTE,-7.339712953011183,41.29720229928112
pt.ine.add.PTCONT.851061,R MARECHAL GOMES DA COSTA,,5140-083,CARRAZEDA DE ANSIÃES,-7.3056140044479685,41.23579741047516
pt.ine.add.PTCONT.851062,R DAS EIRAS,,5140-142,FONTE LONGA CRZ,-7.261676765685063,41.23087214742669
pt.ine.add.PTCONT.851064,EN 214,1,5140-182,PARAMBOS,-7.364432844773551,41.23262144822829
pt.ine.add.PTCONT.851067,R DA ESCOLA,,5140-181,PARAMBOS,-7.347858491703953,41.23520185110806
pt.ine.add.PTCONT.851068,R CENTRAL,57,5140-136,CASTANHEIRO,-7.405303312255645,41.232013631753
pt.ine.add.PTCONT.851069,BC 1 DE MAIO,7,5140-136,CASTANHEIRO,-7.405542942220794,41.2319161002234
pt.ine.add.PTCONT.851070,R DO OUTEIRO,,5140-181,PARAMBOS,-7.348879227901395,41.23163415732342
pt.ine.add.PTCONT.851071,R DAS OLIVEIRAS,43,5140-011,AMEDO,-7.327382340038162,41.259137430417184
pt.ine.add.PTCONT.851072,R DAS GINGEIRAS,,5140-161,MARZAGÃO,-7.328496929703377,41.23637378194545
pt.ine.add.PTCONT.851073,R 25 DE ABRIL,,5140-222,POMBAL CRZ,-7.358564903826393,41.28308624922584
pt.ine.add.PTCONT.851074,R DO CRUZEIRO,84,5140-011,AMEDO,-7.3242047474290946,41.25749440821031
pt.ine.add.PTCONT.851075,R DO CAMPO DA BOLA,,5140-144,LAVANDEIRA,-7.304715678997141,41.19545226126937
pt.ine.add.PTCONT.851078,TV DO PAREDÃO,1,5140-131,CASTANHEIRO,-7.3840479392734455,41.233119894459314
pt.ine.add.PTCONT.851079,R DA PRAÇA,,5140-233,SEIXO DE ANSIÃES,-7.266000241928637,41.186181072137124
pt.ine.add.PTCONT.851080,R DR FRANCISCO SÁ CARNEIRO,10,5140-068,CARRAZEDA DE ANSIÃES,-7.3069208487703845,41.24000272348759
pt.ine.add.PTCONT.851081,R DO ALTO DA CRUZ,,5140-161,MARZAGÃO,-7.3168857704587245,41.23486039811604
pt.ine.add.PTCONT.851082,R DA MINA,80,5140-201,PEREIROS CRZ,-7.313489958596272,41.32996429415131
pt.ine.add.PTCONT.851817,R DO ADRO,,5140-252,SELORES,-7.293247032134784,41.20391417191357
pt.ine.add.PTCONT.851604,R 22 DE JULHO,,5140-286,VILARINHO DA CASTANHEIRA,-7.213899355625861,41.20427158132656
pt.ine.add.PTCONT.851617,R DA FRAGA,,5140-276,VILARINHO DA CASTANHEIRA,-7.213487595444622,41.20302571958984
pt.ine.add.PTCONT.851619,R DO FUNDO DO POVO,,5140-161,MARZAGÃO,-7.327851992329359,41.23449641045106
pt.ine.add.PTCONT.851624,R 25 DE ABRIL,,5140-222,POMBAL CRZ,-7.358899760552118,41.284042934550484
pt.ine.add.PTCONT.851638,R DO SALGUEIRO,,5140-221,POMBAL CRZ,-7.356337282658689,41.26760220439012
pt.ine.add.PTCONT.851645,R DO CABO,,5140-151,LINHARES CRZ,-7.346614037420846,41.21960714594147
pt.ine.add.PTCONT.851679,R DA ENCOSTA DO SERRO,1,5140-136,CASTANHEIRO,-7.4071162277021605,41.233096573328375
pt.ine.add.PTCONT.851811,R PRINCIPAL,,5140-221,POMBAL CRZ,-7.355322624342526,41.26561445005318
pt.ine.add.PTCONT.851813,R JOÃO DA CRUZ,69,5140-078,CARRAZEDA DE ANSIÃES,-7.303511391633328,41.24548873560956
pt.ine.add.PTCONT.851814,R DO ADRO,,5140-144,LAVANDEIRA,-7.3007514483296445,41.19314561375544
pt.ine.add.PTCONT.851815,R 5 DE OUTUBRO,10,5140-202,PEREIROS CRZ,-7.298747105513515,41.316109244997016
pt.ine.add.PTCONT.851816,R CÂNDIDO DOS REIS,,5140-202,PEREIROS CRZ,-7.298196757653704,41.316186290333114
pt.ine.add.PTCONT.851818,R LARGA,,5140-270,VILARINHO DA CASTANHEIRA,-7.222889153003744,41.167236717475596
pt.ine.add.PTCONT.851819,R LARGA,,5140-270,VILARINHO DA CASTANHEIRA,-7.222830079963677,41.16720023373261
pt.ine.add.PTCONT.851821,R PRINCIPAL,,5140-151,LINHARES CRZ,-7.34151869079287,41.22185929158094
pt.ine.add.PTCONT.851830,R DO ALTO,,5140-154,LINHARES CRZ,-7.362969840136513,41.20787718494156
pt.ine.add.PTCONT.851832,EN 214,,5140-031,BELVER CRZ,-7.257316328671781,41.263559994443
pt.ine.add.PTCONT.851833,R DA PRAÇA,,5140-031,BELVER CRZ,-7.2608801837449715,41.26297477268515
pt.ine.add.PTCONT.851834,R DA CAPELA,,5140-143,FONTE LONGA CRZ,-7.246715891922106,41.24266139561279
pt.ine.add.PTCONT.851835,TV DO LOUREIRO,,5140-281,VILARINHO DA CASTANHEIRA,-7.21404273840961,41.20510110843392
pt.ine.add.PTCONT.851836,R DA MORADA,,5140-300,ZEDES,-7.305987799539152,41.279929226005045
pt.ine.add.PTCONT.851837,R DAS OLIVEIRAS,4,5140-300,ZEDES,-7.302785038074995,41.279293892771925
pt.ine.add.PTCONT.851842,EM 627,,5140-032,BELVER CRZ,-7.277853866973927,41.24887563826902
pt.ine.add.PTCONT.851843,BR DA TELHEIRA,150,5140-108,CARRAZEDA DE ANSIÃES,-7.312110139876725,41.238076940595725
pt.ine.add.PTCONT.851845,LG DA JUNTA,,5140-032,BELVER CRZ,-7.276675345448149,41.24684995629263
pt.ine.add.PTCONT.851846,R DA ESCOLA,,5140-142,FONTE LONGA CRZ,-7.263721474481332,41.23048241807305
pt.ine.add.PTCONT.851847,R DA VITÓRIA,,5140-182,PARAMBOS,-7.362817314123229,41.236122274333006
pt.ine.add.PTCONT.851848,R DO CASTELO,,5140-279,VILARINHO DA CASTANHEIRA,-7.215281339779408,41.20349023830717
pt.ine.add.PTCONT.851849,AV AQUILINO RIBEIRO,,5140-058,CARRAZEDA DE ANSIÃES,-7.304504984419478,41.23860773021404
pt.ine.add.PTCONT.851850,R DO CABEÇO,,5140-142,FONTE LONGA CRZ,-7.260914900674646,41.228966506159395
pt.ine.add.PTCONT.851851,R DA ESCOLA,,5140-152,LINHARES CRZ,-7.3516317347518605,41.17073040092718
pt.ine.add.PTCONT.851852,R DO CALVÁRIO,,5140-233,SEIXO DE ANSIÃES,-7.26600222055615,41.190548124778196
pt.ine.add.PTCONT.851854,R DA BARROCA,61,5140-011,AMEDO,-7.3228499175449135,41.259952007620115
pt.ine.add.PTCONT.851855,R LUIS DE CAMÕES,,5140-080,CARRAZEDA DE ANSIÃES,-7.3048226733462895,41.242733909098504
pt.ine.add.PTCONT.851856,R CENTRAL,27,5140-136,CASTANHEIRO,-7.40359680896381,41.2320928744193
pt.ine.add.PTCONT.851858,R DO LOUREIRO,51,5140-011,AMEDO,-7.324797354678073,41.25878615841613
pt.ine.add.PTCONT.851859,R DO FERREIRO,,5140-152,LINHARES CRZ,-7.352425521270338,41.17011449046317
pt.ine.add.PTCONT.851860,QTA DA PORTELINHA,,5140-161,MARZAGÃO,-7.327027968318798,41.23846147318461
pt.ine.add.PTCONT.851861,R 25 DE ABRIL,,5140-222,POMBAL CRZ,-7.358529841823515,41.283022984727545
pt.ine.add.PTCONT.851862,R DA CARREIRA,10,5140-233,SEIXO DE ANSIÃES,-7.264108318460058,41.188642967590326
pt.ine.add.PTCONT.851866,R MARECHAL GOMES DA COSTA,,5140-083,CARRAZEDA DE ANSIÃES,-7.30548849593934,41.2410189078747
pt.ine.add.PTCONT.851867,R DO CABO DO POVO,,5140-161,MARZAGÃO,-7.332726423348273,41.232873632988984
pt.ine.add.PTCONT.851869,R LUIS DE CAMÕES,,5140-161,MARZAGÃO,-7.3188035376459855,41.23507206813015
pt.ine.add.PTCONT.852369,R DE S JOÃO BAPTISTA,,5140-162,MARZAGÃO,-7.319636887988283,41.21018144109456
pt.ine.add.PTCONT.852376,R LARGA,,5140-270,VILARINHO DA CASTANHEIRA,-7.2228500457055755,41.16747952233351
pt.ine.add.PTCONT.852386,R DO CARRIL,,5140-120,CARRAZEDA DE ANSIÃES,-7.299229674319536,41.26041363601013
pt.ine.add.PTCONT.852399,R AUGUSTO MARTINS,48,5140-203,PINHAL DO NORTE,-7.3512688144336105,41.32330304269061
pt.ine.add.PTCONT.852417,R DO CAMPO DE AVIAÇÃO,,5140-061,CARRAZEDA DE ANSIÃES,-7.313759973674412,41.24064586801095
pt.ine.add.PTCONT.852488,TV DOS CABEÇOS,4,5140-136,CASTANHEIRO,-7.403252895132449,41.232367967746725
pt.ine.add.PTCONT.852505,R DO CABO,,5140-151,LINHARES CRZ,-7.347357647000173,41.21925205537114
pt.ine.add.PTCONT.852611,LOTEAM DO ALTO DO VILARINHO,,5140-095,CARRAZEDA DE ANSIÃES,-7.309659046921383,41.24233640151293
pt.ine.add.PTCONT.852612,R CÂNDIDO DOS REIS,,5140-202,PEREIROS CRZ,-7.299190214104593,41.31694982965442
pt.ine.add.PTCONT.852613,R DA BELA VISTA,,5140-222,POMBAL CRZ,-7.353576682648493,41.28197208903435
pt.ine.add.PTCONT.852614,CAIS FLUVIAL,,5140-231,SEIXO DE ANSIÃES,-7.258087618792663,41.145755246497636
pt.ine.add.PTCONT.852617,R DO FUNDO DO POVO,,5140-151,LINHARES CRZ,-7.3476074810666905,41.22029824454989
pt.ine.add.PTCONT.852618,R LARGA,,5140-270,VILARINHO DA CASTANHEIRA,-7.2229240237109105,41.167300022588016
pt.ine.add.PTCONT.852619,R DA PORTELA,8,5140-021,BEIRA GRANDE,-7.279539584725472,41.18348190687125
pt.ine.add.PTCONT.852620,LG DA CARVALHA,,5140-252,SELORES,-7.291908221044008,41.20046479995703
pt.ine.add.PTCONT.852621,R DA CAPELA,,5140-203,PINHAL DO NORTE,-7.351390396469236,41.32412323425552
pt.ine.add.PTCONT.852622,TV DA FONTE,2,5140-300,ZEDES,-7.301730247963697,41.28058286636505
pt.ine.add.PTCONT.852623,BC DO FONTANÁRIO DO CANTO,,5140-203,PINHAL DO NORTE,-7.351211036325855,41.32314057784043
pt.ine.add.PTCONT.852624,R AUGUSTO MARTINS,,5140-203,PINHAL DO NORTE,-7.351761061700186,41.32309028892863
pt.ine.add.PTCONT.852625,R DA URRACA,,5140-283,VILARINHO DA CASTANHEIRA,-7.214297320598153,41.205652393667975
pt.ine.add.PTCONT.852626,R DA CARREIRA,,5140-300,ZEDES,-7.300980736160322,41.280388365480476
pt.ine.add.PTCONT.852630,R DO CRUZEIRO,,5140-031,BELVER CRZ,-7.26190315697368,41.26142481141949
pt.ine.add.PTCONT.852631,,,5140-206,PINHAL DO NORTE,-7.336045006953934,41.31114223316863
pt.ine.add.PTCONT.852634,R NOVA DA TELHEIRA,,5140-061,CARRAZEDA DE ANSIÃES,-7.3111506437647575,41.23849328949964
pt.ine.add.PTCONT.852635,R DAS MAIAS,,5140-154,LINHARES CRZ,-7.362761294949285,41.204310125469654
pt.ine.add.PTCONT.852637,R DA TELHEIRA,173,5140-099,CARRAZEDA DE ANSIÃES,-7.312042406352525,41.23777031685517
pt.ine.add.PTCONT.852638,AV AQUILINO RIBEIRO,810,5140-058,CARRAZEDA DE ANSIÃES,-7.305355813504021,41.23640783617683
pt.ine.add.PTCONT.852641,R LUIS DE CAMÕES,,5140-080,CARRAZEDA DE ANSIÃES,-7.304903101857564,41.2429775991744
pt.ine.add.PTCONT.852642,R CENTRAL,6,5140-136,CASTANHEIRO,-7.40304518017361,41.23235950342381
pt.ine.add.PTCONT.852643,R PRINCIPAL,,5140-233,SEIXO DE ANSIÃES,-7.267198594987979,41.1902149669052
pt.ine.add.PTCONT.852644,R DO BECO,,5140-286,VILARINHO DA CASTANHEIRA,-7.214345973101531,41.20387896244629
pt.ine.add.PTCONT.852645,R DO CASTELO,,5140-279,VILARINHO DA CASTANHEIRA,-7.2154108338463105,41.203608324441674
pt.ine.add.PTCONT.852646,R DOS CARVALHOS,,5140-120,CARRAZEDA DE ANSIÃES,-7.3011608744464835,41.25868081155606
pt.ine.add.PTCONT.852647,R DA PRAÇA,,5140-142,FONTE LONGA CRZ,-7.263831431387666,41.230285157248964
pt.ine.add.PTCONT.852648,R DA ALEGRIA,13,5140-233,SEIXO DE ANSIÃES,-7.266196957350154,41.19024344810265
pt.ine.add.PTCONT.852650,R LUIS DE CAMÕES,937,5140-080,CARRAZEDA DE ANSIÃES,-7.306314601148618,41.24172716534739
pt.ine.add.PTCONT.852651,R CAMÕES,,5140-152,LINHARES CRZ,-7.352910092989161,41.170450931413804
pt.ine.add.PTCONT.852652,R DR JOSÉ DE FREITAS,,5140-181,PARAMBOS,-7.348642294139615,41.232496942667346
pt.ine.add.PTCONT.852653,R DA COSTINHA,,5140-233,SEIXO DE ANSIÃES,-7.264039809586147,41.19021818549401
pt.ine.add.PTCONT.852655,EN 214,,5140-184,PARAMBOS,-7.355762388114764,41.229528836646864
pt.ine.add.PTCONT.852656,EN 214,,5140-184,PARAMBOS,-7.354490578623101,41.229160077015194
pt.ine.add.PTCONT.852660,R DO MOINHO DE VENTO,,5140-086,CARRAZEDA DE ANSIÃES,-7.299070600189813,41.24665420082376
pt.ine.add.PTCONT.852661,R DO CIMO DO POVO,,5140-222,POMBAL CRZ,-7.359958591501347,41.28232126662138
pt.ine.add.PTCONT.852664,R DA MINA,55,5140-201,PEREIROS CRZ,-7.313313279001306,41.32976494784465
pt.ine.add.PTCONT.852665,LG DO EITÃO,,5140-270,VILARINHO DA CASTANHEIRA,-7.22289521101515,41.167659963661414
pt.ine.add.PTCONT.853160,R MARECHAL CARMONA,12,5140-082,CARRAZEDA DE ANSIÃES,-7.303241309486813,41.243262769839575
pt.ine.add.PTCONT.853166,BC DO SOALHEIRO,3,5140-131,CASTANHEIRO,-7.384707210643407,41.23388053147444
pt.ine.add.PTCONT.853169,R DA ALEGRIA,6,5140-205,PINHAL DO NORTE,-7.3405360403647135,41.29726199379992
pt.ine.add.PTCONT.853172,R DO CASTELO,,5140-279,VILARINHO DA CASTANHEIRA,-7.215519756669352,41.20349213831345
pt.ine.add.PTCONT.853198,EN 626,,5140-031,BELVER CRZ,-7.258059198719428,41.26244013268178
pt.ine.add.PTCONT.853199,R DO EIRÓ,,5140-154,LINHARES CRZ,-7.36324826989015,41.207518878627006
pt.ine.add.PTCONT.853237,R DE NSA SRA DE FÁTIMA,,5140-162,MARZAGÃO,-7.32031969570955,41.20992514117269
pt.ine.add.PTCONT.853346,R DAS CANGAS,14,5140-021,BEIRA GRANDE,-7.2796164530206315,41.18490514209372
pt.ine.add.PTCONT.853347,R JOÃO DA CRUZ,65,5140-078,CARRAZEDA DE ANSIÃES,-7.3034983240681175,41.245578682706906
pt.ine.add.PTCONT.853348,TV DE STO ANTÓNIO,2,5140-131,CASTANHEIRO,-7.380780531218865,41.23305357136206
pt.ine.add.PTCONT.853349,TV D ERNESTINA,,5140-221,POMBAL CRZ,-7.3556883690369785,41.26596808068529
pt.ine.add.PTCONT.853350,R DE S CAETANO,,5140-252,SELORES,-7.293168942646543,41.204426840960444
pt.ine.add.PTCONT.853351,BR DA TRIGUEIRA,,5140-221,POMBAL CRZ,-7.357532600641674,41.265422264718644
pt.ine.add.PTCONT.853352,R DA CARVALHA,,5140-252,SELORES,-7.2920535528860455,41.202149644976245
pt.ine.add.PTCONT.853353,R DO DOURO,30,5140-133,CASTANHEIRO,-7.426121728317128,41.2093987339978
pt.ine.add.PTCONT.853354,R DA CAPELA,7,5140-203,PINHAL DO NORTE,-7.352139702137037,41.32438943751312
pt.ine.add.PTCONT.853355,QTA DO VALE DO COELHO,,5140-271,VILARINHO DA CASTANHEIRA,-7.22389990004625,41.13893536511567
pt.ine.add.PTCONT.853356,R DIREITA,,5140-154,LINHARES CRZ,-7.360498445086516,41.20410587768668
pt.ine.add.PTCONT.853357,R AUGUSTO MARTINS,,5140-203,PINHAL DO NORTE,-7.351260530393737,41.32299684974012
pt.ine.add.PTCONT.853360,BR DO BARRINHO,111,5140-203,PINHAL DO NORTE,-7.354789456329435,41.321535103712755
pt.ine.add.PTCONT.853362,EN 626,,5140-031,BELVER CRZ,-7.256545438768788,41.26231156387399
pt.ine.add.PTCONT.853363,R DO FERRANJAL,,5140-031,BELVER CRZ,-7.262366333787498,41.261590389095446
pt.ine.add.PTCONT.853364,R 22 DE JULHO,,5140-286,VILARINHO DA CASTANHEIRA,-7.214557447222428,41.20580753959008
pt.ine.add.PTCONT.853369,R MARECHAL GOMES DA COSTA,,5140-032,BELVER CRZ,-7.276834709759683,41.247436409081615
pt.ine.add.PTCONT.853370,R DOS BOMBEIROS VOLUNTÁRIOS,,5140-060,CARRAZEDA DE ANSIÃES,-7.307224334998257,41.24242701261412
pt.ine.add.PTCONT.853371,R MARECHAL GOMES DA COSTA,648,5140-083,CARRAZEDA DE ANSIÃES,-7.306660442765847,41.23794791150768
pt.ine.add.PTCONT.853372,R DO CASTELO,,5140-279,VILARINHO DA CASTANHEIRA,-7.216686115588558,41.20363648864684
pt.ine.add.PTCONT.853374,R MARECHAL GOMES DA COSTA,90,5140-083,CARRAZEDA DE ANSIÃES,-7.304311464704026,41.24259516843345
pt.ine.add.PTCONT.853375,R MARECHAL GOMES DA COSTA,94,5140-083,CARRAZEDA DE ANSIÃES,-7.304311464704026,41.24259516843345
pt.ine.add.PTCONT.853376,R MARECHAL GOMES DA COSTA,90,5140-083,CARRAZEDA DE ANSIÃES,-7.304311464704026,41.24259516843345
pt.ine.add.PTCONT.853377,R DO CABEÇO,,5140-142,FONTE LONGA CRZ,-7.259911950944057,41.22904894599127
pt.ine.add.PTCONT.853378,R DO PIO,,5140-152,LINHARES CRZ,-7.353375536148693,41.170391053577696
pt.ine.add.PTCONT.853379,R DO RIBEIRAL,2,5140-136,CASTANHEIRO,-7.405269929213012,41.23179732053244
pt.ine.add.PTCONT.853380,R DA ESCOLA,,5140-152,LINHARES CRZ,-7.351248871874572,41.17186233851535
pt.ine.add.PTCONT.853381,R DR JOSÉ DE FREITAS,,5140-181,PARAMBOS,-7.348859231308816,41.23230933310375
pt.ine.add.PTCONT.853383,BR DO PEREIRO,219,5140-106,CARRAZEDA DE ANSIÃES,-7.306500546337922,41.247797282426
pt.ine.add.PTCONT.853384,R DO ALTO DOS CABEÇOS,,5140-222,POMBAL CRZ,-7.356320592577295,41.286123510373905
pt.ine.add.PTCONT.853385,R 25 DE ABRIL,,5140-222,POMBAL CRZ,-7.358475912710328,41.282536401304846
pt.ine.add.PTCONT.853388,R DE STO ANTÓNIO,89,5140-011,AMEDO,-7.323764373424074,41.256437831973116
pt.ine.add.PTCONT.853389,R DE STO ANTÓNIO,94,5140-011,AMEDO,-7.32388445936981,41.25637564728496
pt.ine.add.PTCONT.853390,BR DA BOLOTA,4,5140-131,CASTANHEIRO,-7.382488564357477,41.2359730640094
pt.ine.add.PTCONT.853391,R DE S PEDRO,8,5140-222,POMBAL CRZ,-7.359477232189572,41.28265118387681
pt.ine.add.PTCONT.853392,R DO LOUREIRO,,5140-233,SEIXO DE ANSIÃES,-7.266943045415367,41.187898965563754
pt.ine.add.PTCONT.853394,R CENTRAL,8,5140-131,CASTANHEIRO,-7.3842392808398625,41.233076118220495
pt.ine.add.PTCONT.853395,R DA BELA VISTA,,5140-222,POMBAL CRZ,-7.354864589547563,41.28107139040056
pt.ine.add.PTCONT.853906,R DO GERALDO,,5140-021,BEIRA GRANDE,-7.27853370021353,41.18476204966128
pt.ine.add.PTCONT.853911,R DAS EIRAS,,5140-142,FONTE LONGA CRZ,-7.261345435292889,41.231571961829715
pt.ine.add.PTCONT.853930,R DA MINA,53,5140-201,PEREIROS CRZ,-7.313049378826614,41.32985310779958
pt.ine.add.PTCONT.854225,R DA PRANHEIRA,,5140-011,AMEDO,-7.3172864553604935,41.24963902277086
pt.ine.add.PTCONT.854226,R DA PRANHEIRA,,5140-011,AMEDO,-7.318731720231674,41.249505188636284
pt.ine.add.PTCONT.854227,LG DA IGREJA,,5140-021,BEIRA GRANDE,-7.278612558934158,41.18511379901106
pt.ine.add.PTCONT.854267,R DE S SEBASTIÃO,6,5140-021,BEIRA GRANDE,-7.27877053191383,41.18488086152405
pt.ine.add.PTCONT.854268,R DA EIRA DA SANTA,,5140-031,BELVER CRZ,-7.261967226512677,41.26468477528062
pt.ine.add.PTCONT.854269,,,5140-032,BELVER CRZ,-7.289487267127297,41.25156365647178
pt.ine.add.PTCONT.854295,R CAP FRANCISCO DE AMARAL,99,5140-062,CARRAZEDA DE ANSIÃES,-7.301537896572156,41.24400682638175
pt.ine.add.PTCONT.854296,R DOS BOMBEIROS VOLUNTÁRIOS,195,5140-060,CARRAZEDA DE ANSIÃES,-7.307085164660925,41.242110869653885
pt.ine.add.PTCONT.854331,R LUIS DE CAMÕES,,5140-080,CARRAZEDA DE ANSIÃES,-7.313951337887765,41.23678445396709
pt.ine.add.PTCONT.854332,R CENTRAL,69,5140-136,CASTANHEIRO,-7.40576655329265,41.23218763819504
pt.ine.add.PTCONT.854366,R DE NSA SRA DA GUIA,8,5140-133,CASTANHEIRO,-7.4294303673362,41.211075774889345
pt.ine.add.PTCONT.854367,BR DO MALHEIRO,4,5140-133,CASTANHEIRO,-7.426658542742408,41.2104825342182
pt.ine.add.PTCONT.854368,R DO CABEÇO,,5140-142,FONTE LONGA CRZ,-7.260455907245562,41.22850381741573
pt.ine.add.PTCONT.854401,R DIREITA,,5140-154,LINHARES CRZ,-7.364115089666962,41.20680433415411
pt.ine.add.PTCONT.854402,R DE STA BÁRBARA,,5140-154,LINHARES CRZ,-7.360199294816693,41.20318544120214
pt.ine.add.PTCONT.854403,R DA ESTRADA,,5140-152,LINHARES CRZ,-7.354168361978799,41.17287258809504
pt.ine.add.PTCONT.854404,R LUIS DE CAMÕES,,5140-161,MARZAGÃO,-7.316927318104099,41.235355920637325
pt.ine.add.PTCONT.854405,R DR ANTÓNIO SANTOS PINTO,1,5140-182,PARAMBOS,-7.362657396804131,41.236535395603475
pt.ine.add.PTCONT.854406,AV ENG ANTÓNIO CRUZ SAMPAIO,,5140-182,PARAMBOS,-7.3629747987285,41.23591623216449
pt.ine.add.PTCONT.854448,R DA IGREJA,,5140-201,PEREIROS CRZ,-7.313009820320638,41.3301499578809
pt.ine.add.PTCONT.854449,R CÂNDIDO DOS REIS,,5140-202,PEREIROS CRZ,-7.296423361601659,41.31477779032492
pt.ine.add.PTCONT.854482,R DE S BARTOLOMEU,,5140-205,PINHAL DO NORTE,-7.340523172384945,41.29635249539357
pt.ine.add.PTCONT.854483,R DE S PEDRO,,5140-222,POMBAL CRZ,-7.359035737500006,41.283647669331835
pt.ine.add.PTCONT.854484,R 25 DE ABRIL,7,5140-222,POMBAL CRZ,-7.358779960367102,41.283069687817
pt.ine.add.PTCONT.854485,R PRINCIPAL,,5140-221,POMBAL CRZ,-7.356076679592878,41.267438371837876
pt.ine.add.PTCONT.854486,R DO FORNO,1,5140-233,SEIXO DE ANSIÃES,-7.265340006720846,41.19014695212346
pt.ine.add.PTCONT.854512,R DA CADEIA,,5140-281,VILARINHO DA CASTANHEIRA,-7.213356986176088,41.204690446176464
pt.ine.add.PTCONT.854513,R DO AREAL,,5140-278,VILARINHO DA CASTANHEIRA,-7.214346645432806,41.20297855166393
pt.ine.add.PTCONT.854514,R DA FEIRA,,5140-279,VILARINHO DA CASTANHEIRA,-7.215338206198916,41.20283338769414
pt.ine.add.PTCONT.854515,R DOS EMIGRANTES,,5140-270,VILARINHO DA CASTANHEIRA,-7.219832579681694,41.17025594620893
pt.ine.add.PTCONT.854516,LG DA LAMEIRA,,5140-270,VILARINHO DA CASTANHEIRA,-7.221715876055078,41.166777228211146
pt.ine.add.PTCONT.854755,R CAP FRANCISCO DE AMARAL,99,5140-062,CARRAZEDA DE ANSIÃES,-7.301537896572156,41.24400682638175
pt.ine.add.PTCONT.854813,R DOS REBELOS,,5140-182,PARAMBOS,-7.363106242172658,41.2364298827043
pt.ine.add.PTCONT.854957,R DA COSTA,,5140-021,BEIRA GRANDE,-7.277343029096944,41.18375374089443
pt.ine.add.PTCONT.854946,LOTEAM DO ALTO DO VILARINHO,,5140-095,CARRAZEDA DE ANSIÃES,-7.311522840829823,41.24401548035532
pt.ine.add.PTCONT.854947,TV DA PORTELA,,5140-144,LAVANDEIRA,-7.299770417032231,41.19342665358845
pt.ine.add.PTCONT.854948,R DO ALTO DA CRUZ,,5140-161,MARZAGÃO,-7.3195338699864525,41.23485212720795
pt.ine.add.PTCONT.854949,,,5140-233,SEIXO DE ANSIÃES,-7.2720462695547194,41.1868567295837
pt.ine.add.PTCONT.854950,R DA PORTELA,,5140-270,VILARINHO DA CASTANHEIRA,-7.220831676591196,41.16609491155515
pt.ine.add.PTCONT.854952,R DO ADRO,,5140-252,SELORES,-7.292660590850117,41.204089977127005
pt.ine.add.PTCONT.854953,R VERDE,,5140-252,SELORES,-7.295873693556153,41.2045545874969
pt.ine.add.PTCONT.854955,R DA LAMEIRINHA,,5140-021,BEIRA GRANDE,-7.279738913074407,41.18281707219713
pt.ine.add.PTCONT.854956,R DA ESCOLA,,5140-270,VILARINHO DA CASTANHEIRA,-7.2237680195930505,41.165721946356264
pt.ine.add.PTCONT.854959,R MARECHAL CARMONA,,5140-082,CARRAZEDA DE ANSIÃES,-7.302750537611927,41.24339429341484
pt.ine.add.PTCONT.854960,R DA NOGUEIRA,,5140-171,MOGO DE MALTA,-7.260110432988555,41.26880358263525
pt.ine.add.PTCONT.854961,R AUGUSTO MARTINS,,5140-203,PINHAL DO NORTE,-7.351495410085985,41.32333159376111
pt.ine.add.PTCONT.854962,R DA EIRA,,5140-224,RIBALONGA CRZ,-7.391651236758531,41.222084962631456
pt.ine.add.PTCONT.854963,BR DO BARRINHO,118,5140-203,PINHAL DO NORTE,-7.3504930533577895,41.32325275033568
pt.ine.add.PTCONT.854964,R DA CALÇADA,,5140-224,RIBALONGA CRZ,-7.392311088270111,41.21962206180257
pt.ine.add.PTCONT.854965,R DE S TOMÉ,,5140-206,PINHAL DO NORTE,-7.3356430602292955,41.31178773948622
pt.ine.add.PTCONT.854966,TV DE S TOMÉ,,5140-206,PINHAL DO NORTE,-7.335405229509381,41.31170505518158
pt.ine.add.PTCONT.854968,R DA PONTE,,5140-154,LINHARES CRZ,-7.364591439036326,41.20685253513514
pt.ine.add.PTCONT.854969,R DA LAMEIRA,4,5140-233,SEIXO DE ANSIÃES,-7.265957673008433,41.191214099983405
pt.ine.add.PTCONT.854970,R NASCENTE,134,5140-012,AMEDO,-7.324581548746036,41.27821548317222
pt.ine.add.PTCONT.854973,TV DOS CABEÇOS,12,5140-136,CASTANHEIRO,-7.403257957189065,41.23253193162546
pt.ine.add.PTCONT.854974,R DO CASTELO,,5140-279,VILARINHO DA CASTANHEIRA,-7.215369033196025,41.20404019105526
pt.ine.add.PTCONT.854975,R CENTRAL,73,5140-136,CASTANHEIRO,-7.405908375701782,41.23230558824129
pt.ine.add.PTCONT.854976,R DA CADEIA,,5140-281,VILARINHO DA CASTANHEIRA,-7.213673487132722,41.204224757348896
pt.ine.add.PTCONT.854977,TV JORGE ALBUQUERQUE,1,5140-233,SEIXO DE ANSIÃES,-7.26634674931941,41.189731336231524
pt.ine.add.PTCONT.854978,R DA ESTRADA,,5140-233,SEIXO DE ANSIÃES,-7.265960566376559,41.18918817706111
pt.ine.add.PTCONT.854979,R DA FRAGA,,5140-276,VILARINHO DA CASTANHEIRA,-7.213564413501018,41.202648158213925
pt.ine.add.PTCONT.854980,R DE STO ANTÓNIO,97,5140-011,AMEDO,-7.323551953505564,41.25624725209944
pt.ine.add.PTCONT.854981,R DAS GINGEIRAS,,5140-161,MARZAGÃO,-7.330132632082863,41.23722258634006
pt.ine.add.PTCONT.854982,R DA ESCOLA VELHA,4,5140-131,CASTANHEIRO,-7.383203900531939,41.23496025458408
pt.ine.add.PTCONT.854983,R DA FONTE DA ALDEIA,,5140-233,SEIXO DE ANSIÃES,-7.265877855720033,41.18642326412796
pt.ine.add.PTCONT.854984,R 25 DE ABRIL,19,5140-222,POMBAL CRZ,-7.358652925065087,41.28270866989479
pt.ine.add.PTCONT.854985,R DA ESCOLA,6,5140-231,SEIXO DE ANSIÃES,-7.237176027521031,41.15585933774178
pt.ine.add.PTCONT.855458,R DA ESCOLA,,5140-270,VILARINHO DA CASTANHEIRA,-7.224347701800937,41.166023660953854
pt.ine.add.PTCONT.855476,R DR JOSÉ DE FREITAS,,5140-181,PARAMBOS,-7.348787241901835,41.23234485939418
pt.ine.add.PTCONT.855477,R DA CADEIA,,5140-281,VILARINHO DA CASTANHEIRA,-7.213081911544744,41.203049491625954
pt.ine.add.PTCONT.855478,R DO CABO DO POVO,,5140-161,MARZAGÃO,-7.33037403073027,41.23309136498486
pt.ine.add.PTCONT.855491,R DE STO ANTÓNIO,,5140-154,LINHARES CRZ,-7.362873013312015,41.20495017136068
pt.ine.add.PTCONT.939117,,,5140-231,SEIXO DE ANSIÃES,-7.237245928702096,41.156850347969566
pt.ine.add.PTCONT.855954,R DO ALTO DA CRUZ,,5140-161,MARZAGÃO,-7.320332517350306,41.23585722778332
pt.ine.add.PTCONT.855942,R DO LOBATO,,5140-031,BELVER CRZ,-7.256239454652264,41.26466830354621
pt.ine.add.PTCONT.855943,R DO CARRIL,,5140-120,CARRAZEDA DE ANSIÃES,-7.300362399034718,41.26142129001229
pt.ine.add.PTCONT.855944,R DA IGREJA,,5140-120,CARRAZEDA DE ANSIÃES,-7.298480045899467,41.259309703538776
pt.ine.add.PTCONT.855945,R B,,5140-055,CARRAZEDA DE ANSIÃES,-7.306699416224869,41.24432311754455
pt.ine.add.PTCONT.855946,R ABADE BAÇAL,119,5140-056,CARRAZEDA DE ANSIÃES,-7.30873722855967,41.24354536279196
pt.ine.add.PTCONT.855947,R ABADE BAÇAL,165,5140-056,CARRAZEDA DE ANSIÃES,-7.30918655017774,41.24386372356769
pt.ine.add.PTCONT.855948,R DAS EIRAS,,5140-154,LINHARES CRZ,-7.36525056699079,41.208603747154
pt.ine.add.PTCONT.855949,R DIREITA,,5140-154,LINHARES CRZ,-7.362003902089719,41.204845308772235
pt.ine.add.PTCONT.855950,R DE STA BÁRBARA,,5140-154,LINHARES CRZ,-7.3596881659233855,41.20305595063898
pt.ine.add.PTCONT.855951,R DO FUNDO,,5140-153,LINHARES CRZ,-7.359255993914946,41.17597733361441
pt.ine.add.PTCONT.855952,R DA ESCOLA,,5140-152,LINHARES CRZ,-7.352935857043192,41.172296978036755
pt.ine.add.PTCONT.855953,R DOS BARREIROS,,5140-152,LINHARES CRZ,-7.349077991921444,41.17103719842056
pt.ine.add.PTCONT.855955,R DE NSA SRA DE FÁTIMA,,5140-162,MARZAGÃO,-7.3204025950028235,41.20997074719135
pt.ine.add.PTCONT.855968,R LUIS DE CAMÕES,800,5140-080,CARRAZEDA DE ANSIÃES,-7.30522857502096,41.24270981600355
pt.ine.add.PTCONT.855969,R DR JOÃO JOSÉ DE FREITAS,345,5140-069,CARRAZEDA DE ANSIÃES,-7.309627888114538,41.24006713690405
pt.ine.add.PTCONT.855970,R DE STO ANTÓNIO,281,5140-095,CARRAZEDA DE ANSIÃES,-7.310135994202251,41.2414033817456
pt.ine.add.PTCONT.855971,R JUSTINIANO FERRAZ DE ARAÚJO E COSTA,,5140-079,CARRAZEDA DE ANSIÃES,-7.310022701231998,41.240925352796694
pt.ine.add.PTCONT.855972,R JUSTINIANO FERRAZ DE ARAÚJO E COSTA,278,5140-079,CARRAZEDA DE ANSIÃES,-7.309637390391402,41.24121072998923
pt.ine.add.PTCONT.855973,LOTEAM DO ALTO DO VILARINHO,,5140-095,CARRAZEDA DE ANSIÃES,-7.311905229517388,41.24396418356012
pt.ine.add.PTCONT.855974,LOTEAM DO ALTO DO VILARINHO,,5140-059,CARRAZEDA DE ANSIÃES,-7.3124743398561165,41.241384055234796
pt.ine.add.PTCONT.855975,AV DE NSA SRA DE FÁTIMA,,5140-088,CARRAZEDA DE ANSIÃES,-7.309697019701817,41.2393112838661
pt.ine.add.PTCONT.855976,AV AQUILINO RIBEIRO,,5140-058,CARRAZEDA DE ANSIÃES,-7.305733171979047,41.23769814031033
pt.ine.add.PTCONT.855977,BR DA TELHEIRA,,5140-108,CARRAZEDA DE ANSIÃES,-7.312158412921431,41.23803226409569
pt.ine.add.PTCONT.855978,TV DE STA CATARINA,,5140-171,MOGO DE MALTA,-7.260626596055744,41.267681985958525
pt.ine.add.PTCONT.855979,R DA IGREJA,44,5140-201,PEREIROS CRZ,-7.31230827607514,41.32989284491527
pt.ine.add.PTCONT.855980,R DO VALE,34,5140-201,PEREIROS CRZ,-7.311025550397323,41.32930743394788
pt.ine.add.PTCONT.855981,R DO ALTO DE STO AMARO,,5140-202,PEREIROS CRZ,-7.299217877296693,41.315716479965076
pt.ine.add.PTCONT.855982,R DE S BARTOLOMEU,,5140-205,PINHAL DO NORTE,-7.340771475924214,41.296552294078936
pt.ine.add.PTCONT.855983,R DA PEDRA ALTA,,5140-231,SEIXO DE ANSIÃES,-7.241087947268501,41.15466512274578
pt.ine.add.PTCONT.855984,R DA SENHORA DA FÉ,,5140-286,VILARINHO DA CASTANHEIRA,-7.213883506852881,41.207107764538875
pt.ine.add.PTCONT.856009,BC DO SOALHEIRO,5,5140-131,CASTANHEIRO,-7.384635238573463,41.23391608032003
pt.ine.add.PTCONT.856010,R DO BAIRRO DA LAGINHA,,5140-132,CASTANHEIRO,-7.418130397971989,41.21840762709374
pt.ine.add.PTCONT.856011,R DO CABEÇO,,5140-142,FONTE LONGA CRZ,-7.261842349928104,41.22918062286239
pt.ine.add.PTCONT.856012,R DA TRAVESSA,,5140-205,PINHAL DO NORTE,-7.34061502176204,41.29566881931541
pt.ine.add.PTCONT.856013,R DAS AMENDOEIRAS,,5140-224,RIBALONGA CRZ,-7.3938888095454285,41.22036154034294
pt.ine.add.PTCONT.856014,R DA ESTRADA,,5140-233,SEIXO DE ANSIÃES,-7.270309979055201,41.19382198966358
pt.ine.add.PTCONT.856015,R DA ESTRADA,,5140-233,SEIXO DE ANSIÃES,-7.270309979055201,41.19382198966358
pt.ine.add.PTCONT.856016,R DO FUNDO DA VILA,,5140-285,VILARINHO DA CASTANHEIRA,-7.212479133663118,41.20097371673446
pt.ine.add.PTCONT.856017,R DA LAMEIRA,,5140-270,VILARINHO DA CASTANHEIRA,-7.222419811807862,41.166710762600715
pt.ine.add.PTCONT.856018,PC DA PORTELA,3,5140-300,ZEDES,-7.302336025128689,41.279875918003256
pt.ine.add.PTCONT.856232,R DO FUNDO DO POVO,,5140-270,VILARINHO DA CASTANHEIRA,-7.223488891970265,41.16608891534125
pt.ine.add.PTCONT.856294,R DO ADRO,,5140-252,SELORES,-7.292004579037839,41.20411220006876
pt.ine.add.PTCONT.856311,R DA CAPELA,16,5140-222,POMBAL CRZ,-7.3556641951795685,41.283093708158994
pt.ine.add.PTCONT.856316,R DO ALAMBIQUE,,5140-151,LINHARES CRZ,-7.349141964104829,41.2196243843366
pt.ine.add.PTCONT.856452,BC DO CIMO DO POVO,1,5140-131,CASTANHEIRO,-7.386732787634175,41.2330202750602
pt.ine.add.PTCONT.856453,R DO JARDIM,20,5140-144,LAVANDEIRA,-7.299693376857918,41.19292186062239
pt.ine.add.PTCONT.856454,R DE STO ANDRÉ,,5140-202,PEREIROS CRZ,-7.3009635997542315,41.31461261615409
pt.ine.add.PTCONT.856455,AV PRINCIPAL,,5140-021,BEIRA GRANDE,-7.27502854892596,41.18575346266933
pt.ine.add.PTCONT.856456,R 1 DE DEZEMBRO,,5140-202,PEREIROS CRZ,-7.299255430943303,41.31651810943445
pt.ine.add.PTCONT.856457,R DO BEBEDOURO,,5140-252,SELORES,-7.293342861924545,41.20387885403075
pt.ine.add.PTCONT.856459,R DO ARRABALDE,7,5140-021,BEIRA GRANDE,-7.282269055530988,41.18439352119586
pt.ine.add.PTCONT.856460,BR DA TRIGUEIRA,,5140-221,POMBAL CRZ,-7.356471154270724,41.26436162815995
pt.ine.add.PTCONT.856461,R DE STA MARGARIDA,3,5140-301,ZEDES,-7.301605574969327,41.28194158048429
pt.ine.add.PTCONT.856468,R DA EIRA DA SANTA,,5140-031,BELVER CRZ,-7.2621333190577575,41.264758064632424
pt.ine.add.PTCONT.856469,R DA CAPELA,,5140-143,FONTE LONGA CRZ,-7.246521759630792,41.24378541479621
pt.ine.add.PTCONT.856470,R DA FONTE,,5140-224,RIBALONGA CRZ,-7.389864257401642,41.221920371107316
pt.ine.add.PTCONT.856471,R DA CANENHA DE CIMA,,5140-224,RIBALONGA CRZ,-7.39073496557508,41.22190797950243
pt.ine.add.PTCONT.856472,PC DO TOURAL,57,5140-101,CARRAZEDA DE ANSIÃES,-7.304720311414596,41.24328242458558
pt.ine.add.PTCONT.856473,R DO CABEÇO,,5140-182,PARAMBOS,-7.361525748461668,41.23741922921254
pt.ine.add.PTCONT.856474,R PRINCIPAL,,5140-206,PINHAL DO NORTE,-7.3362758197948885,41.311801125725765
pt.ine.add.PTCONT.856476,R DA ESCOLA,,5140-142,FONTE LONGA CRZ,-7.26280959884213,41.231790133046495
pt.ine.add.PTCONT.856477,R DAS EIRAS,,5140-142,FONTE LONGA CRZ,-7.2603225456541,41.23135711773196
pt.ine.add.PTCONT.856480,R DO VALE,,5140-032,BELVER CRZ,-7.275687757853983,41.24756293500661
pt.ine.add.PTCONT.856481,R DAS ARTEIAS,,5140-233,SEIXO DE ANSIÃES,-7.263483218471937,41.19174469735349
pt.ine.add.PTCONT.856482,TV DO LOUREIRO,,5140-281,VILARINHO DA CASTANHEIRA,-7.213569296390497,41.204854216578276
pt.ine.add.PTCONT.856484,BR DA CRUZ DE PEDRA,,5140-032,BELVER CRZ,-7.276450022496492,41.255879400548984
pt.ine.add.PTCONT.856485,R DA BOAVISTA,,5140-152,LINHARES CRZ,-7.353870789059964,41.17284356243528
pt.ine.add.PTCONT.856486,AV ENG ANTÓNIO CRUZ SAMPAIO,,5140-182,PARAMBOS,-7.363308030089494,41.23496401972369
pt.ine.add.PTCONT.856487,R DO CAMPO DA BOLA,4,5140-233,SEIXO DE ANSIÃES,-7.265094499731272,41.19068535383615
pt.ine.add.PTCONT.856489,R DE STA HELENA,,5140-120,CARRAZEDA DE ANSIÃES,-7.299984642848171,41.25922155617865
pt.ine.add.PTCONT.856490,R DO CABEÇO,,5140-142,FONTE LONGA CRZ,-7.260411749943891,41.229133772389645
pt.ine.add.PTCONT.856491,R DA PADARIA,,5140-284,VILARINHO DA CASTANHEIRA,-7.212864374836262,41.20411024440301
pt.ine.add.PTCONT.856492,TV DA CADEIA,,5140-281,VILARINHO DA CASTANHEIRA,-7.213663456589221,41.204089614859896
pt.ine.add.PTCONT.856493,TV DA CADEIA,,5140-281,VILARINHO DA CASTANHEIRA,-7.213717819442917,41.20361282838805
pt.ine.add.PTCONT.856496,R DE S FRUTUOSO,,5140-144,LAVANDEIRA,-7.301302030697674,41.19485138639489
pt.ine.add.PTCONT.856497,R DE S PEDRO,,5140-183,PARAMBOS,-7.364603707140946,41.23127196411517
pt.ine.add.PTCONT.856498,R DA FRAGA,,5140-222,POMBAL CRZ,-7.359812919375689,41.28252738213072
pt.ine.add.PTCONT.856502,R DO CAMPO DA BOLA,,5140-144,LAVANDEIRA,-7.303807637412314,41.19467136442356
pt.ine.add.PTCONT.856503,R DO CAMPO DA BOLA,,5140-144,LAVANDEIRA,-7.303782207416086,41.194797240146
pt.ine.add.PTCONT.856504,R DA CAPELA,19,5140-222,POMBAL CRZ,-7.355833111970074,41.28294177939899
pt.ine.add.PTCONT.856505,R DA FONTE NOVA,16,5140-233,SEIXO DE ANSIÃES,-7.266355284653937,41.18637283307803
pt.ine.add.PTCONT.856507,R DR FRANCISCO SÁ CARNEIRO,94,5140-068,CARRAZEDA DE ANSIÃES,-7.307441364472393,41.240348614436144
pt.ine.add.PTCONT.856508,R DO QUEBRA COSTAS,,5140-222,POMBAL CRZ,-7.359203349745993,41.28259531846137
pt.ine.add.PTCONT.856974,R DE S CAETANO,,5140-252,SELORES,-7.293224174199989,41.20476940283584
pt.ine.add.PTCONT.856981,SIT DO REBOREDO,,5140-161,MARZAGÃO,-7.319485026792824,41.23590526714526
pt.ine.add.PTCONT.856982,SIT DO REBOREDO,,5140-161,MARZAGÃO,-7.319485026792824,41.23590526714526
pt.ine.add.PTCONT.857016,AV DO SANTUÁRIO,,5140-171,MOGO DE MALTA,-7.259321832290587,41.26977003998064
pt.ine.add.PTCONT.857057,R DO ALTO DA CRUZ,,5140-161,MARZAGÃO,-7.316939636301101,41.23628343483069
pt.ine.add.PTCONT.857062,R DO ALTO,18,5140-154,LINHARES CRZ,-7.363566261375311,41.207854159509914
pt.ine.add.PTCONT.857196,R DO EIRÓ,,5140-143,FONTE LONGA CRZ,-7.247431575782021,41.24266690317923
pt.ine.add.PTCONT.857181,R DE STO ANTÓNIO,9,5140-132,CASTANHEIRO,-7.4166630394792294,41.21846153632563
pt.ine.add.PTCONT.857182,R DO DOURO,1,5140-133,CASTANHEIRO,-7.422869851789933,41.208001078699375
pt.ine.add.PTCONT.857183,R DA CANELHA,,5140-270,VILARINHO DA CASTANHEIRA,-7.222302290655992,41.166592778439615
pt.ine.add.PTCONT.857185,R DA CAPELA,,5140-203,PINHAL DO NORTE,-7.3507703180936685,41.32403798494903
pt.ine.add.PTCONT.857187,BR DO MALHEIRO,6,5140-133,CASTANHEIRO,-7.426836609159422,41.21055566017733
pt.ine.add.PTCONT.857188,BR DO MALHEIRO,1,5140-133,CASTANHEIRO,-7.426683841010164,41.210347626199976
pt.ine.add.PTCONT.857189,R DAS EIRAS,,5140-154,LINHARES CRZ,-7.3663776689161775,41.20806200084773
pt.ine.add.PTCONT.857190,R DA EIRA,,5140-224,RIBALONGA CRZ,-7.391176707470704,41.22291929543246
pt.ine.add.PTCONT.857191,R DE S ROQUE,17,5140-300,ZEDES,-7.29933269595305,41.282330323875186
pt.ine.add.PTCONT.857193,R DR JOÃO TRIGO MOUTINHO,,5140-171,MOGO DE MALTA,-7.257981424652452,41.26826518190037
pt.ine.add.PTCONT.857194,R DA MORADA,,5140-300,ZEDES,-7.3062601461046395,41.28010225987535
pt.ine.add.PTCONT.857197,R DA PÓVOA,,5140-280,VILARINHO DA CASTANHEIRA,-7.214907317387279,41.20551319263431
pt.ine.add.PTCONT.857200,R DR ANTÓNIO SANTOS PINTO,,5140-182,PARAMBOS,-7.361541170075603,41.2371221954356
pt.ine.add.PTCONT.857201,BR NOVO,4,5140-205,PINHAL DO NORTE,-7.345000964883766,41.2972926497206
pt.ine.add.PTCONT.857205,R DA ESCOLA,,5140-142,FONTE LONGA CRZ,-7.263323504391545,41.23081256553825
pt.ine.add.PTCONT.857206,R DA TAPADA,10,5140-233,SEIXO DE ANSIÃES,-7.26514665490948,41.193053850447306
pt.ine.add.PTCONT.857208,R DA CARRASQUEIRA,,5140-152,LINHARES CRZ,-7.355390676598577,41.17330404811275
pt.ine.add.PTCONT.857209,R 22 DE JULHO,,5140-286,VILARINHO DA CASTANHEIRA,-7.2139103171137595,41.20348830684961
pt.ine.add.PTCONT.857210,R DO ALTO,,5140-152,LINHARES CRZ,-7.353758816854445,41.17123104345803
pt.ine.add.PTCONT.857211,R CAMÕES,,5140-152,LINHARES CRZ,-7.353549248912739,41.170815429477294
pt.ine.add.PTCONT.857212,R DA FONTE,,5140-233,SEIXO DE ANSIÃES,-7.264740367733192,41.189521142519716
pt.ine.add.PTCONT.857215,R DOS BARREIROS,,5140-152,LINHARES CRZ,-7.350552904475934,41.170263858937304
pt.ine.add.PTCONT.857216,R DR JOSÉ DE FREITAS,,5140-181,PARAMBOS,-7.348167710283794,41.23228661272431
pt.ine.add.PTCONT.857217,R DR JOSÉ DE FREITAS,,5140-181,PARAMBOS,-7.3488423727484,41.23172394790363
pt.ine.add.PTCONT.857222,R CENTRAL,11,5140-136,CASTANHEIRO,-7.4030106023277416,41.23225123409131
pt.ine.add.PTCONT.857224,R DA ESCOLA,79,5140-011,AMEDO,-7.324000184292083,41.25860047658774
pt.ine.add.PTCONT.857225,R DO ARIEIRO DE BAIXO,29,5140-233,SEIXO DE ANSIÃES,-7.266689677556732,41.18813116894769
pt.ine.add.PTCONT.857227,AV DA RAMPINHA,132,5140-011,AMEDO,-7.322176177462518,41.252680943596694
pt.ine.add.PTCONT.857228,R DO VALE,39,5140-201,PEREIROS CRZ,-7.312009445910922,41.329908721380455
pt.ine.add.PTCONT.857229,TV DO CASTELO,,5140-278,VILARINHO DA CASTANHEIRA,-7.21503817474462,41.20297506271914
pt.ine.add.PTCONT.857760,R DA BARROCA,59,5140-011,AMEDO,-7.322763169930704,41.26021251622834
pt.ine.add.PTCONT.857840,R DOS BARREIROS,15,5140-152,LINHARES CRZ,-7.350266617251847,41.170288926189464
pt.ine.add.PTCONT.857796,R DE CIMA,,5140-142,FONTE LONGA CRZ,-7.263813406536446,41.21633759705523
pt.ine.add.PTCONT.857810,R NOVA,21,5140-144,LAVANDEIRA,-7.30243453391902,41.193905115198305
pt.ine.add.PTCONT.857814,R DA CAPELA,11,5140-136,CASTANHEIRO,-7.40163201461716,41.23287277676174
pt.ine.add.PTCONT.857833,LG DE STA CRUZ,,5140-120,CARRAZEDA DE ANSIÃES,-7.300963004861438,41.25922863188761
pt.ine.add.PTCONT.857834,TV DO CARVALHAL,,5140-065,CARRAZEDA DE ANSIÃES,-7.30024085699491,41.245627197986735
pt.ine.add.PTCONT.857835,R DO SENHOR DOS AFLITOS,,5140-098,CARRAZEDA DE ANSIÃES,-7.299770684200808,41.24507454429663
pt.ine.add.PTCONT.857836,R DA ESCOLA,10,5140-144,LAVANDEIRA,-7.300429407034822,41.19127941497595
pt.ine.add.PTCONT.857837,R PRINCIPAL,,5140-153,LINHARES CRZ,-7.358624967882573,41.17896250181134
pt.ine.add.PTCONT.857838,R DA CAPELA,,5140-153,LINHARES CRZ,-7.359217536784804,41.177219661426086
pt.ine.add.PTCONT.857839,R DO OURO,,5140-152,LINHARES CRZ,-7.353494902311209,41.17037385310343
pt.ine.add.PTCONT.857841,R DO CABO DO POVO,,5140-161,MARZAGÃO,-7.330968158549754,41.23327558854755
pt.ine.add.PTCONT.857842,R LUIS DE CAMÕES,,5140-161,MARZAGÃO,-7.31657392936526,41.23595669278285
pt.ine.add.PTCONT.857843,R DO CEMITÉRIO,16,5140-233,SEIXO DE ANSIÃES,-7.264718497970945,41.19207816967269
pt.ine.add.PTCONT.857844,R DOS ARAÚJOS,,5140-252,SELORES,-7.293531759265502,41.204024298358036
pt.ine.add.PTCONT.857845,R 22 DE JULHO,,5140-286,VILARINHO DA CASTANHEIRA,-7.216547107985609,41.20932600989323
pt.ine.add.PTCONT.858066,R DA FONTE VELHA,,5140-182,PARAMBOS,-7.363126775338411,41.2371958388145
pt.ine.add.PTCONT.858052,R DO RIBEIRINHO,48,5140-011,AMEDO,-7.327597988605762,41.2590669065245
pt.ine.add.PTCONT.858053,AV PRINCIPAL,6,5140-021,BEIRA GRANDE,-7.274376789360554,41.18728832411293
pt.ine.add.PTCONT.858054,R DA COSTA,,5140-021,BEIRA GRANDE,-7.276307148765339,41.183674005318
pt.ine.add.PTCONT.858055,LG DA JUNTA,,5140-021,BEIRA GRANDE,-7.281571866084362,41.18392915349389
pt.ine.add.PTCONT.858056,R DA ESCOLA,,5140-032,BELVER CRZ,-7.277623904678906,41.24729820991363
pt.ine.add.PTCONT.858057,BR DAS CARVALHAS,,5140-032,BELVER CRZ,-7.27409107706223,41.24376930442123
pt.ine.add.PTCONT.858058,TV DE STO ANTÓNIO,,5140-096,CARRAZEDA DE ANSIÃES,-7.308986769439362,41.2426737485199
pt.ine.add.PTCONT.858059,R LUIS DE CAMÕES,1160,5140-080,CARRAZEDA DE ANSIÃES,-7.308453079899197,41.24052694362859
pt.ine.add.PTCONT.858060,R JUSTINIANO FERRAZ DE ARAÚJO E COSTA,,5140-079,CARRAZEDA DE ANSIÃES,-7.309868315894165,41.24087022423768
pt.ine.add.PTCONT.858061,R VITOR GUILHAR,72,5140-103,CARRAZEDA DE ANSIÃES,-7.305485085993907,41.23939813919845
pt.ine.add.PTCONT.858062,R DR FRANCISCO SÁ CARNEIRO,129,5140-068,CARRAZEDA DE ANSIÃES,-7.307981287797941,41.24010036921591
pt.ine.add.PTCONT.858063,R DA CAPELA,6,5140-136,CASTANHEIRO,-7.4022409803713085,41.23281361451227
pt.ine.add.PTCONT.858064,EN 214,,5140-161,MARZAGÃO,-7.3220912288820434,41.23446498207201
pt.ine.add.PTCONT.858065,AV DE STA CATARINA,,5140-171,MOGO DE MALTA,-7.26043627293341,41.2676355230182
pt.ine.add.PTCONT.858067,R DA PRAÇARIA,,5140-184,PARAMBOS,-7.353785616599317,41.23027182428051
pt.ine.add.PTCONT.858068,R DA BARREIRA,18,5140-201,PEREIROS CRZ,-7.314051776985017,41.330886701496276
pt.ine.add.PTCONT.858069,R DO CARVALHO,,5140-300,ZEDES,-7.303562143857533,41.282964152045096
pt.ine.add.PTCONT.858070,R DE S ROQUE,10,5140-301,ZEDES,-7.299141384910798,41.28235595028041
pt.ine.add.PTCONT.858074,R DAS AMOREIRAS,2,5140-131,CASTANHEIRO,-7.384479880923371,41.23394208283545
pt.ine.add.PTCONT.858075,BC DAS FLORES,1,5140-131,CASTANHEIRO,-7.386680471886774,41.23342512350671
pt.ine.add.PTCONT.858076,R DA BARREIRA,8,5140-201,PEREIROS CRZ,-7.313858975433734,41.33102038922114
pt.ine.add.PTCONT.858077,R DO CRUZEIRO,28,5140-201,PEREIROS CRZ,-7.314015277021744,41.32998604192879
pt.ine.add.PTCONT.858078,R CÂNDIDO DOS REIS,,5140-202,PEREIROS CRZ,-7.296864616446634,41.31482601712361
pt.ine.add.PTCONT.858079,R AUGUSTO MARTINS,,5140-203,PINHAL DO NORTE,-7.352026173790328,41.32289399991049
pt.ine.add.PTCONT.858080,EN 314,12,5140-205,PINHAL DO NORTE,-7.343026689608885,41.29764828216289
pt.ine.add.PTCONT.858411,R DO CAMPO DA BOLA,,5140-144,LAVANDEIRA,-7.303380562614875,41.195451653863536
pt.ine.add.PTCONT.858432,R 22 DE JULHO,,5140-286,VILARINHO DA CASTANHEIRA,-7.215522327351509,41.20928183196674
pt.ine.add.PTCONT.858456,R DAS AMENDOEIRAS,,5140-224,RIBALONGA CRZ,-7.392760194850755,41.221038607958796
pt.ine.add.PTCONT.858465,R DA ESCOLA,,5140-252,SELORES,-7.292676488064828,41.20284751537477
pt.ine.add.PTCONT.858466,EM 632,28,5140-252,SELORES,-7.2875868998349524,41.20461109561499
pt.ine.add.PTCONT.858470,R DA CEREZADA,,5140-144,LAVANDEIRA,-7.301217468434204,41.19682269562196
pt.ine.add.PTCONT.858471,R DA CEREZADA,7,5140-144,LAVANDEIRA,-7.299898126907886,41.196516018945196
pt.ine.add.PTCONT.858499,TV DA R DIREITA,,5140-154,LINHARES CRZ,-7.363772206434915,41.207576405328055
pt.ine.add.PTCONT.858574,R DA ESTRADA,,5140-233,SEIXO DE ANSIÃES,-7.267370792842661,41.18981107254473
pt.ine.add.PTCONT.858575,R DO FUNDO DO POVO,,5140-233,SEIXO DE ANSIÃES,-7.266444929310502,41.18680570953061
pt.ine.add.PTCONT.858576,,,5140-233,SEIXO DE ANSIÃES,-7.268740287550158,41.186282707730754
pt.ine.add.PTCONT.858577,R DO CASTELO,,5140-279,VILARINHO DA CASTANHEIRA,-7.2147064576557325,41.204530137532814
pt.ine.add.PTCONT.858611,R DO AREAL,,5140-278,VILARINHO DA CASTANHEIRA,-7.214383540996623,41.202897808565375
pt.ine.add.PTCONT.858612,TV BICUDA,,5140-285,VILARINHO DA CASTANHEIRA,-7.2132641835200415,41.20195243989533
pt.ine.add.PTCONT.858613,R DA EIRA VELHA,,5140-270,VILARINHO DA CASTANHEIRA,-7.22348619787179,41.16800679296137
pt.ine.add.PTCONT.858614,R DE STA BÁRBARA,,5140-300,ZEDES,-7.29988788582195,41.28091170080495
pt.ine.add.PTCONT.858918,AV PRINCIPAL,88,5140-012,AMEDO,-7.322206864079077,41.27817176815196
pt.ine.add.PTCONT.858919,R DO EIRÓ,73,5140-012,AMEDO,-7.324764521205583,41.27692918430734
pt.ine.add.PTCONT.858952,R DA EIRA DA SANTA,,5140-031,BELVER CRZ,-7.26121926008182,41.26349957806861
pt.ine.add.PTCONT.858953,R DA CAPELA,,5140-031,BELVER CRZ,-7.2601527035406175,41.26294224653257
pt.ine.add.PTCONT.858954,BC DOS CASTROS,,5140-031,BELVER CRZ,-7.260580315970329,41.26129774027983
pt.ine.add.PTCONT.858955,R MARECHAL GOMES DA COSTA,,5140-032,BELVER CRZ,-7.275744889893236,41.24684303131135
pt.ine.add.PTCONT.858989,LG D MARIA ISABEL M B A LIMA PEREIRA,,5140-131,CASTANHEIRO,-7.386373141576367,41.23318001826552
pt.ine.add.PTCONT.858990,BR DA CP,9,5140-133,CASTANHEIRO,-7.411994300428997,41.204899068792905
pt.ine.add.PTCONT.859022,AV DA ESTAÇÃO,15,5140-133,CASTANHEIRO,-7.422548242543215,41.20797208206307
pt.ine.add.PTCONT.859023,R DAS PEDRINHAS,,5140-142,FONTE LONGA CRZ,-7.2648408418766355,41.230616922327954
pt.ine.add.PTCONT.859024,R DO CABEÇO,,5140-142,FONTE LONGA CRZ,-7.260232865235807,41.22913241644682
pt.ine.add.PTCONT.859025,R DO CABO,,5140-151,LINHARES CRZ,-7.347169016908116,41.219070684484734
pt.ine.add.PTCONT.859053,R PRINCIPAL,,5140-153,LINHARES CRZ,-7.358995556013939,41.17886594658482
pt.ine.add.PTCONT.859054,R DO FERREIRO,,5140-152,LINHARES CRZ,-7.352771810392528,41.17005380735305
pt.ine.add.PTCONT.859055,R DE S JOÃO BAPTISTA,,5140-162,MARZAGÃO,-7.319955670912694,41.21043580975703
pt.ine.add.PTCONT.859056,R DA FONTE NOVA,,5140-162,MARZAGÃO,-7.32003445627918,41.20888764614819
pt.ine.add.PTCONT.859085,R DOS QUINTEIROS,,5140-182,PARAMBOS,-7.362890975083732,41.23696015366191
pt.ine.add.PTCONT.859086,BC DO FERREIRA,,5140-181,PARAMBOS,-7.349210047169982,41.2318975306534
pt.ine.add.PTCONT.859087,BR NOVO,21,5140-201,PEREIROS CRZ,-7.316424118578484,41.33222714738394
pt.ine.add.PTCONT.859123,,,5140-206,PINHAL DO NORTE,-7.335527382111446,41.31148080084599
pt.ine.add.PTCONT.859124,BR NOVO,16,5140-205,PINHAL DO NORTE,-7.347267738074082,41.29544430653898
pt.ine.add.PTCONT.859125,R DO CASTELO,3,5140-205,PINHAL DO NORTE,-7.341829324995588,41.295956298748834
pt.ine.add.PTCONT.859126,R DA ESCOLA,,5140-221,POMBAL CRZ,-7.35500757611926,41.26300112880922
pt.ine.add.PTCONT.859127,R DA EIRA,,5140-224,RIBALONGA CRZ,-7.39146982241667,41.22230889901477
pt.ine.add.PTCONT.859144,R DO AREAL,,5140-153,LINHARES CRZ,-7.358990168778047,41.17729917164641
pt.ine.add.PTCONT.859145,R DO SANTO,,5140-224,RIBALONGA CRZ,-7.39135851001152,41.221605855452054
pt.ine.add.PTCONT.859149,R 22 DE JULHO,,5140-286,VILARINHO DA CASTANHEIRA,-7.213808573788262,41.20309131156292
pt.ine.add.PTCONT.859155,R MARECHAL GOMES DA COSTA,584,5140-083,CARRAZEDA DE ANSIÃES,-7.306939557312327,41.238517175266225
pt.ine.add.PTCONT.859171,R 25 DE ABRIL,,5140-152,LINHARES CRZ,-7.353559951807155,41.17192302520228
pt.ine.add.PTCONT.859229,BR NOVO,25,5140-201,PEREIROS CRZ,-7.316097431779722,41.33160355302063
pt.ine.add.PTCONT.859371,R LUIS DE CAMÕES,,5140-080,CARRAZEDA DE ANSIÃES,-7.299553594100969,41.24619848834155
pt.ine.add.PTCONT.863790,R DO PIO,,5140-152,LINHARES CRZ,-7.353349932080134,41.169535475875236
pt.ine.add.PTCONT.859367,R LUIS DE CAMÕES,,5140-080,CARRAZEDA DE ANSIÃES,-7.299553594100969,41.24619848834155
pt.ine.add.PTCONT.859368,R LUIS DE CAMÕES,,5140-080,CARRAZEDA DE ANSIÃES,-7.299553594100969,41.24619848834155
pt.ine.add.PTCONT.859369,R LUIS DE CAMÕES,,5140-080,CARRAZEDA DE ANSIÃES,-7.299553594100969,41.24619848834155
pt.ine.add.PTCONT.859370,R LUIS DE CAMÕES,,5140-080,CARRAZEDA DE ANSIÃES,-7.299553594100969,41.24619848834155
pt.ine.add.PTCONT.859372,R DO CEMITÉRIO,,5140-021,BEIRA GRANDE,-7.27724334786376,41.186832439918554
pt.ine.add.PTCONT.859373,R DA COSTA,,5140-021,BEIRA GRANDE,-7.277149066862781,41.18400441740854
pt.ine.add.PTCONT.859374,R DA PEREIRA,,5140-162,MARZAGÃO,-7.320471120977178,41.21021434378981
pt.ine.add.PTCONT.859375,R DA IGREJA,,5140-162,MARZAGÃO,-7.319260487660792,41.21072803675509
pt.ine.add.PTCONT.859376,R 5 DE OUTUBRO,18,5140-202,PEREIROS CRZ,-7.297978371223859,41.31551840882396
pt.ine.add.PTCONT.859377,R 5 DE OUTUBRO,20,5140-202,PEREIROS CRZ,-7.29794358106951,41.31543712024507
pt.ine.add.PTCONT.859378,R LARGA,,5140-270,VILARINHO DA CASTANHEIRA,-7.223294488202912,41.1672219116513
pt.ine.add.PTCONT.859380,R DO PARDIEIRO,,5140-151,LINHARES CRZ,-7.349074923740318,41.22024521619341
pt.ine.add.PTCONT.859381,R DO RIBEIRO,,5140-221,POMBAL CRZ,-7.3559584905656745,41.264322152191255
pt.ine.add.PTCONT.859383,R DA CAPELA,,5140-203,PINHAL DO NORTE,-7.351223191338387,41.32412209850418
pt.ine.add.PTCONT.859384,R DA EIRA DA SANTA,,5140-031,BELVER CRZ,-7.261666529496581,41.264862581204206
pt.ine.add.PTCONT.859385,R FERNANDO PESSOA,,5140-075,CARRAZEDA DE ANSIÃES,-7.308219590783773,41.24486526234141
pt.ine.add.PTCONT.859386,TV DE STA CATARINA,,5140-171,MOGO DE MALTA,-7.26062575704114,41.26774500814722
pt.ine.add.PTCONT.859389,BC DO MARQUES,,5140-031,BELVER CRZ,-7.261944335853277,41.26101993904201
pt.ine.add.PTCONT.859390,PC DO TOURAL,,5140-101,CARRAZEDA DE ANSIÃES,-7.30515518286315,41.24379878793019
pt.ine.add.PTCONT.859391,R DO ARRABALDE DAS EIRAS,,5140-154,LINHARES CRZ,-7.365801478700137,41.20737384369906
pt.ine.add.PTCONT.859394,R DAS EIRAS,,5140-142,FONTE LONGA CRZ,-7.261919175719444,41.232377672161626
pt.ine.add.PTCONT.859395,R DA CANENHA DE BAIXO,,5140-224,RIBALONGA CRZ,-7.3905559929636375,41.22191582970954
pt.ine.add.PTCONT.859396,R DA CALÇADA,,5140-224,RIBALONGA CRZ,-7.390407592948654,41.22132960047441
pt.ine.add.PTCONT.859397,R DO LOUREIRO,8,5140-233,SEIXO DE ANSIÃES,-7.267377199773042,41.1875150493216
pt.ine.add.PTCONT.859398,R DO CASTELO,,5140-279,VILARINHO DA CASTANHEIRA,-7.214532638095264,41.205023979904595
pt.ine.add.PTCONT.859399,R DAS EIRAS,,5140-142,FONTE LONGA CRZ,-7.261846478574324,41.23066633662585
pt.ine.add.PTCONT.859400,R DAS ARADEIRAS,,5140-142,FONTE LONGA CRZ,-7.263549978374914,41.230823280228876
pt.ine.add.PTCONT.859401,R DA CAPELA,16,5140-012,AMEDO,-7.323922506582555,41.276491072808255
pt.ine.add.PTCONT.859402,R DAS EIRAS,,5140-142,FONTE LONGA CRZ,-7.262543676870931,41.230257419820084
pt.ine.add.PTCONT.859405,R DO EIRÓ,99,5140-012,AMEDO,-7.324819084336092,41.27734375525051
pt.ine.add.PTCONT.859406,R DR JOSÉ DE FREITAS,,5140-181,PARAMBOS,-7.347732610542074,41.233760327671945
pt.ine.add.PTCONT.859407,R DA FONTE,,5140-233,SEIXO DE ANSIÃES,-7.264849775096411,41.18935989183565
pt.ine.add.PTCONT.859408,R DO CASTELO,,5140-279,VILARINHO DA CASTANHEIRA,-7.214452716123818,41.20477122589182
pt.ine.add.PTCONT.859410,R DE STA HELENA,,5140-120,CARRAZEDA DE ANSIÃES,-7.299742584458531,41.25948992737413
pt.ine.add.PTCONT.859411,R DAS ARADEIRAS,,5140-142,FONTE LONGA CRZ,-7.2635541580156096,41.22960775335266
pt.ine.add.PTCONT.859413,R DO TERREIRO,113,5140-011,AMEDO,-7.32334579443133,41.25651592572322
pt.ine.add.PTCONT.859414,R DA LAMEIRINHA,,5140-144,LAVANDEIRA,-7.300109912958172,41.19391533675696
pt.ine.add.PTCONT.859415,LG DA FEIRA,,5140-279,VILARINHO DA CASTANHEIRA,-7.215875621932614,41.20362103164298
pt.ine.add.PTCONT.859416,R DR JOÃO JOSÉ DE FREITAS,84,5140-069,CARRAZEDA DE ANSIÃES,-7.308254123686547,41.24211925008335
pt.ine.add.PTCONT.859417,R DO CAMPO DA BOLA,,5140-144,LAVANDEIRA,-7.304402360883523,41.195720133131914
pt.ine.add.PTCONT.859418,R DA ESCOLA,,5140-161,MARZAGÃO,-7.328023382618939,41.23510989110701
pt.ine.add.PTCONT.859419,R DE STO ANTÓNIO,,5140-276,VILARINHO DA CASTANHEIRA,-7.21392984512961,41.20209281756818
pt.ine.add.PTCONT.859420,R DO CABO DO POVO,,5140-161,MARZAGÃO,-7.330636855938651,41.233057180395846
pt.ine.add.PTCONT.859421,R DA BARREIRA,,5140-231,SEIXO DE ANSIÃES,-7.237425841320726,41.156761704760726
pt.ine.add.PTCONT.859422,R LUIS DE CAMÕES,,5140-080,CARRAZEDA DE ANSIÃES,-7.299553594100969,41.24619848834155
pt.ine.add.PTCONT.859423,R LUIS DE CAMÕES,,5140-080,CARRAZEDA DE ANSIÃES,-7.299553594100969,41.24619848834155
pt.ine.add.PTCONT.859424,R DO JARDIM,,5140-144,LAVANDEIRA,-7.2991819941173945,41.19282811665408
pt.ine.add.PTCONT.859880,R LUIS DE CAMÕES,,5140-080,CARRAZEDA DE ANSIÃES,-7.299553594100969,41.24619848834155
pt.ine.add.PTCONT.859889,R DA MINA,48,5140-201,PEREIROS CRZ,-7.313158569590083,41.329718825768914
pt.ine.add.PTCONT.859904,R DO FUNDO DO POVO,,5140-270,VILARINHO DA CASTANHEIRA,-7.224425475733188,41.16729386975293
pt.ine.add.PTCONT.859910,R JUSTINIANO FERRAZ DE ARAÚJO E COSTA,,5140-079,CARRAZEDA DE ANSIÃES,-7.308329541562067,41.24181364985514
pt.ine.add.PTCONT.859953,R ENG ADELINO AMARO DA COSTA,,5140-072,CARRAZEDA DE ANSIÃES,-7.3073463053881555,41.24505709322489
pt.ine.add.PTCONT.859954,R LUIS DE CAMÕES,,5140-080,CARRAZEDA DE ANSIÃES,-7.299553594100969,41.24619848834155
pt.ine.add.PTCONT.859955,R ENG ADELINO AMARO COSTA,240,5140-072,CARRAZEDA DE ANSIÃES,-7.3073463053881555,41.24505709322489
pt.ine.add.PTCONT.859981,R DA ROSEIRA,,5140-154,LINHARES CRZ,-7.362329763389246,41.206540280643765
pt.ine.add.PTCONT.860106,R DE STO ANTÓNIO,9,5140-021,BEIRA GRANDE,-7.278614314650125,41.184978748878294
pt.ine.add.PTCONT.860107,R LUIS DE CAMÕES,,5140-080,CARRAZEDA DE ANSIÃES,-7.30033975654946,41.24629421852769
pt.ine.add.PTCONT.860108,R LUIS DE CAMÕES,,5140-080,CARRAZEDA DE ANSIÃES,-7.30033975654946,41.24629421852769
pt.ine.add.PTCONT.860109,R DELFINA,,5140-144,LAVANDEIRA,-7.300921570990955,41.1938311627657
pt.ine.add.PTCONT.860110,QTA DA FONTE SANTA,,5140-231,SEIXO DE ANSIÃES,-7.270243589035082,41.14438825628522
pt.ine.add.PTCONT.860113,LOTEAM PANORAMA,,5140-123,CARRAZEDA DE ANSIÃES,-7.311466633767761,41.24183607934967
pt.ine.add.PTCONT.860114,LOTEAM PANORAMA,,5140-123,CARRAZEDA DE ANSIÃES,-7.311466633767761,41.24183607934967
pt.ine.add.PTCONT.860115,LOTEAM PANORAMA,,5140-123,CARRAZEDA DE ANSIÃES,-7.311466633767761,41.24183607934967
pt.ine.add.PTCONT.860116,LOTEAM PANORAMA,,5140-123,CARRAZEDA DE ANSIÃES,-7.311466633767761,41.24183607934967
pt.ine.add.PTCONT.860117,LOTEAM PANORAMA,,5140-123,CARRAZEDA DE ANSIÃES,-7.311466633767761,41.24183607934967
pt.ine.add.PTCONT.860118,LOTEAM PANORAMA,,5140-123,CARRAZEDA DE ANSIÃES,-7.311466633767761,41.24183607934967
pt.ine.add.PTCONT.860119,LOTEAM PANORAMA,,5140-123,CARRAZEDA DE ANSIÃES,-7.311466633767761,41.24183607934967
pt.ine.add.PTCONT.860120,LOTEAM PANORAMA,,5140-123,CARRAZEDA DE ANSIÃES,-7.311466633767761,41.24183607934967
pt.ine.add.PTCONT.860121,R PRINCIPAL,,5140-221,POMBAL CRZ,-7.355527797157169,41.26642620582339
pt.ine.add.PTCONT.860122,R DA ESCOLA,,5140-270,VILARINHO DA CASTANHEIRA,-7.224183393055563,41.16584227996496
pt.ine.add.PTCONT.860123,R DO PARDIEIRO,,5140-151,LINHARES CRZ,-7.350140481977498,41.21989229930817
pt.ine.add.PTCONT.860124,R DO CABO,,5140-151,LINHARES CRZ,-7.34670214430684,41.2192205680211
pt.ine.add.PTCONT.860126,EN 214,,5140-031,BELVER CRZ,-7.257787833524767,41.263995776339755
pt.ine.add.PTCONT.860128,BR DO BARRINHO,108,5140-203,PINHAL DO NORTE,-7.353631652445903,41.32147324442152
pt.ine.add.PTCONT.860129,R DAS CURTINHAS,,5140-224,RIBALONGA CRZ,-7.390037114981225,41.22245273369138
pt.ine.add.PTCONT.860130,R DA PORTELA,5,5140-300,ZEDES,-7.303399609597956,41.27977553977152
pt.ine.add.PTCONT.860134,R DA FONTE,,5140-031,BELVER CRZ,-7.261272898690037,41.262158375484354
pt.ine.add.PTCONT.860135,R DO SAMPAIO,,5140-154,LINHARES CRZ,-7.36075029870713,41.206007454276204
pt.ine.add.PTCONT.860137,R DR JOSÉ ANTÓNIO MARQUES,16,5140-071,CARRAZEDA DE ANSIÃES,-7.306531039650126,41.24348452488855
pt.ine.add.PTCONT.860138,TV DE STO ANTÓNIO,57,5140-096,CARRAZEDA DE ANSIÃES,-7.309246364119778,41.24290070961759
pt.ine.add.PTCONT.860139,QTA DA FONTE DE SEIXAS,,5140-224,RIBALONGA CRZ,-7.380374774331747,41.227873521266034
pt.ine.add.PTCONT.860140,QTA DO VISCONDE,,5140-224,RIBALONGA CRZ,-7.405171866349341,41.2019207697817
pt.ine.add.PTCONT.860144,R NOVA DA TELHEIRA,157,5140-061,CARRAZEDA DE ANSIÃES,-7.3119218929527285,41.23786850294761
pt.ine.add.PTCONT.860145,R DO AREAL,,5140-153,LINHARES CRZ,-7.357963357512591,41.17847182165377
pt.ine.add.PTCONT.860146,R DA CADEIA,,5140-281,VILARINHO DA CASTANHEIRA,-7.213049308823058,41.20452591346402
pt.ine.add.PTCONT.860148,PC DO MUNICÍPIO,,5140-087,CARRAZEDA DE ANSIÃES,-7.30621406930513,41.24213162932698
pt.ine.add.PTCONT.860149,R DO FUNDO DO POVO,,5140-142,FONTE LONGA CRZ,-7.26425587528895,41.23065753041636
pt.ine.add.PTCONT.860150,TV 25 DE ABRIL,,5140-233,SEIXO DE ANSIÃES,-7.26560316643235,41.190076901158896
pt.ine.add.PTCONT.860151,R DE NSA SRA DA GRAÇA,,5140-120,CARRAZEDA DE ANSIÃES,-7.300897703476954,41.25873293415244
pt.ine.add.PTCONT.860152,R DO OURO,,5140-152,LINHARES CRZ,-7.353815867664854,41.17043905502412
pt.ine.add.PTCONT.860155,R DA BARREIRA,11,5140-011,AMEDO,-7.329455849921042,41.2593590176545
pt.ine.add.PTCONT.860156,LG DA PRAÇA,,5140-142,FONTE LONGA CRZ,-7.263690825880166,41.230095008785845
pt.ine.add.PTCONT.860161,R DA FONTE FRIA,135,5140-011,AMEDO,-7.322893758468504,41.25640469610213
pt.ine.add.PTCONT.860162,R DR JOÃO JOSÉ DE FREITAS,327,5140-069,CARRAZEDA DE ANSIÃES,-7.309209511001621,41.24013617696877
pt.ine.add.PTCONT.860163,R DR JOÃO JOSÉ DE FREITAS,327,5140-069,CARRAZEDA DE ANSIÃES,-7.309209511001621,41.24013617696877
pt.ine.add.PTCONT.860164,R DO CARRIL,4,5140-131,CASTANHEIRO,-7.3836549718851145,41.2341077957252
pt.ine.add.PTCONT.860165,EN 214,,5140-184,PARAMBOS,-7.35295042087671,41.229293718744515
pt.ine.add.PTCONT.860167,R DA BELA VISTA,,5140-222,POMBAL CRZ,-7.354042382987846,41.281957233450456
pt.ine.add.PTCONT.860168,R DO AREAL,,5140-278,VILARINHO DA CASTANHEIRA,-7.214631610384357,41.203061862334025
pt.ine.add.PTCONT.860170,AV DE FRANÇA,,5140-231,SEIXO DE ANSIÃES,-7.241451853415452,41.15506412718917
pt.ine.add.PTCONT.863859,,,5140-222,POMBAL CRZ,-7.373987723250792,41.291274650216884
pt.ine.add.PTCONT.863860,,,5140-222,POMBAL CRZ,-7.373987723250792,41.291274650216884
pt.ine.add.PTCONT.860732,R DE STO ANTÓNIO,75,5140-095,CARRAZEDA DE ANSIÃES,-7.3092939087339435,41.241964620085795
pt.ine.add.PTCONT.860741,R DA ESCOLA,,5140-181,PARAMBOS,-7.348009341317449,41.23555404179166
pt.ine.add.PTCONT.860762,R DO CABEÇO,,5140-021,BEIRA GRANDE,-7.280296225643398,41.183955731334166
pt.ine.add.PTCONT.860772,R DO EIRÓ,69,5140-012,AMEDO,-7.324539431685239,41.27679254231426
pt.ine.add.PTCONT.860781,R DA IGREJA,7,5140-144,LAVANDEIRA,-7.3004358435383105,41.19359354248024
pt.ine.add.PTCONT.861011,QTA DO BARRABÁZ,,5140-222,POMBAL CRZ,-7.390078475609206,41.27987241140169
pt.ine.add.PTCONT.860995,QTA DA GRICHA,,5140-162,MARZAGÃO,-7.31877395000324,41.21727063493162
pt.ine.add.PTCONT.860996,R DO CALVÁRIO,,5140-222,POMBAL CRZ,-7.355520787248048,41.282102290371775
pt.ine.add.PTCONT.860997,,,5140-231,SEIXO DE ANSIÃES,-7.239263905975211,41.156514860442954
pt.ine.add.PTCONT.860998,CAIS FLUVIAL,,5140-231,SEIXO DE ANSIÃES,-7.260411723398267,41.14565582267635
pt.ine.add.PTCONT.860999,R DA EIRA VELHA,,5140-270,VILARINHO DA CASTANHEIRA,-7.224918293030946,41.167847014227966
pt.ine.add.PTCONT.861003,R DO OUTÃO,,5140-144,LAVANDEIRA,-7.3001166470669405,41.19338413742228
pt.ine.add.PTCONT.861004,R DAS CANGAS,511,5140-021,BEIRA GRANDE,-7.279594137525361,41.18478792196729
pt.ine.add.PTCONT.861005,R DO SENHOR DOS AFLITOS,,5140-098,CARRAZEDA DE ANSIÃES,-7.300258845024575,41.24515010949707
pt.ine.add.PTCONT.861006,R LARGA,,5140-270,VILARINHO DA CASTANHEIRA,-7.222882845818562,41.16683147773067
pt.ine.add.PTCONT.861007,R DA CANELHA,,5140-270,VILARINHO DA CASTANHEIRA,-7.222448127958557,41.16638683455104
pt.ine.add.PTCONT.861009,R DO DOURO,3,5140-133,CASTANHEIRO,-7.422976860232685,41.20802875127885
pt.ine.add.PTCONT.861010,R DA CAPELA,,5140-221,POMBAL CRZ,-7.354412896858322,41.26283503404302
pt.ine.add.PTCONT.861012,R DA EIRA DA SANTA,,5140-031,BELVER CRZ,-7.261457538914317,41.263528394647466
pt.ine.add.PTCONT.861013,R DE S ROQUE,15,5140-300,ZEDES,-7.299357942018748,41.28222245791275
pt.ine.add.PTCONT.861014,R DE STA BÁRBARA,18,5140-300,ZEDES,-7.29955177313584,41.28199875989536
pt.ine.add.PTCONT.861015,BR DO BARRINHO,109,5140-203,PINHAL DO NORTE,-7.354097205154192,41.32149440438071
pt.ine.add.PTCONT.861016,R DO FERRANJAL,,5140-031,BELVER CRZ,-7.262275545992032,41.2612385429555
pt.ine.add.PTCONT.861017,R 22 DE JULHO,,5140-286,VILARINHO DA CASTANHEIRA,-7.214536500762099,41.205600276870086
pt.ine.add.PTCONT.861022,R LUIS DE CAMÕES,,5140-080,CARRAZEDA DE ANSIÃES,-7.303724021665374,41.24282504570567
pt.ine.add.PTCONT.861023,R DO CAMPO DA BOLA,,5140-233,SEIXO DE ANSIÃES,-7.2637386441361995,41.19225986498059
pt.ine.add.PTCONT.861024,R DAS EIRAS,16,5140-233,SEIXO DE ANSIÃES,-7.263366055564558,41.19159074124219
pt.ine.add.PTCONT.861026,R DA TELHEIRA,123,5140-099,CARRAZEDA DE ANSIÃES,-7.311713195210482,41.23643535592159
pt.ine.add.PTCONT.861029,R MARECHAL GOMES DA COSTA,246,5140-083,CARRAZEDA DE ANSIÃES,-7.305410907394179,41.24149556916701
pt.ine.add.PTCONT.861031,R DA CAPELA,7,5140-136,CASTANHEIRO,-7.401176589108978,41.233067974480264
pt.ine.add.PTCONT.861033,R DOS CABEÇOS,,5140-222,POMBAL CRZ,-7.357560582734251,41.28624892400251
pt.ine.add.PTCONT.861034,BR DO PEREIRO,197,5140-106,CARRAZEDA DE ANSIÃES,-7.306666420352637,41.247888514423934
pt.ine.add.PTCONT.861035,PC DA IGREJA,,5140-152,LINHARES CRZ,-7.352650948725443,41.17019705652941
pt.ine.add.PTCONT.861036,LG DA FEIRA,,5140-279,VILARINHO DA CASTANHEIRA,-7.215970988891609,41.203621791214545
pt.ine.add.PTCONT.861038,R DE STO ANTÓNIO,95,5140-011,AMEDO,-7.323479034712476,41.256354788717374
pt.ine.add.PTCONT.861039,LG DA CAPELA,,5140-161,MARZAGÃO,-7.328568816479188,41.23440237574194
pt.ine.add.PTCONT.861040,LG DA CAPELA,,5140-161,MARZAGÃO,-7.328101903426525,41.23454317870352
pt.ine.add.PTCONT.861041,R DE S PEDRO,,5140-222,POMBAL CRZ,-7.359415958608787,41.28278583334896
pt.ine.add.PTCONT.861043,R LUÍS DE CAMÕES,62,5140-080,CARRAZEDA DE ANSIÃES,-7.298894528837472,41.24642782216822
pt.ine.add.PTCONT.861044,R LUÍS DE CAMÕES,68,5140-080,CARRAZEDA DE ANSIÃES,-7.298894528837472,41.24642782216822
pt.ine.add.PTCONT.861045,R LUÍS DE CAMÕES,62,5140-080,CARRAZEDA DE ANSIÃES,-7.298894528837472,41.24642782216822
pt.ine.add.PTCONT.861046,R LUIS DE CAMÕES,337,5140-080,CARRAZEDA DE ANSIÃES,-7.301857464767952,41.246089087048865
pt.ine.add.PTCONT.861047,R DO CRUZEIRO,5,5140-131,CASTANHEIRO,-7.385470428284594,41.2338944938183
pt.ine.add.PTCONT.861048,R DO ALTO DA CRUZ,,5140-161,MARZAGÃO,-7.316388411057754,41.23648662148785
pt.ine.add.PTCONT.861049,R DA PORTELA,12,5140-201,PEREIROS CRZ,-7.312878008430106,41.329230610686366
pt.ine.add.PTCONT.861050,LG DA FEIRA,,5140-279,VILARINHO DA CASTANHEIRA,-7.21613149044911,41.203226886255734
pt.ine.add.PTCONT.861052,R DA COSTEIRINHA,,5140-270,VILARINHO DA CASTANHEIRA,-7.222761161994068,41.16787500546261
pt.ine.add.PTCONT.861528,R JOÃO DA CRUZ,,5140-078,CARRAZEDA DE ANSIÃES,-7.303217501719919,41.24514446087197
pt.ine.add.PTCONT.861531,R 22 DE JULHO,12,5140-286,VILARINHO DA CASTANHEIRA,-7.216205434363196,41.207324367507475
pt.ine.add.PTCONT.861577,R DA LAMEIRINHA,,5140-021,BEIRA GRANDE,-7.2795432090478505,41.18320280311314
pt.ine.add.PTCONT.861623,R PADRE ANTÓNIONE DA SILVA RIBEIRO,,5140-142,FONTE LONGA CRZ,-7.264175731780156,41.230404809819525
pt.ine.add.PTCONT.861815,R DO BAIRRO DA RIBEIRA,2,5140-132,CASTANHEIRO,-7.418499456010085,41.215177409391494
pt.ine.add.PTCONT.861806,,,5140-231,SEIXO DE ANSIÃES,-7.247592611657647,41.14758394594883
pt.ine.add.PTCONT.861807,EN 214,9,5140-131,CASTANHEIRO,-7.382933928509882,41.23249135436051
pt.ine.add.PTCONT.861808,R DE STO ANTÓNIO,20,5140-132,CASTANHEIRO,-7.418373095905146,41.218021953148195
pt.ine.add.PTCONT.861809,QTA DAS CHOUSAS,,5140-133,CASTANHEIRO,-7.416669056710021,41.20698120855813
pt.ine.add.PTCONT.861810,R 25 DE ABRIL,23,5140-202,PEREIROS CRZ,-7.299118551745894,41.31507647512178
pt.ine.add.PTCONT.861814,AV DA ESTAÇÃO,,5140-133,CASTANHEIRO,-7.419773679372623,41.207648785312074
pt.ine.add.PTCONT.861817,R DR JOÃO TRIGO MOUTINHO,,5140-171,MOGO DE MALTA,-7.258961712297074,41.2681375683741
pt.ine.add.PTCONT.861830,R DO VALE,,5140-032,BELVER CRZ,-7.276162331615102,41.24776455874578
pt.ine.add.PTCONT.861831,R MARECHAL GOMES DA COSTA,640,5140-083,CARRAZEDA DE ANSIÃES,-7.306706791409017,41.23805629383439
pt.ine.add.PTCONT.861832,R DA CAPELA,,5140-153,LINHARES CRZ,-7.359121674648125,41.17726403848458
pt.ine.add.PTCONT.861833,R DA CAPELA,,5140-153,LINHARES CRZ,-7.359207315933433,41.17707552479453
pt.ine.add.PTCONT.861834,R DO FUNDO,,5140-153,LINHARES CRZ,-7.359294016384255,41.17679697567427
pt.ine.add.PTCONT.861835,R DA CAPELA,,5140-153,LINHARES CRZ,-7.3594220247777775,41.1770589588327
pt.ine.add.PTCONT.861836,R DO ARRABALDE,7,5140-205,PINHAL DO NORTE,-7.33983729220254,41.29777941581917
pt.ine.add.PTCONT.861837,R DO CASTELO,,5140-279,VILARINHO DA CASTANHEIRA,-7.215409546986104,41.20455375107327
pt.ine.add.PTCONT.861842,AV ENG ANTÓNIO CRUZ SAMPAIO,,5140-182,PARAMBOS,-7.3626949951357865,41.23536510670783
pt.ine.add.PTCONT.861843,AV ENG ANTÓNIO CRUZ SAMPAIO,,5140-182,PARAMBOS,-7.3626949951357865,41.23536510670783
pt.ine.add.PTCONT.861845,R DO EIRÓ,75,5140-012,AMEDO,-7.324571901902268,41.27706289287446
pt.ine.add.PTCONT.861846,R DO CAMPO DA BOLA,,5140-120,CARRAZEDA DE ANSIÃES,-7.300346006644689,41.26177233133493
pt.ine.add.PTCONT.861847,R DO ADRO,,5140-142,FONTE LONGA CRZ,-7.263906444883305,41.23002460357465
pt.ine.add.PTCONT.861848,R DO CABEÇO,,5140-142,FONTE LONGA CRZ,-7.26049558862257,41.229107395377746
pt.ine.add.PTCONT.861849,R DA ESCOLA,,5140-152,LINHARES CRZ,-7.351816603703984,41.171217884867815
pt.ine.add.PTCONT.861850,R DO FUNDO DA VILA,,5140-285,VILARINHO DA CASTANHEIRA,-7.212712305726162,41.20220014686899
pt.ine.add.PTCONT.861852,R DA CAPELA,1,5140-136,CASTANHEIRO,-7.401234817074636,41.23319440301418
pt.ine.add.PTCONT.861853,R CENTRAL,65,5140-136,CASTANHEIRO,-7.405612006248106,41.232141640979016
pt.ine.add.PTCONT.861854,R DO IRÓ,,5140-152,LINHARES CRZ,-7.352312725658793,41.17058194714985
pt.ine.add.PTCONT.861855,R DAS LAGES,101,5140-011,AMEDO,-7.3236679265755775,41.2565181909641
pt.ine.add.PTCONT.861858,BR DA BOLOTA,5,5140-131,CASTANHEIRO,-7.382557573054824,41.235154134973875
pt.ine.add.PTCONT.861859,R DA FONTE DA ALDEIA,,5140-233,SEIXO DE ANSIÃES,-7.265719358266823,41.18669219661699
pt.ine.add.PTCONT.861862,R DA FIGUEIRA,,5140-144,LAVANDEIRA,-7.3024635768601,41.1944365727217
pt.ine.add.PTCONT.861863,R DA MIMOSA,,5140-144,LAVANDEIRA,-7.303060915697879,41.19433282921521
pt.ine.add.PTCONT.861864,TV DE S PEDRO,,5140-222,POMBAL CRZ,-7.358971783738103,41.282998945268005
pt.ine.add.PTCONT.861865,R DO CANO,,5140-231,SEIXO DE ANSIÃES,-7.237103346990527,41.1568222261782
pt.ine.add.PTCONT.861866,,,5140-231,SEIXO DE ANSIÃES,-7.237370201467236,41.156473136369485
pt.ine.add.PTCONT.862327,EN 626,,5140-031,BELVER CRZ,-7.258501031942958,41.26241647785182
pt.ine.add.PTCONT.862334,LOTEAM DO ALTO DO VILARINHO,,5140-095,CARRAZEDA DE ANSIÃES,-7.311775594336805,41.243837201049864
pt.ine.add.PTCONT.862380,R DE S FRUTUOSO,15,5140-144,LAVANDEIRA,-7.301722176954155,41.19462031102938
pt.ine.add.PTCONT.862410,R DELFINA,,5140-144,LAVANDEIRA,-7.300834144051464,41.19414567810397
pt.ine.add.PTCONT.862516,LOTEAM DO ALTO DO VILARINHO,,5140-095,CARRAZEDA DE ANSIÃES,-7.309741640226714,41.24240902523711
pt.ine.add.PTCONT.862517,LOTEAM DO ALTO DO VILARINHO,7,5140-095,CARRAZEDA DE ANSIÃES,-7.311480765736835,41.2435649735837
pt.ine.add.PTCONT.862518,R D MARIA ISABEL M B A LIMA PEREIRA,,5140-131,CASTANHEIRO,-7.386021422660906,41.23369097431359
pt.ine.add.PTCONT.862519,R DA CARREIRA BRANCA,,5140-162,MARZAGÃO,-7.3189856276722125,41.214624904075116
pt.ine.add.PTCONT.862520,R ESCOLA,,5140-162,MARZAGÃO,-7.322084832761812,41.21278290839433
pt.ine.add.PTCONT.862521,R DE S JOÃO BAPTISTA,,5140-162,MARZAGÃO,-7.319408771543169,41.212232783140806
pt.ine.add.PTCONT.862522,LG LUIS DE CAMÕES,,5140-202,PEREIROS CRZ,-7.296040316761807,41.314847037401414
pt.ine.add.PTCONT.862524,R 5 DE OUTUBRO,6,5140-202,PEREIROS CRZ,-7.2989710115675885,41.31634497228324
pt.ine.add.PTCONT.862525,R PRINCIPAL,,5140-221,POMBAL CRZ,-7.356098410526803,41.267618600646585
pt.ine.add.PTCONT.862526,R DA ESCOLA,,5140-270,VILARINHO DA CASTANHEIRA,-7.223054548505804,41.16561726468714
pt.ine.add.PTCONT.862527,R DA CAPELA,1,5140-203,PINHAL DO NORTE,-7.352973368960435,41.32459317960409
pt.ine.add.PTCONT.862528,R DE STA MARGARIDA,12,5140-301,ZEDES,-7.3018475960131815,41.28168221036377
pt.ine.add.PTCONT.862529,R DAS EIRAS,,5140-154,LINHARES CRZ,-7.365367894773132,41.208766605035976
pt.ine.add.PTCONT.862531,R DR JOÃO TRIGO MOUTINHO,,5140-171,MOGO DE MALTA,-7.259749992967589,41.268089526726605
pt.ine.add.PTCONT.862532,R DA MORADA,,5140-300,ZEDES,-7.30589152346521,41.27999156273796
pt.ine.add.PTCONT.862535,R DOS BOMBEIROS VOLUNTÁRIOS,173,5140-060,CARRAZEDA DE ANSIÃES,-7.306840837796618,41.243513760924145
pt.ine.add.PTCONT.862536,R DAS EIRAS,,5140-142,FONTE LONGA CRZ,-7.26151718398516,41.231213096675695
pt.ine.add.PTCONT.862537,R DE S SEBASTIÃO,,5140-281,VILARINHO DA CASTANHEIRA,-7.210995227986353,41.204770604208235
pt.ine.add.PTCONT.862540,R DE STO ANTÓNIO,,5140-154,LINHARES CRZ,-7.362033241298992,41.204377286535426
pt.ine.add.PTCONT.862541,R DO CASTELO,,5140-279,VILARINHO DA CASTANHEIRA,-7.214798804909561,41.20474697382969
pt.ine.add.PTCONT.862542,R DO CEMITÉRIO,9,5140-233,SEIXO DE ANSIÃES,-7.264725538733933,41.19244739476466
pt.ine.add.PTCONT.862546,AV ENG ANTÓNIO CRUZ SAMPAIO,,5140-182,PARAMBOS,-7.362776582015308,41.23552772742306
pt.ine.add.PTCONT.862547,TV DO LOUREIRO,,5140-281,VILARINHO DA CASTANHEIRA,-7.213901700824499,41.204955916168906
pt.ine.add.PTCONT.862548,R DO OLMO,,5140-279,VILARINHO DA CASTANHEIRA,-7.215016438581278,41.20367721405212
pt.ine.add.PTCONT.862551,R DA IGREJA,,5140-120,CARRAZEDA DE ANSIÃES,-7.297203402082727,41.25930044140202
pt.ine.add.PTCONT.862552,R MARECHAL GOMES DA COSTA,,5140-083,CARRAZEDA DE ANSIÃES,-7.304698171095826,41.24220176967374
pt.ine.add.PTCONT.862554,R DR JOSÉ DE FREITAS,,5140-181,PARAMBOS,-7.34881669063219,41.231876843694124
pt.ine.add.PTCONT.862555,R DR JOÃO JOSÉ DE FREITAS,405,5140-069,CARRAZEDA DE ANSIÃES,-7.310054916320012,41.24025927709419
pt.ine.add.PTCONT.862556,TV DOS CABEÇOS,,5140-222,POMBAL CRZ,-7.3566004648342025,41.285675194633065
pt.ine.add.PTCONT.862557,R DO AREAL,,5140-278,VILARINHO DA CASTANHEIRA,-7.214349415869522,41.20278048219686
pt.ine.add.PTCONT.862558,R DE STO ANTÓNIO,165,5140-095,CARRAZEDA DE ANSIÃES,-7.309209394070781,41.242045052543766
pt.ine.add.PTCONT.862559,R DO QUEBRA COSTAS,,5140-222,POMBAL CRZ,-7.358954296766771,41.28245858260996
pt.ine.add.PTCONT.862560,R DA GRICHA,,5140-231,SEIXO DE ANSIÃES,-7.236072124468819,41.15730943275342
pt.ine.add.PTCONT.863083,R DA ESCOLA VELHA,10,5140-131,CASTANHEIRO,-7.383346408069102,41.235015207609486
pt.ine.add.PTCONT.863089,AV DA RAMPINHA,136,5140-011,AMEDO,-7.32240540993369,41.25247546319227
pt.ine.add.PTCONT.863119,LG DR JOÃO LOPES MONTEIRO,,5140-151,LINHARES CRZ,-7.3483616183595535,41.22006027367064
pt.ine.add.PTCONT.863228,R DO JARDIM,14,5140-144,LAVANDEIRA,-7.299298215491803,41.193063067512824
pt.ine.add.PTCONT.863235,R DO MONTINHO,,5140-151,LINHARES CRZ,-7.346269530898485,41.21750681854679
pt.ine.add.PTCONT.863270,R DO ADRO,,5140-252,SELORES,-7.293078984328053,41.20400298805222
pt.ine.add.PTCONT.863271,TV DO LOUREIRO,,5140-281,VILARINHO DA CASTANHEIRA,-7.213099581940288,41.20519262287649
pt.ine.add.PTCONT.863298,R DE S ROQUE,4,5140-301,ZEDES,-7.29916915300725,41.282050013137294
pt.ine.add.PTCONT.863591,R DO RIBEIRO,50,5140-012,AMEDO,-7.320601255149582,41.2777102430119
pt.ine.add.PTCONT.863592,R DA CAPELA,7,5140-012,AMEDO,-7.324047743751158,41.27601473656634
pt.ine.add.PTCONT.863593,R DAS POÇAS,41,5140-012,AMEDO,-7.324388283877604,41.27646733358038
pt.ine.add.PTCONT.863594,AV DOS MAIOS,147,5140-011,AMEDO,-7.321663207269433,41.25556765114598
pt.ine.add.PTCONT.863595,TV DA TAPADA,,5140-021,BEIRA GRANDE,-7.276182526708096,41.186833555663235
pt.ine.add.PTCONT.863596,R DO PEREIRO,,5140-021,BEIRA GRANDE,-7.278482260425802,41.185968232104926
pt.ine.add.PTCONT.863635,AV PRINCIPAL,,5140-021,BEIRA GRANDE,-7.273747131647047,41.187130555857486
pt.ine.add.PTCONT.863636,R DO CARRIL,,5140-120,CARRAZEDA DE ANSIÃES,-7.299874575005704,41.26130971123062
pt.ine.add.PTCONT.863637,R DO MOINHO DE VENTO,42,5140-086,CARRAZEDA DE ANSIÃES,-7.298124888999658,41.246908465760846
pt.ine.add.PTCONT.863638,R VASCO DA GAMA,,5140-102,CARRAZEDA DE ANSIÃES,-7.302342623205318,41.242635004014794
pt.ine.add.PTCONT.863639,TV 1 DE DEZEMBRO,,5140-092,CARRAZEDA DE ANSIÃES,-7.304856411810729,41.24289622614535
pt.ine.add.PTCONT.863675,R NOVA DA TELHEIRA,25,5140-061,CARRAZEDA DE ANSIÃES,-7.311343288276433,41.2383505983661
pt.ine.add.PTCONT.863676,R NOVA DA TELHEIRA,181,5140-061,CARRAZEDA DE ANSIÃES,-7.312126686651464,41.23770788884818
pt.ine.add.PTCONT.863677,R CENTRAL,,5140-136,CASTANHEIRO,-7.403272687786272,41.23227990812158
pt.ine.add.PTCONT.863678,R DO CARRIL,6,5140-131,CASTANHEIRO,-7.383964249344386,41.23418184168699
pt.ine.add.PTCONT.863726,R DA PRAÇA,,5140-142,FONTE LONGA CRZ,-7.262840987567488,41.23032269627439
pt.ine.add.PTCONT.863727,R VELHA,,5140-151,LINHARES CRZ,-7.348366546889695,41.220645578791185
pt.ine.add.PTCONT.863728,R DO JOGO DA BOLA,,5140-151,LINHARES CRZ,-7.347969517499514,41.21994054652487
pt.ine.add.PTCONT.863786,R DO CABO,,5140-151,LINHARES CRZ,-7.347213910937865,41.2193050995434
pt.ine.add.PTCONT.863787,R DAS FLORES,,5140-154,LINHARES CRZ,-7.367354339499301,41.208149537348625
pt.ine.add.PTCONT.863788,R DAS EIRAS,,5140-154,LINHARES CRZ,-7.3665589179665805,41.20785611085109
pt.ine.add.PTCONT.863789,R DE STA BÁRBARA,,5140-154,LINHARES CRZ,-7.360010674393187,41.20300409094311
pt.ine.add.PTCONT.863861,,,5140-222,POMBAL CRZ,-7.373987723250792,41.291274650216884
pt.ine.add.PTCONT.863827,R DOS REBELOS,,5140-182,PARAMBOS,-7.36305099768679,41.23653802864358
pt.ine.add.PTCONT.863828,R LUIS DE CAMÕES,,5140-202,PEREIROS CRZ,-7.297335083103153,41.31258743356203
pt.ine.add.PTCONT.863829,R AUGUSTO MARTINS,,5140-203,PINHAL DO NORTE,-7.3510408195457915,41.32339153392127
pt.ine.add.PTCONT.863856,QTA DA PALA DA LEBRE,11,5140-205,PINHAL DO NORTE,-7.3455495856688,41.297341424862
pt.ine.add.PTCONT.863857,,,5140-222,POMBAL CRZ,-7.372868670182138,41.29203261148268
pt.ine.add.PTCONT.863858,,,5140-222,POMBAL CRZ,-7.372868670182138,41.29203261148268
pt.ine.add.PTCONT.863863,R DO FORNO,,5140-222,POMBAL CRZ,-7.358345259413343,41.282481497553334
pt.ine.add.PTCONT.863897,R PORTELA,,5140-300,ZEDES,-7.3038133593693475,41.27632095607236
pt.ine.add.PTCONT.863913,R DA ESCOLA,7,5140-205,PINHAL DO NORTE,-7.342005429746474,41.29719106515067
pt.ine.add.PTCONT.863914,CARVALHA,,5140-251,SELORES,-7.291949631534721,41.20002389705697
pt.ine.add.PTCONT.863929,R VERDE,,5140-252,SELORES,-7.295922985310044,41.20442888724901
pt.ine.add.PTCONT.863981,R PRINCIPAL,,5140-151,LINHARES CRZ,-7.342282622754551,41.22180151147251
pt.ine.add.PTCONT.863984,R DO CIMO DO POVO,,5140-151,LINHARES CRZ,-7.348762417779526,41.22045018406026
pt.ine.add.PTCONT.864016,R DA ENCRUZILHADA,,5140-120,CARRAZEDA DE ANSIÃES,-7.300402312912466,41.25827914692483
pt.ine.add.PTCONT.864017,R DA ENCRUZILHADA,,5140-120,CARRAZEDA DE ANSIÃES,-7.299349287244218,41.25851463661564
pt.ine.add.PTCONT.864018,R DA IGREJA,,5140-120,CARRAZEDA DE ANSIÃES,-7.299262126364266,41.25973856341843
pt.ine.add.PTCONT.864019,R DO MOINHO DE VENTO,3,5140-086,CARRAZEDA DE ANSIÃES,-7.298563397784224,41.24713674812343
pt.ine.add.PTCONT.864020,R FERNANDO PESSOA,48,5140-075,CARRAZEDA DE ANSIÃES,-7.308089055070908,41.244810302283284
pt.ine.add.PTCONT.864021,R DO CIMO DO POVO,,5140-161,MARZAGÃO,-7.328622379098664,41.23489797822334
pt.ine.add.PTCONT.864022,R DO OLMO,,5140-252,SELORES,-7.292247663035201,41.20468123895589
pt.ine.add.PTCONT.864023,R DA SENHORA DA FÉ,,5140-286,VILARINHO DA CASTANHEIRA,-7.214030470522712,41.20682980875814
pt.ine.add.PTCONT.864024,R 22 DE JULHO,,5140-286,VILARINHO DA CASTANHEIRA,-7.213966771705057,41.20371386149464
pt.ine.add.PTCONT.864025,R DA LAMEIRA,,5140-279,VILARINHO DA CASTANHEIRA,-7.217224192135708,41.20266831986815
pt.ine.add.PTCONT.864240,R DA PRANHEIRA,,5140-011,AMEDO,-7.317478335978543,41.249559345136035
pt.ine.add.PTCONT.864241,R ABADE BAÇAL,71,5140-056,CARRAZEDA DE ANSIÃES,-7.308323809588857,41.24321825331813
pt.ine.add.PTCONT.864242,R NOVA DA TELHEIRA,143,5140-061,CARRAZEDA DE ANSIÃES,-7.311789226354015,41.23798461049977
pt.ine.add.PTCONT.864243,R CENTRAL,14,5140-136,CASTANHEIRO,-7.40342823464888,41.232235873067154
pt.ine.add.PTCONT.864244,R DE S JOÃO BAPTISTA,,5140-162,MARZAGÃO,-7.318948450767208,41.212814801249685
pt.ine.add.PTCONT.864245,R DR JOSÉ DE FREITAS,,5140-181,PARAMBOS,-7.348479605580591,41.2331351294022
pt.ine.add.PTCONT.864246,R DR JOSÉ DE FREITAS,,5140-181,PARAMBOS,-7.3483674457130785,41.23254009060677
pt.ine.add.PTCONT.864247,BR DOS EMIGRANTES,,5140-270,VILARINHO DA CASTANHEIRA,-7.220170610574011,41.17079887897471
pt.ine.add.PTCONT.864248,R LARGA,,5140-270,VILARINHO DA CASTANHEIRA,-7.222639326703263,41.16720773019027
pt.ine.add.PTCONT.864249,R DE STA MARGARIDA,,5140-301,ZEDES,-7.30169460782989,41.28151002821542
pt.ine.add.PTCONT.864250,R DO CARVALHO,1,5140-300,ZEDES,-7.3031268020596505,41.28246579033832
pt.ine.add.PTCONT.864254,AV DA ESTAÇÃO,,5140-133,CASTANHEIRO,-7.41736877906119,41.20622920537512
pt.ine.add.PTCONT.864255,R DA PRAÇA,,5140-142,FONTE LONGA CRZ,-7.263080579290674,41.230243469666895
pt.ine.add.PTCONT.864256,R DO FUNDO DO POVO,,5140-142,FONTE LONGA CRZ,-7.2645258817770895,41.23098371642774
pt.ine.add.PTCONT.864257,R DO CRUZEIRO,22,5140-201,PEREIROS CRZ,-7.313978542249829,41.33005781247904
pt.ine.add.PTCONT.864258,R DA CAPELA,,5140-203,PINHAL DO NORTE,-7.351473461074168,41.32416881847901
pt.ine.add.PTCONT.864259,BC DO FONTANÁRIO DO CANTO,,5140-203,PINHAL DO NORTE,-7.351583960055056,41.322918010138125
pt.ine.add.PTCONT.864260,LG DO TERREIRO,,5140-205,PINHAL DO NORTE,-7.339884888616771,41.29680730570947
pt.ine.add.PTCONT.864261,R DO CASTELO,,5140-205,PINHAL DO NORTE,-7.341386854796603,41.296016284743
pt.ine.add.PTCONT.864262,R DA BELA VISTA,,5140-222,POMBAL CRZ,-7.354268515973789,41.28201278809573
pt.ine.add.PTCONT.864661,R NOVA,2,5140-144,LAVANDEIRA,-7.30247902463902,41.19415755382274
pt.ine.add.PTCONT.864675,R DIREITA,,5140-154,LINHARES CRZ,-7.3629857894316615,41.2055001821075
pt.ine.add.PTCONT.864686,R DO CABEÇO,,5140-021,BEIRA GRANDE,-7.280641599928936,41.18397629672809
pt.ine.add.PTCONT.864765,R DO ALTO DA IGREJA,,5140-222,POMBAL CRZ,-7.35606683243115,41.28638291602065
pt.ine.add.PTCONT.864904,BC DO LAVADOURO,4,5140-131,CASTANHEIRO,-7.3858222551176524,41.233374536014615
pt.ine.add.PTCONT.864905,R DA CARREIRA BRANCA,,5140-162,MARZAGÃO,-7.319238228687292,41.215410053086174
pt.ine.add.PTCONT.864906,TV D ERNESTINA,,5140-221,POMBAL CRZ,-7.355629453486021,41.26590465406304
pt.ine.add.PTCONT.864907,R DA IGREJA,,5140-270,VILARINHO DA CASTANHEIRA,-7.222209664122616,41.16725835818796
pt.ine.add.PTCONT.864909,R DE STO ANTÓNIO,13,5140-132,CASTANHEIRO,-7.416841803667209,41.218471652609324
pt.ine.add.PTCONT.864910,R DOS ARAÚJOS,,5140-252,SELORES,-7.293713683648029,41.20378251153612
pt.ine.add.PTCONT.864911,AV DE NSA SRA DE FÁTIMA,,5140-088,CARRAZEDA DE ANSIÃES,-7.311627810985888,41.240396567868856
pt.ine.add.PTCONT.864912,LG DO MONTINHO,,5140-151,LINHARES CRZ,-7.345206546145503,41.216653157104695
pt.ine.add.PTCONT.864913,R DO GRICHO,,5140-162,MARZAGÃO,-7.319634132137956,41.207516182364294
pt.ine.add.PTCONT.864915,R DO JUNCAL,,5140-143,FONTE LONGA CRZ,-7.246148696261246,41.244025652439504
pt.ine.add.PTCONT.864916,ESTR PRINCIPAL,122,5140-203,PINHAL DO NORTE,-7.349835131147934,41.322338868813574
pt.ine.add.PTCONT.864917,ESTR PRINCIPAL,123,5140-203,PINHAL DO NORTE,-7.349835131147934,41.322338868813574
pt.ine.add.PTCONT.864918,R DE STA BÁRBARA,10,5140-300,ZEDES,-7.299667897651241,41.28131529145745
pt.ine.add.PTCONT.864919,R DE NSA SRA DE FÁTIMA,101,5140-089,CARRAZEDA DE ANSIÃES,-7.310441800393003,41.23984785177557
pt.ine.add.PTCONT.864923,TV DE STO ANTÓNIO,140,5140-096,CARRAZEDA DE ANSIÃES,-7.309847588541858,41.243472270341776
pt.ine.add.PTCONT.864924,R MARECHAL GOMES DA COSTA,721,5140-083,CARRAZEDA DE ANSIÃES,-7.306154147103605,41.23742203629682
pt.ine.add.PTCONT.864925,R MARECHAL GOMES DA COSTA,721,5140-083,CARRAZEDA DE ANSIÃES,-7.306154147103605,41.23742203629682
pt.ine.add.PTCONT.864926,BC DA BELMIRA,,5140-182,PARAMBOS,-7.362719974427425,41.23730116757348
pt.ine.add.PTCONT.864927,R DA RIBEIRA,,5140-300,ZEDES,-7.3037692366060405,41.27697793589056
pt.ine.add.PTCONT.864928,R DO FUNDO DO POVO,,5140-142,FONTE LONGA CRZ,-7.264129820204603,41.23116981488813
pt.ine.add.PTCONT.864929,R DO VALE,,5140-205,PINHAL DO NORTE,-7.339449765176965,41.297245505243495
pt.ine.add.PTCONT.864930,R DA CALÇADA,,5140-282,VILARINHO DA CASTANHEIRA,-7.212006624581129,41.20491376097146
pt.ine.add.PTCONT.864931,R DO CASTELO,,5140-279,VILARINHO DA CASTANHEIRA,-7.214584981079861,41.204691243528686
pt.ine.add.PTCONT.864934,R MARECHAL GOMES DA COSTA,91,5140-083,CARRAZEDA DE ANSIÃES,-7.303799916774531,41.242483435446715
pt.ine.add.PTCONT.864935,PC D LOPO VAZ SAMPAIO,7010,5140-067,CARRAZEDA DE ANSIÃES,-7.303615642543798,41.242905302119134
pt.ine.add.PTCONT.864936,PC D LOPO VAZ SAMPAIO,7010,5140-067,CARRAZEDA DE ANSIÃES,-7.303615642543798,41.242905302119134
pt.ine.add.PTCONT.864937,PC D LOPO VAZ SAMPAIO,7010,5140-067,CARRAZEDA DE ANSIÃES,-7.303615642543798,41.242905302119134
pt.ine.add.PTCONT.864938,R DA ESCOLA,,5140-142,FONTE LONGA CRZ,-7.263228932124992,41.23074882215395
pt.ine.add.PTCONT.864941,R DA CAPELA,15,5140-012,AMEDO,-7.323949488948706,41.276239148108914
pt.ine.add.PTCONT.864942,R FONTE,,5140-142,FONTE LONGA CRZ,-7.26388736383448,41.23056470772751
pt.ine.add.PTCONT.864943,R DA PORTELA,,5140-181,PARAMBOS,-7.348553380685513,41.23494546754737
pt.ine.add.PTCONT.864947,R DA ESCOLA VELHA,3,5140-131,CASTANHEIRO,-7.3831472495716,41.23469876483121
pt.ine.add.PTCONT.864948,R DA ESCOLA,3,5140-222,POMBAL CRZ,-7.356498823935278,41.28417983165067
pt.ine.add.PTCONT.864953,R DR JOÃO JOSÉ DE FREITAS,456,5140-069,CARRAZEDA DE ANSIÃES,-7.310584217781366,41.240857332440804
pt.ine.add.PTCONT.864954,R DA ESCOLA VELHA,3,5140-131,CASTANHEIRO,-7.3831472495716,41.23469876483121
pt.ine.add.PTCONT.864955,R DO CAMPO DA BOLA,,5140-144,LAVANDEIRA,-7.305088485209158,41.19613926174511
pt.ine.add.PTCONT.864964,R DA PENUDE,,5140-091,CARRAZEDA DE ANSIÃES,-7.297689250354917,41.246455099498355
pt.ine.add.PTCONT.864965,R LUIS DE CAMÕES,,5140-161,MARZAGÃO,-7.315588730782409,41.23652596711384
pt.ine.add.PTCONT.864966,R DA EIRA,15,5140-201,PEREIROS CRZ,-7.312593045851785,41.32909351951051
pt.ine.add.PTCONT.864967,R DA CAPELA,,5140-222,POMBAL CRZ,-7.355901094137575,41.28324837721468
pt.ine.add.PTCONT.864971,R DR FRANCISCO SÁ CARNEIRO,15,5140-068,CARRAZEDA DE ANSIÃES,-7.30710761194188,41.24032821232226
pt.ine.add.PTCONT.864972,R DR FRANCISCO SÁ CARNEIRO,9,5140-068,CARRAZEDA DE ANSIÃES,-7.30680202472535,41.239965854255445
pt.ine.add.PTCONT.864973,R CENTRAL,8,5140-131,CASTANHEIRO,-7.384819172976453,41.233476071624445
pt.ine.add.PTCONT.864974,BC DAS FLORES,4,5140-131,CASTANHEIRO,-7.3843629750554065,41.233734226853635
pt.ine.add.PTCONT.864975,R DO JARDIM,,5140-144,LAVANDEIRA,-7.3001500725878765,41.19262802595838
pt.ine.add.PTCONT.865394,R DA PORTELINHA,,5140-162,MARZAGÃO,-7.319887160905208,41.20826531713298
pt.ine.add.PTCONT.865408,R MARECHAL GOMES DA COSTA,,5140-083,CARRAZEDA DE ANSIÃES,-7.304161176387984,41.242215913031146
pt.ine.add.PTCONT.865429,R DE STO ANTÓNIO,,5140-095,CARRAZEDA DE ANSIÃES,-7.310226336076261,41.24180921345486
pt.ine.add.PTCONT.865439,R DA GRICHA,,5140-222,POMBAL CRZ,-7.3591992856994555,41.28192898883921
pt.ine.add.PTCONT.865474,R REGUENGO,,5140-251,SELORES,-7.2930873085669266,41.19869057658745
pt.ine.add.PTCONT.865478,BC DAS EIRAS,,5140-032,BELVER CRZ,-7.276112333376213,41.2470258492322
pt.ine.add.PTCONT.865847,R DA ENCRUZILHADA,,5140-120,CARRAZEDA DE ANSIÃES,-7.300032335306513,41.25828547446484
pt.ine.add.PTCONT.865848,R MARECHAL CARMONA,,5140-082,CARRAZEDA DE ANSIÃES,-7.302944240266423,41.24317058699893
pt.ine.add.PTCONT.865849,R VASCO DA GAMA,84,5140-102,CARRAZEDA DE ANSIÃES,-7.302605728269607,41.24258287735181
pt.ine.add.PTCONT.865850,R DO ALTO,,5140-152,LINHARES CRZ,-7.354145840062002,41.17175590839587
pt.ine.add.PTCONT.865851,BR DE S CRISTÓVÃO,,5140-161,MARZAGÃO,-7.315490811026367,41.23576892377143
pt.ine.add.PTCONT.865852,R DR JOÃO TRIGO MOUTINHO,,5140-171,MOGO DE MALTA,-7.259485312577813,41.268249591871836
pt.ine.add.PTCONT.865853,R DA PRAÇARIA,,5140-184,PARAMBOS,-7.353803316323588,41.229785719213844
pt.ine.add.PTCONT.865854,R DO CRUZEIRO,3,5140-233,SEIXO DE ANSIÃES,-7.26751387219988,41.18709287907479
pt.ine.add.PTCONT.865855,R DA CORREDOURA,,5140-286,VILARINHO DA CASTANHEIRA,-7.21841649129894,41.21207813621616
pt.ine.add.PTCONT.865856,R 22 DE JULHO,,5140-286,VILARINHO DA CASTANHEIRA,-7.215172412911874,41.20701900038606
pt.ine.add.PTCONT.866020,R DR JOÃO JOSÉ DE FREITAS,,5140-069,CARRAZEDA DE ANSIÃES,-7.309366381247549,41.23999323320794
pt.ine.add.PTCONT.866021,R VITOR GUILHAR,,5140-103,CARRAZEDA DE ANSIÃES,-7.305083068632921,41.23911612058141
pt.ine.add.PTCONT.866022,R DA CAPELA,8,5140-136,CASTANHEIRO,-7.402337797984945,41.232688170585995
pt.ine.add.PTCONT.866023,R DO POÇO,1,5140-131,CASTANHEIRO,-7.384212645961309,41.23227457399406
pt.ine.add.PTCONT.866024,R DO BAIRRO DA PORTELA,10,5140-132,CASTANHEIRO,-7.415800052123833,41.217771844655424
pt.ine.add.PTCONT.866025,R DO DOURO,26,5140-133,CASTANHEIRO,-7.425956557842678,41.209235643960255
pt.ine.add.PTCONT.866043,AV PRINCIPAL,94,5140-012,AMEDO,-7.323601865040687,41.27732619829897
pt.ine.add.PTCONT.866044,R DO LAMEIRÃO,116,5140-011,AMEDO,-7.323386779736286,41.25512958018322
pt.ine.add.PTCONT.866045,R DO GERALDO,40,5140-021,BEIRA GRANDE,-7.278485210161155,41.184824719317085
pt.ine.add.PTCONT.866046,R DA EIRA DA SANTA,,5140-031,BELVER CRZ,-7.261960405674822,41.2651979563908
pt.ine.add.PTCONT.866047,R DA EIRA DO LOBATO,,5140-031,BELVER CRZ,-7.256686012251615,41.265184936586145
pt.ine.add.PTCONT.866048,EN 214,,5140-031,BELVER CRZ,-7.261281956441767,41.26237454215885
pt.ine.add.PTCONT.866049,R DAS EIRAS,,5140-142,FONTE LONGA CRZ,-7.261534219892744,41.23172646127059
pt.ine.add.PTCONT.866050,R CÂNDIDO DOS REIS,,5140-202,PEREIROS CRZ,-7.29795792529778,41.31618455764036
pt.ine.add.PTCONT.866051,R DA CAPELA,20,5140-203,PINHAL DO NORTE,-7.3511739115678445,41.324247819978346
pt.ine.add.PTCONT.866052,R DA BOAVISTA,8,5140-205,PINHAL DO NORTE,-7.340880289776033,41.29742643658085
pt.ine.add.PTCONT.866053,LG DA CAPELA,,5140-221,POMBAL CRZ,-7.355265632769401,41.26538896226209
pt.ine.add.PTCONT.866054,R 22 DE JULHO,,5140-286,VILARINHO DA CASTANHEIRA,-7.214527979270234,41.20535709661857
pt.ine.add.PTCONT.866085,R DA ESTRADA,,5140-152,LINHARES CRZ,-7.353984505585813,41.17330354859419
pt.ine.add.PTCONT.866103,TV DOS CABEÇOS,9,5140-136,CASTANHEIRO,-7.40357997761682,41.23253397232135
pt.ine.add.PTCONT.866123,R DA CARVALHA,,5140-252,SELORES,-7.293257903969777,41.202131422053014
pt.ine.add.PTCONT.866131,TV DA TAPADA,2,5140-021,BEIRA GRANDE,-7.2759407611132945,41.18709287848068
pt.ine.add.PTCONT.866132,R DA CAPELA,21,5140-203,PINHAL DO NORTE,-7.35100810567026,41.32412964118245
pt.ine.add.PTCONT.866133,R DA CADEIA,,5140-281,VILARINHO DA CASTANHEIRA,-7.213631600743945,41.203810231533446
pt.ine.add.PTCONT.866149,R DA ESCOLA,,5140-162,MARZAGÃO,-7.322387128527589,41.212442878158136
pt.ine.add.PTCONT.866215,R DO DOURO,2,5140-133,CASTANHEIRO,-7.422904255545092,41.20812734991627
pt.ine.add.PTCONT.866213,R DE PARAMBO DE CIMA,4,5140-131,CASTANHEIRO,-7.3860065229241405,41.233951998487925
pt.ine.add.PTCONT.866214,R DO SOALHEIRO,5,5140-131,CASTANHEIRO,-7.384650965344482,41.233583028370994
pt.ine.add.PTCONT.866216,R DA CAPELA,,5140-143,FONTE LONGA CRZ,-7.246340036212229,41.242226304029494
pt.ine.add.PTCONT.866244,R DIREITA,,5140-154,LINHARES CRZ,-7.362941261801814,41.20624723324121
pt.ine.add.PTCONT.866279,R DOS BARREIROS,,5140-152,LINHARES CRZ,-7.352126999351359,41.17016649218181
pt.ine.add.PTCONT.866280,R DA ESCOLA,,5140-152,LINHARES CRZ,-7.351803790768423,41.17029035970865
pt.ine.add.PTCONT.866281,R DO CABO DO POVO,,5140-161,MARZAGÃO,-7.330994983380127,41.23303266329666
pt.ine.add.PTCONT.866282,R DE S JOÃO BAPTISTA,,5140-162,MARZAGÃO,-7.320163925080174,41.20998707089839
pt.ine.add.PTCONT.866283,TERR DO MONTE,,5140-162,MARZAGÃO,-7.3168696862635345,41.2160145764416
pt.ine.add.PTCONT.866306,EN 214,,5140-184,PARAMBOS,-7.353468745250398,41.229837479326626
