id,street,house,postcode,city,lon,lat
pt.ine.add.PTCONT.3534759,QTA STO ANTÓNIO DA MOUTOSA,,7320-206,CASTELO DE VIDE,-7.445056600298603,39.4055275132525
pt.ine.add.PTCONT.3535108,LG ROSSIO,28,7320-011,N SRA GRAÇA PÓVOA MEADAS,-7.5189889710152,39.51149361119099
pt.ine.add.PTCONT.3535109,EM 1007,,7320-011,N SRA GRAÇA PÓVOA MEADAS,-7.537148369764653,39.510525308900206
pt.ine.add.PTCONT.3535133,R VINHA DO POÇO,34,7320-011,N SRA GRAÇA PÓVOA MEADAS,-7.521631948740363,39.51166895090317
pt.ine.add.PTCONT.3535134,R BAIXO,1,7320-011,N SRA GRAÇA PÓVOA MEADAS,-7.518727888542085,39.51036848810568
pt.ine.add.PTCONT.3535135,VOLTA DO ARRABALDE,13,7320-011,N SRA GRAÇA PÓVOA MEADAS,-7.518269388699762,39.510021689542754
pt.ine.add.PTCONT.3535136,QTA TOURIL,,7320-011,N SRA GRAÇA PÓVOA MEADAS,-7.531573046134342,39.505786002548696
pt.ine.add.PTCONT.3535137,ESTR BOM JESUS,,7320-101,CASTELO DE VIDE,-7.448240121131111,39.41834522734322
pt.ine.add.PTCONT.3535138,ESTR RIBEIRA DE VIDE,,7320-204,CASTELO DE VIDE,-7.439728576402797,39.417141912277025
pt.ine.add.PTCONT.3535139,ESTR RIBEIRA DA VIDE,,7320-204,CASTELO DE VIDE,-7.440766594142226,39.422552278472146
pt.ine.add.PTCONT.3535140,R SACO,5,7320-176,CASTELO DE VIDE,-7.455328042833023,39.416693428168934
pt.ine.add.PTCONT.3535141,CAM POMBAIS,,7320-201,CASTELO DE VIDE,-7.458663702756027,39.43806833600466
pt.ine.add.PTCONT.3535176,R CÂNDIDO DOS REIS,71 73,7320-118,CASTELO DE VIDE,-7.4535143240373385,39.415525001604024
pt.ine.add.PTCONT.3535177,R FONTE,5,7320-150,CASTELO DE VIDE,-7.455910550387962,39.417094249243306
pt.ine.add.PTCONT.3535202,R CANTO DA ALDEIA,27,7320-159,CASTELO DE VIDE,-7.459633890142716,39.41813253241134
pt.ine.add.PTCONT.3535203,TV MORAIS,4,7320-167,CASTELO DE VIDE,-7.458238414184273,39.41713757156373
pt.ine.add.PTCONT.3535204,R COSTA,53,7320-164,CASTELO DE VIDE,-7.458374284730258,39.41709298884344
pt.ine.add.PTCONT.3535205,,,7320-301,CASTELO DE VIDE,-7.551670452371185,39.481335447188734
pt.ine.add.PTCONT.3535206,,,7320-301,CASTELO DE VIDE,-7.481371753956953,39.44186362422172
pt.ine.add.PTCONT.3535207,R POUSO,13,7320-407,CASTELO DE VIDE,-7.459297101931627,39.41243977250388
pt.ine.add.PTCONT.3535237,TERR BIJOS,9,7320-145,CASTELO DE VIDE,-7.457256497174733,39.416605571281536
pt.ine.add.PTCONT.3535238,R COSTA,9,7320-145,CASTELO DE VIDE,-7.457256497174733,39.416605571281536
pt.ine.add.PTCONT.3535435,R S PEDRO,3,7320-163,CASTELO DE VIDE,-7.458583950853123,39.4169435233292
pt.ine.add.PTCONT.3535263,PC D PEDRO V,11,7320-113,CASTELO DE VIDE,-7.455901426052056,39.41503948235765
pt.ine.add.PTCONT.3535272,R MERCADO,1,7320-011,N SRA GRAÇA PÓVOA MEADAS,-7.517635313118519,39.510461036076904
pt.ine.add.PTCONT.3535293,R ALDEIA,16,7320-159,CASTELO DE VIDE,-7.45939429325937,39.41768980288639
pt.ine.add.PTCONT.3535375,R STA MARGARIDA,26,7320-011,N SRA GRAÇA PÓVOA MEADAS,-7.5183254208537935,39.51031777569246
pt.ine.add.PTCONT.3535376,CAM POMBAIS,,7320-201,CASTELO DE VIDE,-7.457347651690654,39.433620268829216
pt.ine.add.PTCONT.3535378,R STA MARIA DE CIMA,40,7320-137,CASTELO DE VIDE,-7.457135056423255,39.41712694015404
pt.ine.add.PTCONT.3535382,R CASTELO,7A,7320-011,N SRA GRAÇA PÓVOA MEADAS,-7.520820155786262,39.51085477595571
pt.ine.add.PTCONT.3535397,R CORREDOURA,52 50,7320-121,CASTELO DE VIDE,-7.453316398155138,39.415715940715394
pt.ine.add.PTCONT.3535399,R CÂNDIDO DOS REIS,28,7320-118,CASTELO DE VIDE,-7.454146706646712,39.41520249096107
pt.ine.add.PTCONT.3535406,R OUTEIRO,21,7320-011,N SRA GRAÇA PÓVOA MEADAS,-7.518909251651697,39.51201255887399
pt.ine.add.PTCONT.3535410,LG DR JOSE FREDERICO LARANJO,18,7320-110,CASTELO DE VIDE,-7.455356745936858,39.417116923588864
pt.ine.add.PTCONT.3535411,R FRANCISCO BUGALHO,,7320-102,CASTELO DE VIDE,-7.448097927796576,39.41151709692816
pt.ine.add.PTCONT.3535431,R COSTA,44,7320-145,CASTELO DE VIDE,-7.457857336574431,39.41691529793983
pt.ine.add.PTCONT.3535445,,,7320-301,CASTELO DE VIDE,-7.467982016287635,39.437797745016915
pt.ine.add.PTCONT.3535447,R JOÃO ANTÓNIO GORDO,,7320-146,CASTELO DE VIDE,-7.454946072139941,39.41297131691762
pt.ine.add.PTCONT.3535448,R JOÃO ANTÓNIO GORDO,,7320-146,CASTELO DE VIDE,-7.454946072139941,39.41297131691762
pt.ine.add.PTCONT.3535472,CANTO DO FORNO,,7320-407,CASTELO DE VIDE,-7.459911517937958,39.413414478662645
pt.ine.add.PTCONT.3535890,TV BAIRRO DAS VINHAS,,7320-011,N SRA GRAÇA PÓVOA MEADAS,-7.5204819369914295,39.51229409176383
pt.ine.add.PTCONT.3535902,R ENG ALEXANDRE CORDEIRO,18,7320-437,CASTELO DE VIDE,-7.4447765646836705,39.4068498850173
pt.ine.add.PTCONT.3535910,,,7320-301,CASTELO DE VIDE,-7.46820501578314,39.426558328980235
pt.ine.add.PTCONT.3535943,R SANTO ANTÓNIO,1,7320-011,N SRA GRAÇA PÓVOA MEADAS,-7.521963175989623,39.510455481478104
pt.ine.add.PTCONT.3535958,LG ESPÍRITO SANTO,26,7320-011,N SRA GRAÇA PÓVOA MEADAS,-7.518508879283082,39.50980726764337
pt.ine.add.PTCONT.3536068,R NOVA,24,7320-011,N SRA GRAÇA PÓVOA MEADAS,-7.519548974989252,39.51211893661127
pt.ine.add.PTCONT.3536110,LG STA MARGARIDA,20,7320-011,N SRA GRAÇA PÓVOA MEADAS,-7.517344107458599,39.51034804225517
pt.ine.add.PTCONT.3536111,CAM VALE DA VIOLA,,7320-203,CASTELO DE VIDE,-7.448304450489605,39.43075720856383
pt.ine.add.PTCONT.3536112,ESTR RIBEIRA DA VIDE,,7320-204,CASTELO DE VIDE,-7.442196164867166,39.41655312667794
pt.ine.add.PTCONT.3536113,R SANTO AMARO,1,7320-177,CASTELO DE VIDE,-7.4553608709158254,39.416247510751546
pt.ine.add.PTCONT.3536114,CAM PINCHO,,7320-203,CASTELO DE VIDE,-7.45297995050365,39.44442116334899
pt.ine.add.PTCONT.3536115,ESTR RIBEIRA DA VIDE,,7320-201,CASTELO DE VIDE,-7.44043155158705,39.423550057308695
pt.ine.add.PTCONT.3536145,ESTR RIBEIRA DA VIDE,,7320-201,CASTELO DE VIDE,-7.438514512339203,39.431825029280105
pt.ine.add.PTCONT.3536146,R CORREDOURA,40,7320-121,CASTELO DE VIDE,-7.452958903864561,39.41552670668978
pt.ine.add.PTCONT.3536147,R CORREDOURA,,7320-121,CASTELO DE VIDE,-7.452958903864561,39.41552670668978
pt.ine.add.PTCONT.3536148,R 5 DE OUTUBRO,12,7320-119,CASTELO DE VIDE,-7.454939435870593,39.41579946386443
pt.ine.add.PTCONT.3536149,R DIREITA,46,7320-151,CASTELO DE VIDE,-7.458607896146846,39.41855892309307
pt.ine.add.PTCONT.3536181,R FONTE,16,7320-150,CASTELO DE VIDE,-7.456066382434043,39.41719311173814
pt.ine.add.PTCONT.3536182,R FONTE,16,7320-150,CASTELO DE VIDE,-7.456066382434043,39.41719311173814
pt.ine.add.PTCONT.3536183,R FONTE,16,7320-150,CASTELO DE VIDE,-7.456066382434043,39.41719311173814
pt.ine.add.PTCONT.3536220,R ALFREDO CARLOS LE COCQ,,7320-102,CASTELO DE VIDE,-7.449157562912642,39.41239700942979
pt.ine.add.PTCONT.3536221,R BANDA UNIAO ARTISTICA,,7320-102,CASTELO DE VIDE,-7.446843900096263,39.40914987473715
pt.ine.add.PTCONT.3536222,SIT REGALO,,7320-206,CASTELO DE VIDE,-7.4496506495185475,39.407085782325936
pt.ine.add.PTCONT.3536250,,,7320-407,CASTELO DE VIDE,-7.508769964133339,39.38290679244597
pt.ine.add.PTCONT.3536617,LG ESPÍRITO SANTO,11,7320-011,N SRA GRAÇA PÓVOA MEADAS,-7.518573808156376,39.51033754849197
pt.ine.add.PTCONT.3536632,R BANDA UNIAO ARTISTICA,,7320-102,CASTELO DE VIDE,-7.44621297506505,39.40955146577666
pt.ine.add.PTCONT.3536637,LG STA MARGARIDA,19,7320-011,N SRA GRAÇA PÓVOA MEADAS,-7.5174402601666594,39.510348979320476
pt.ine.add.PTCONT.3536640,R STA MARGARIDA,10,7320-011,N SRA GRAÇA PÓVOA MEADAS,-7.517860186825903,39.51027505748027
pt.ine.add.PTCONT.3536653,R TORRINHA,4,7320-124,CASTELO DE VIDE,-7.455210457856463,39.41601340659405
pt.ine.add.PTCONT.3536657,R EGIPTO,37,7320-011,N SRA GRAÇA PÓVOA MEADAS,-7.518390869298466,39.51234987565924
pt.ine.add.PTCONT.3536659,R NOVA,28,7320-011,N SRA GRAÇA PÓVOA MEADAS,-7.519590077529544,39.51199784825283
pt.ine.add.PTCONT.3536668,R BAIXO,58,7320-011,N SRA GRAÇA PÓVOA MEADAS,-7.518587638994965,39.51137209915171
pt.ine.add.PTCONT.3536669,R MOUZINHO DE ALBUQUERQUE,57,7320-133,CASTELO DE VIDE,-7.452880338722753,39.415247030807286
pt.ine.add.PTCONT.3536673,R FR RAFAEL,,7320-102,CASTELO DE VIDE,-7.448293300414079,39.410536485368276
pt.ine.add.PTCONT.3536676,R FILARMONICA J FREDERICO LARANJO,,7320-102,CASTELO DE VIDE,-7.447094204687808,39.409673756508084
pt.ine.add.PTCONT.3536683,R ALDEIA,6,7320-159,CASTELO DE VIDE,-7.459313179998828,39.41763232429507
pt.ine.add.PTCONT.3536686,R LUIS CAMOES,13,7320-422,CASTELO DE VIDE,-7.45932064902663,39.41657787942472
pt.ine.add.PTCONT.3536705,,,7320-301,CASTELO DE VIDE,-7.49594868342698,39.458598234641876
pt.ine.add.PTCONT.3537129,R CÂNDIDO DOS REIS,17,7320-118,CASTELO DE VIDE,-7.454288233166193,39.41523095482538
pt.ine.add.PTCONT.3537178,R SANTO ANTÓNIO,27,7320-011,N SRA GRAÇA PÓVOA MEADAS,-7.5229628713956025,39.509743373604316
pt.ine.add.PTCONT.3537179,R SANTO ANTÓNIO,7,7320-011,N SRA GRAÇA PÓVOA MEADAS,-7.522139240156304,39.51026726277597
pt.ine.add.PTCONT.3537193,LG ESPÍRITO SANTO,9,7320-011,N SRA GRAÇA PÓVOA MEADAS,-7.5186859421189,39.510293980535685
pt.ine.add.PTCONT.3537223,SIT PASMAR,,7320-203,CASTELO DE VIDE,-7.450645715313708,39.40505604244125
pt.ine.add.PTCONT.3537228,R LAGEM BRANCA,25,7320-011,N SRA GRAÇA PÓVOA MEADAS,-7.516588080369666,39.51008894043665
pt.ine.add.PTCONT.3537233,R BAIXO,4,7320-011,N SRA GRAÇA PÓVOA MEADAS,-7.518589411045969,39.51049623368549
pt.ine.add.PTCONT.3537234,CAM RIBEIRO DA FONTE,,7320-203,CASTELO DE VIDE,-7.455881276000457,39.42672141400266
pt.ine.add.PTCONT.3537240,,,7320-201,CASTELO DE VIDE,-7.430299738046846,39.419054076864725
pt.ine.add.PTCONT.3537248,R ALMEIDA SARZEDAS,39,7320-115,CASTELO DE VIDE,-7.4543116373261205,39.41585051522252
pt.ine.add.PTCONT.3537253,R BAIXO,43,7320-011,N SRA GRAÇA PÓVOA MEADAS,-7.518698049561038,39.511519094625314
pt.ine.add.PTCONT.3537254,R OUTEIRO,10,7320-011,N SRA GRAÇA PÓVOA MEADAS,-7.518786546992417,39.51203295326478
pt.ine.add.PTCONT.3537255,CAM VALE DA VIOLA,,7320-203,CASTELO DE VIDE,-7.448658520744463,39.428993928311584
pt.ine.add.PTCONT.3537257,R ALMEIDA SARZEDAS,42 44,7320-115,CASTELO DE VIDE,-7.4542417887543175,39.41572197967813
pt.ine.add.PTCONT.3537258,R ALMEIDA SARZEDAS,42 44,7320-115,CASTELO DE VIDE,-7.4542417887543175,39.41572197967813
pt.ine.add.PTCONT.3537263,LG ROSSIO,29,7320-011,N SRA GRAÇA PÓVOA MEADAS,-7.518985779979923,39.511455481808
pt.ine.add.PTCONT.3537265,R TRANCOSO,7,7320-102,CASTELO DE VIDE,-7.448792624018231,39.41171933920477
pt.ine.add.PTCONT.3537266,R TRANCOSO,,7320-102,CASTELO DE VIDE,-7.449259863070178,39.411433863104314
pt.ine.add.PTCONT.3537271,R FONTE,3,7320-011,N SRA GRAÇA PÓVOA MEADAS,-7.517785555427536,39.512144748655885
pt.ine.add.PTCONT.3537272,CAM CEREJEIRO,,7320-139,CASTELO DE VIDE,-7.47148475227018,39.492336577114635
pt.ine.add.PTCONT.3537280,CAM CABEÇO SEIXO,,7320-139,CASTELO DE VIDE,-7.393709465840219,39.49293980603375
pt.ine.add.PTCONT.3537284,R ROMEIRAS,6,7320-162,CASTELO DE VIDE,-7.4590229822117085,39.41766063090924
pt.ine.add.PTCONT.3537308,R S PEDRO,2,7320-164,CASTELO DE VIDE,-7.458437736545837,39.41693667947844
pt.ine.add.PTCONT.3537309,CARREIRA S TIAGO,5,7320-157,CASTELO DE VIDE,-7.457642287750383,39.41638413616688
pt.ine.add.PTCONT.3537331,SIT SOUTO SANTANHEIRO,,7320-434,CASTELO DE VIDE,-7.4595407285730015,39.42057288473707
pt.ine.add.PTCONT.3537332,PENEDO MONTEIRO,,7320-434,CASTELO DE VIDE,-7.45972530961502,39.41949311583163
pt.ine.add.PTCONT.3537333,R JOÃO FRADE,18,7320-129,CASTELO DE VIDE,-7.453712266914953,39.413279362455505
pt.ine.add.PTCONT.3537336,PCT DR ADOLFO BUGALHO,28,7320-147,CASTELO DE VIDE,-7.4579975156116936,39.41442117654007
pt.ine.add.PTCONT.3537753,R BAIXO,30,7320-011,N SRA GRAÇA PÓVOA MEADAS,-7.518604127021229,39.51092270436102
pt.ine.add.PTCONT.3537757,CAM RIBEIRA DA VIDE,,7320-203,CASTELO DE VIDE,-7.433382790849278,39.44324209638135
pt.ine.add.PTCONT.3537758,R CESAR VIDEIRA,,7320-146,CASTELO DE VIDE,-7.4545162102562035,39.41299583119888
pt.ine.add.PTCONT.3537778,R BARREIRO,40,7320-011,N SRA GRAÇA PÓVOA MEADAS,-7.5191747983662625,39.51416062251513
pt.ine.add.PTCONT.3537932,TV ARROCHELA,21,7320-141,CASTELO DE VIDE,-7.455288953133065,39.41462064101089
pt.ine.add.PTCONT.3537951,R CASTELO,38,7320-011,N SRA GRAÇA PÓVOA MEADAS,-7.521296951497401,39.51084827924805
pt.ine.add.PTCONT.3537953,R BAIXO,128,7320-011,N SRA GRAÇA PÓVOA MEADAS,-7.5187233295190214,39.51260941659206
pt.ine.add.PTCONT.3538005,,,7320-201,CASTELO DE VIDE,-7.443320475484483,39.41457273107224
pt.ine.add.PTCONT.3538008,R VOLTA DO PE DA TORRE,8,7320-301,CASTELO DE VIDE,-7.458676931366983,39.417578943072876
pt.ine.add.PTCONT.3538019,R FONTE,39,7320-150,CASTELO DE VIDE,-7.4566454782506195,39.41734959937289
pt.ine.add.PTCONT.3538056,PC D PEDRO V,45,7320-113,CASTELO DE VIDE,-7.4550674029016495,39.41530597673707
pt.ine.add.PTCONT.3538182,VOLTA DO ARRABALDE,11,7320-011,N SRA GRAÇA PÓVOA MEADAS,-7.518208624642304,39.51006183149593
pt.ine.add.PTCONT.3538187,PC D PEDRO V,9,7320-113,CASTELO DE VIDE,-7.455667749327859,39.41492557771043
pt.ine.add.PTCONT.3538205,LG OUTEIRO DO RIBEIRO,14,7320-011,N SRA GRAÇA PÓVOA MEADAS,-7.51736185677988,39.51210040005778
pt.ine.add.PTCONT.3538207,R ALMEIDA SARZEDAS,47,7320-115,CASTELO DE VIDE,-7.4541360796710405,39.41602170332403
pt.ine.add.PTCONT.3538217,ESTR CIRCUNVALAÇÃO,,7320-436,CASTELO DE VIDE,-7.459191181726014,39.4170761515248
pt.ine.add.PTCONT.3538232,R BAIXO,31,7320-011,N SRA GRAÇA PÓVOA MEADAS,-7.518748354918996,39.51138685065765
pt.ine.add.PTCONT.3538248,R TRANCOSO,,7320-102,CASTELO DE VIDE,-7.449073038312464,39.411540848598435
pt.ine.add.PTCONT.3538265,R NOVA,34,7320-199,CASTELO DE VIDE,-7.455554795487577,39.41681661357684
pt.ine.add.PTCONT.3538280,R ESTRADA,21,7320-011,N SRA GRAÇA PÓVOA MEADAS,-7.518492216397771,39.50909376218242
pt.ine.add.PTCONT.3538281,R MOUZINHO DE ALBUQUERQUE,4,7320-133,CASTELO DE VIDE,-7.453406149740705,39.41479072998772
pt.ine.add.PTCONT.3538308,R ALEXANDRE HERCULANO,7,7320-114,CASTELO DE VIDE,-7.455469008952467,39.414127258665964
pt.ine.add.PTCONT.3538320,R ENCRUZILHADAS,26,7320-123,CASTELO DE VIDE,-7.454083096234853,39.41574944170241
pt.ine.add.PTCONT.3538345,R FRANCISCO MOURATO ROMA,16,7320-147,CASTELO DE VIDE,-7.457740618633793,39.41401437094709
pt.ine.add.PTCONT.3538362,R MIGUEL BOMBARDA,37,7320-131,CASTELO DE VIDE,-7.453954446944518,39.41561764538513
pt.ine.add.PTCONT.3538371,R BALCAO,3,7320-184,CASTELO DE VIDE,-7.457611546378003,39.41831896021724
pt.ine.add.PTCONT.3538439,ESTR BOM JESUS,,7320-203,CASTELO DE VIDE,-7.452393698396204,39.421107728005545
pt.ine.add.PTCONT.3538467,R MOUZINHO DE ALBUQUERQUE,92 94,7320-133,CASTELO DE VIDE,-7.453043862840181,39.415380845301584
pt.ine.add.PTCONT.3538474,CAM CAMINHO DA COZINHEIRA,,7320-203,CASTELO DE VIDE,-7.445629018567189,39.419356620749035
pt.ine.add.PTCONT.3538487,R BAIXO,13,7320-164,CASTELO DE VIDE,-7.457382263441807,39.41637085752507
pt.ine.add.PTCONT.3538499,QTA RIBEIRINHO,APART 97,7320-410,CASTELO DE VIDE,-7.457512571033654,39.41052734141895
pt.ine.add.PTCONT.3538514,QTA BISPO,,7320-015,N SRA GRAÇA PÓVOA MEADAS,-7.519197271755856,39.50136074433749
pt.ine.add.PTCONT.3538524,,,7320-201,CASTELO DE VIDE,-7.418327269505365,39.413742850157966
pt.ine.add.PTCONT.3538547,R FONTE,2,7320-150,CASTELO DE VIDE,-7.455811539270376,39.41712857937936
pt.ine.add.PTCONT.3538548,MTE LAMEIRA,,7320-301,CASTELO DE VIDE,-7.5048596099735025,39.4199077538747
pt.ine.add.PTCONT.3538554,CAM VALE CANO,,7320-204,CASTELO DE VIDE,-7.41005251550925,39.44366683457354
pt.ine.add.PTCONT.3538582,CAM BORREGAO,,7320-201,CASTELO DE VIDE,-7.427461042918751,39.421103266694374
pt.ine.add.PTCONT.3538616,R DR JOSE ANTONIO SERRANO,12,7320-195,CASTELO DE VIDE,-7.456141975413058,39.416581076822496
pt.ine.add.PTCONT.3538627,R COSTA,21,7320-145,CASTELO DE VIDE,-7.457719228010414,39.41677412684878
pt.ine.add.PTCONT.3538667,TAPADA DAS FIGUEIRAS,,7320-441,CASTELO DE VIDE,-7.537681771723416,39.42480005448238
pt.ine.add.PTCONT.3538680,R ESPINHOSAS,9,7320-208,CASTELO DE VIDE,-7.454927432300811,39.41716145510868
pt.ine.add.PTCONT.3538690,R ALDEIA,11,7320-159,CASTELO DE VIDE,-7.459611508754304,39.41788598710228
pt.ine.add.PTCONT.3538720,R FONTE,22,7320-011,N SRA GRAÇA PÓVOA MEADAS,-7.51830193679446,39.51231441463993
pt.ine.add.PTCONT.3538733,SIT TOURIS,,7320-011,N SRA GRAÇA PÓVOA MEADAS,-7.526826689499439,39.504743571468865
pt.ine.add.PTCONT.3538775,R DIREITA,13,7320-151,CASTELO DE VIDE,-7.457765627323063,39.41799560349469
pt.ine.add.PTCONT.3538791,R VINHA DO POÇO,36,7320-011,N SRA GRAÇA PÓVOA MEADAS,-7.521649737691901,39.51172380077233
pt.ine.add.PTCONT.3538811,CARREIRA DE S TIAGO,28,7320-157,CASTELO DE VIDE,-7.45796827075967,39.416510578904756
pt.ine.add.PTCONT.3538816,CAM CHABOUCO CAGADOS,,7320-000,,-7.425138559016181,39.4474885104348
pt.ine.add.PTCONT.3538863,LG LAGEM BRANCA,5,7320-011,N SRA GRAÇA PÓVOA MEADAS,-7.515934464848176,39.50944326611672
pt.ine.add.PTCONT.3538891,R 5 OUTUBRO,7,7320-119,CASTELO DE VIDE,-7.455077261610301,39.41583000922722
pt.ine.add.PTCONT.3538997,CAM BORREGAO,,7320-201,CASTELO DE VIDE,-7.429522381457249,39.421674184713495
pt.ine.add.PTCONT.3539032,,,7320-301,CASTELO DE VIDE,-7.482259454245894,39.42761056942057
pt.ine.add.PTCONT.3539058,R FR RAFAEL,,7320-102,CASTELO DE VIDE,-7.447932496814762,39.410624430792325
pt.ine.add.PTCONT.3539131,R STA MARIA BAIXO,12,7320-197,CASTELO DE VIDE,-7.456354115971337,39.41625805973856
pt.ine.add.PTCONT.3539150,R ARCARIO,6,7320-193,CASTELO DE VIDE,-7.455867243672402,39.417372092215146
pt.ine.add.PTCONT.3539241,PAINEL BREJO,,7320-303,CASTELO DE VIDE,-7.466025127222867,39.42253774434722
pt.ine.add.PTCONT.3539259,PC D PEDRO V,10,7320-113,CASTELO DE VIDE,-7.455809234032653,39.41496688974887
pt.ine.add.PTCONT.3539316,R MOUZINHO DE ALBUQUERQUE,35,7320-133,CASTELO DE VIDE,-7.453074321347871,39.415133389831134
pt.ine.add.PTCONT.3539317,R BAIXO,64,7320-164,CASTELO DE VIDE,-7.458183960740653,39.41682454938634
pt.ine.add.PTCONT.3539335,BR VINHAS,,7320-011,N SRA GRAÇA PÓVOA MEADAS,-7.520556071011042,39.51208109099525
pt.ine.add.PTCONT.3539337,,,7320-303,CASTELO DE VIDE,-7.46611384238691,39.42419553677959
pt.ine.add.PTCONT.3539351,R 5 DE OUTUBRO,58 60,7320-119,CASTELO DE VIDE,-7.454076806800158,39.41618228062696
pt.ine.add.PTCONT.3539380,R BAIXO,55,7320-011,N SRA GRAÇA PÓVOA MEADAS,-7.518675736996549,39.51175615342634
pt.ine.add.PTCONT.3539395,,,7320-151,CASTELO DE VIDE,-7.435172335528826,39.407089893860665
pt.ine.add.PTCONT.3539442,R MERCADO,19,7320-126,CASTELO DE VIDE,-7.455972421495142,39.41637887398582
pt.ine.add.PTCONT.3539455,R OLIVENCA,42,7320-134,CASTELO DE VIDE,-7.454916310603455,39.41484459674639
pt.ine.add.PTCONT.3539475,R CORREDOURA,35,7320-121,CASTELO DE VIDE,-7.453675302973994,39.415891172417595
pt.ine.add.PTCONT.3539549,R STA MARIA DE CIMA,2,7320-137,CASTELO DE VIDE,-7.456733200033747,39.4166835927034
pt.ine.add.PTCONT.3539571,,,7320-441,CASTELO DE VIDE,-7.566632138023623,39.4551630718564
pt.ine.add.PTCONT.3539586,R STA MARIA BAIXO,4,7320-197,CASTELO DE VIDE,-7.456203952264498,39.41617612320028
pt.ine.add.PTCONT.3539599,R BARTOLOMEU ÁLVARES DA SANTA,74,7320-117,CASTELO DE VIDE,-7.455012870439448,39.415664795282495
pt.ine.add.PTCONT.3539604,QTA BRAZILEIRA,,7320-407,CASTELO DE VIDE,-7.458837691104282,39.41278677733024
pt.ine.add.PTCONT.3539693,R FRANCISCO BOGALHO,,7320-102,CASTELO DE VIDE,-7.448283432307815,39.41154521005851
pt.ine.add.PTCONT.3539716,R BAIXO,49,7320-164,CASTELO DE VIDE,-7.458379226129709,39.416785556007156
pt.ine.add.PTCONT.3539745,R ENCRUZILHADAS,34 36,7320-123,CASTELO DE VIDE,-7.454244343653283,39.41588548755997
pt.ine.add.PTCONT.3539760,R BAIXO,86,7320-011,N SRA GRAÇA PÓVOA MEADAS,-7.518575041258923,39.511820984866
pt.ine.add.PTCONT.3539795,R ARROCHELA,2,7320-116,CASTELO DE VIDE,-7.455025260581003,39.41438587556605
pt.ine.add.PTCONT.3539848,R FR RAFAEL,,7320-102,CASTELO DE VIDE,-7.447662282781721,39.4109470906062
pt.ine.add.PTCONT.3539913,R BARTOLOMEU ÁLVARES DA SANTA,,7320-117,CASTELO DE VIDE,-7.454740921739197,39.41496967192071
pt.ine.add.PTCONT.3539916,R NOVA,42,7320-199,CASTELO DE VIDE,-7.455530046496478,39.416960677524884
pt.ine.add.PTCONT.3539934,ESTR CIRCUNVALAÇÃO,5,7320-208,CASTELO DE VIDE,-7.453965048796676,39.41714483494606
pt.ine.add.PTCONT.3539938,CAM RIBEIRA DA VIDE,,7320-201,CASTELO DE VIDE,-7.437024607108591,39.43798588236727
pt.ine.add.PTCONT.3485831,R ESTRADA,,7320-011,N SRA GRAÇA PÓVOA MEADAS,-7.519202121514661,39.506610304123214
pt.ine.add.PTCONT.3487141,,,7320-201,CASTELO DE VIDE,-7.420258316482293,39.416817069692925
pt.ine.add.PTCONT.3458582,R CASTELO,17,7320-011,N SRA GRAÇA PÓVOA MEADAS,-7.5211580567664935,39.51077549332972
pt.ine.add.PTCONT.3458583,R SANTO AMARO,105,7320-177,CASTELO DE VIDE,-7.453784293392809,39.417002646432145
pt.ine.add.PTCONT.3458615,,,7320-201,CASTELO DE VIDE,-7.4335314850416925,39.41327684400647
pt.ine.add.PTCONT.3458616,R OUTEIRINHO,29,7320-127,CASTELO DE VIDE,-7.45462504050866,39.41646941378417
pt.ine.add.PTCONT.3458617,R OUTEIRINHO,33,7320-127,CASTELO DE VIDE,-7.454655258374892,39.41649853936801
pt.ine.add.PTCONT.3458618,R DIREITA,24,7320-151,CASTELO DE VIDE,-7.458078730324933,39.41817758294252
pt.ine.add.PTCONT.3458619,R FORNO,3,7320-152,CASTELO DE VIDE,-7.457984858570057,39.41814098774143
pt.ine.add.PTCONT.3458647,R MERCADO,45,7320-126,CASTELO DE VIDE,-7.456319145860637,39.416587507397175
pt.ine.add.PTCONT.3458648,R STA MARIA DE CIMA,12,7320-137,CASTELO DE VIDE,-7.456863032283562,39.41679585397141
pt.ine.add.PTCONT.3458649,R CÂNDIDO DOS REIS,32,7320-118,CASTELO DE VIDE,-7.45411129903883,39.4152362082075
pt.ine.add.PTCONT.3458650,PCT DR AMADEU CANARIO,39,7320-147,CASTELO DE VIDE,-7.45796361993379,39.413656977376164
pt.ine.add.PTCONT.3458651,VALE GALEGOS,,7320-441,CASTELO DE VIDE,-7.570681750864043,39.4124805621272
pt.ine.add.PTCONT.3458682,,,7320-407,CASTELO DE VIDE,-7.504777238617397,39.38370032209667
pt.ine.add.PTCONT.3458772,R SANTO ANTÓNIO,,7320-011,N SRA GRAÇA PÓVOA MEADAS,-7.523662099697465,39.50897826749648
pt.ine.add.PTCONT.3458795,CAM RIBEIRA DA VIDE,,7320-204,CASTELO DE VIDE,-7.436142932910313,39.44020531714758
pt.ine.add.PTCONT.3458796,QTA ATALAIA,,7320-202,CASTELO DE VIDE,-7.430433947921921,39.40027910418892
pt.ine.add.PTCONT.3458800,LG STA MARGARIDA,21,7320-011,N SRA GRAÇA PÓVOA MEADAS,-7.517285975514741,39.51034730651505
pt.ine.add.PTCONT.3458803,CAM POMBAIS,,7320-201,CASTELO DE VIDE,-7.461390755999437,39.435922447989554
pt.ine.add.PTCONT.3458805,R MESTRE JORGE,41,7320-130,CASTELO DE VIDE,-7.45651428786486,39.41701368028346
pt.ine.add.PTCONT.3458809,R MERCADO,71,7320-126,CASTELO DE VIDE,-7.456638741668885,39.41684516915658
pt.ine.add.PTCONT.3458814,,,7320-011,N SRA GRAÇA PÓVOA MEADAS,-7.524237675072104,39.51497084559329
pt.ine.add.PTCONT.3458815,R MIGUEL BOMBARDA,45 43,7320-131,CASTELO DE VIDE,-7.453863268783302,39.41566709549432
pt.ine.add.PTCONT.3458824,R ENCRUZILHADAS,9,7320-123,CASTELO DE VIDE,-7.454141676797025,39.41569574172088
pt.ine.add.PTCONT.3458829,R RELOGIO,3,7320-185,CASTELO DE VIDE,-7.4576531140457325,39.418163020526244
pt.ine.add.PTCONT.3458830,R FORNO,18,7320-152,CASTELO DE VIDE,-7.457775764980313,39.41839006276212
pt.ine.add.PTCONT.3458831,ESTR S VICENTE,,7320-202,CASTELO DE VIDE,-7.446338000986345,39.40864249779238
pt.ine.add.PTCONT.3458838,ESTR 246,,7320-407,CASTELO DE VIDE,-7.49245224335276,39.40823906757961
pt.ine.add.PTCONT.3458842,BR BIQUINHA,3,7320-422,CASTELO DE VIDE,-7.459744461055452,39.416295747796234
pt.ine.add.PTCONT.3458843,BR BIQUINHA,3,7320-422,CASTELO DE VIDE,-7.459744461055452,39.416295747796234
pt.ine.add.PTCONT.3458844,BR BIQUINHA,3,7320-422,CASTELO DE VIDE,-7.459744461055452,39.416295747796234
pt.ine.add.PTCONT.3458845,BR BIQUINHA,3,7320-422,CASTELO DE VIDE,-7.459744461055452,39.416295747796234
pt.ine.add.PTCONT.3458847,R COSTA,79,7320-145,CASTELO DE VIDE,-7.458798960250828,39.417373631060656
pt.ine.add.PTCONT.3458849,TERREIRO BIJOS,3,7320-145,CASTELO DE VIDE,-7.457268630412577,39.41655159986912
pt.ine.add.PTCONT.3458863,R CESAR VIDEIRA,,7320-146,CASTELO DE VIDE,-7.454320311185174,39.41284156950796
pt.ine.add.PTCONT.3458870,R S JOSE,12,7320-438,CASTELO DE VIDE,-7.456038968422568,39.413415163094975
pt.ine.add.PTCONT.3458875,PCT DR AMADEU CANARIO,5,7320-147,CASTELO DE VIDE,-7.457260919723494,39.41374246615146
pt.ine.add.PTCONT.3459348,ESTR BOM JESUS,,7320-203,CASTELO DE VIDE,-7.453138135706651,39.430542377675884
pt.ine.add.PTCONT.3459407,LG ESPÍRITO SANTO,18,7320-011,N SRA GRAÇA PÓVOA MEADAS,-7.518494134524047,39.51008952869127
pt.ine.add.PTCONT.3459450,R VINHA DO POÇO,10,7320-011,N SRA GRAÇA PÓVOA MEADAS,-7.521399306153478,39.51111001682603
pt.ine.add.PTCONT.3459454,ESTR MEADA,,7320-201,CASTELO DE VIDE,-7.459378527436695,39.439828834085276
pt.ine.add.PTCONT.3459457,AZ PEDREIRA,3,7320-011,N SRA GRAÇA PÓVOA MEADAS,-7.518105719668781,39.51142159871164
pt.ine.add.PTCONT.3459458,R MERCADO,21,7320-011,N SRA GRAÇA PÓVOA MEADAS,-7.517569959085458,39.51154014781549
pt.ine.add.PTCONT.3459460,,,7320-201,CASTELO DE VIDE,-7.429870185722352,39.41710975435378
pt.ine.add.PTCONT.3459462,LG CALCADINHA,7,7320-011,N SRA GRAÇA PÓVOA MEADAS,-7.521691511759449,39.510628234967825
pt.ine.add.PTCONT.3459463,R OUTEIRINHO,22 20,7320-127,CASTELO DE VIDE,-7.4543670630524215,39.416366396562466
pt.ine.add.PTCONT.3459464,R OUTEIRINHO,22 20,7320-127,CASTELO DE VIDE,-7.4543670630524215,39.416366396562466
pt.ine.add.PTCONT.3459465,R 5 DE OUTUBRO,45,7320-119,CASTELO DE VIDE,-7.45418588637487,39.41622178962555
pt.ine.add.PTCONT.3459483,R ALMEIDA SARZEDAS,3,7320-115,CASTELO DE VIDE,-7.454801214248496,39.41558703889485
pt.ine.add.PTCONT.3459484,R BARTOLOMEU ALVARES DA SANTA,,7320-117,CASTELO DE VIDE,-7.454668723203405,39.41523045345417
pt.ine.add.PTCONT.3459489,R BARTOLOMEU ALVARES SANTA,44,7320-117,CASTELO DE VIDE,-7.454668723203405,39.41523045345417
pt.ine.add.PTCONT.3459506,R ALDEIA,2,7320-159,CASTELO DE VIDE,-7.459256081347518,39.41757191157506
pt.ine.add.PTCONT.3459513,TV CARVALHETAS,1,7320-145,CASTELO DE VIDE,-7.458749510806073,39.41711862692123
pt.ine.add.PTCONT.3459517,R S PEDRO,9,7320-163,CASTELO DE VIDE,-7.458829177599774,39.41706337872581
pt.ine.add.PTCONT.3459990,R CORREDOURA,24,7320-121,CASTELO DE VIDE,-7.4527279875339145,39.41540629664199
pt.ine.add.PTCONT.3460080,R NOVA,29,7320-199,CASTELO DE VIDE,-7.45566557600229,39.41667314432732
pt.ine.add.PTCONT.3460081,R NOVA,29,7320-199,CASTELO DE VIDE,-7.45566557600229,39.41667314432732
pt.ine.add.PTCONT.3460088,R SANTO AMARO,34,7320-177,CASTELO DE VIDE,-7.454907849581017,39.41691615376972
pt.ine.add.PTCONT.3460089,R SANTO AMARO,34,7320-177,CASTELO DE VIDE,-7.454907849581017,39.41691615376972
pt.ine.add.PTCONT.3460091,R MOUZINHO DA SILVEIRA,10,7320-148,CASTELO DE VIDE,-7.456979911308571,39.41638779642847
pt.ine.add.PTCONT.3460107,ESTR BOM JESUS,,7320-203,CASTELO DE VIDE,-7.451601232391221,39.429740770576046
pt.ine.add.PTCONT.3460109,CAM COZINHEIRA,,7320-204,CASTELO DE VIDE,-7.442406026086326,39.41764421720978
pt.ine.add.PTCONT.3460117,R BAIXO,108,7320-011,N SRA GRAÇA PÓVOA MEADAS,-7.518622810879509,39.512140170234915
pt.ine.add.PTCONT.3460118,R FONTE,9,7320-011,N SRA GRAÇA PÓVOA MEADAS,-7.517975175414235,39.51217730855647
pt.ine.add.PTCONT.3460119,LG ROSSIO,8,7320-011,N SRA GRAÇA PÓVOA MEADAS,-7.519507526914968,39.51154012352253
pt.ine.add.PTCONT.3460123,,,7320-441,CASTELO DE VIDE,-7.536002568548306,39.44193173969119
pt.ine.add.PTCONT.3460143,R ARROCHELA,18,7320-116,CASTELO DE VIDE,-7.455072228234705,39.41433210740713
pt.ine.add.PTCONT.3460144,R ALEXANDRE HERCULANO,14,7320-114,CASTELO DE VIDE,-7.454388731037623,39.413828856261816
pt.ine.add.PTCONT.3460145,R ALEXANDRE HERCULANO,14,7320-114,CASTELO DE VIDE,-7.454388731037623,39.413828856261816
pt.ine.add.PTCONT.3460594,R SANTO AMARO,34,7320-177,CASTELO DE VIDE,-7.454907849581017,39.41691615376972
pt.ine.add.PTCONT.3460708,R AMOREIRA,10,7320-172,CASTELO DE VIDE,-7.458004432945211,39.418519394564946
pt.ine.add.PTCONT.3460714,ESTR RIBEIRA DA VIDE,,7320-203,CASTELO DE VIDE,-7.439281919766307,39.42822682667022
pt.ine.add.PTCONT.3460719,R OUTEIRINHO,18,7320-127,CASTELO DE VIDE,-7.4543500579325235,39.41633279857059
pt.ine.add.PTCONT.3460720,R MERCADO,49,7320-126,CASTELO DE VIDE,-7.456373768229841,39.41662746040083
pt.ine.add.PTCONT.3460726,R STA MARIA,35,7320-197,CASTELO DE VIDE,-7.456746900354855,39.41646750475079
pt.ine.add.PTCONT.3460730,R BARREIRO,17,7320-011,N SRA GRAÇA PÓVOA MEADAS,-7.5197277835608105,39.51474898708083
pt.ine.add.PTCONT.3460735,R CÂNDIDO DOS REIS,49 47,7320-118,CASTELO DE VIDE,-7.453841902390566,39.41538321740447
pt.ine.add.PTCONT.3460739,LG PACO NOVO,7 8,7320-111,CASTELO DE VIDE,-7.453178405025426,39.41444715165786
pt.ine.add.PTCONT.3460744,R ESPINHOSAS,4,7320-208,CASTELO DE VIDE,-7.455219788907713,39.417080097645666
pt.ine.add.PTCONT.3460759,SIT CORRISCOS,,7320-441,CASTELO DE VIDE,-7.5352708182772945,39.403164820584664
pt.ine.add.PTCONT.3460764,R STA MARIA CIMA,27,7320-151,CASTELO DE VIDE,-7.457063771388986,39.41688077306983
pt.ine.add.PTCONT.3460771,R S PEDRO,22,7320-163,CASTELO DE VIDE,-7.458972113476531,39.41724533397596
pt.ine.add.PTCONT.3460772,TV SOMBREIREIROS,10,7320-156,CASTELO DE VIDE,-7.458033854197663,39.416673133864535
pt.ine.add.PTCONT.3460778,R COSTA,48,7320-145,CASTELO DE VIDE,-7.457895592865495,39.416940076638056
pt.ine.add.PTCONT.3460787,QTA S JOSE,,7320-301,CASTELO DE VIDE,-7.468005662879807,39.41820771985387
pt.ine.add.PTCONT.3461209,PCT DR ADOLFO BUGALHO,24,7320-147,CASTELO DE VIDE,-7.457848483407632,39.41422215783201
pt.ine.add.PTCONT.3461289,ESTR PERO BOI,,7320-203,CASTELO DE VIDE,-7.4591358401366294,39.43126181334296
pt.ine.add.PTCONT.3461291,CAM RELVA,,7320-201,CASTELO DE VIDE,-7.443086619912329,39.429879718414334
pt.ine.add.PTCONT.3461306,,,7320-127,CASTELO DE VIDE,-7.450307283517624,39.413483322699186
pt.ine.add.PTCONT.3461313,R FONTE,4,7320-011,N SRA GRAÇA PÓVOA MEADAS,-7.517902245062848,39.512239223982775
pt.ine.add.PTCONT.3461314,R ENCRUZILHADAS,46 48,7320-123,CASTELO DE VIDE,-7.453997972259434,39.41614525208086
pt.ine.add.PTCONT.3461315,R ALMEIDA SARZEDAS,,7320-115,CASTELO DE VIDE,-7.454027689585095,39.415958559474596
pt.ine.add.PTCONT.3461319,ESTR BOM JESUS,,7320-203,CASTELO DE VIDE,-7.450341234862295,39.41960954833958
pt.ine.add.PTCONT.3461320,R 5 DE OUTUBRO,4,7320-119,CASTELO DE VIDE,-7.455070054224694,39.41575519844039
pt.ine.add.PTCONT.3461322,R BAIXO,136,7320-011,N SRA GRAÇA PÓVOA MEADAS,-7.518765141065512,39.512773195779914
pt.ine.add.PTCONT.3461323,R ENCRUZILHADAS,7,7320-123,CASTELO DE VIDE,-7.4540957560093,39.41564143178809
pt.ine.add.PTCONT.3461328,ESTR RIBEIRA DA VIDE,,7320-204,CASTELO DE VIDE,-7.4408591061880145,39.41789622436724
pt.ine.add.PTCONT.3461329,R CORREDOURA,4,7320-121,CASTELO DE VIDE,-7.452394578697403,39.41521510131789
pt.ine.add.PTCONT.3461333,R ALFREDO CARLOS LE COCQ,,7320-102,CASTELO DE VIDE,-7.4488886680635025,39.4125845749448
pt.ine.add.PTCONT.3461338,R SERRALHEIROS,12,7320-139,CASTELO DE VIDE,-7.455412985596097,39.41631562974617
pt.ine.add.PTCONT.3461339,R FONTE,11,7320-011,N SRA GRAÇA PÓVOA MEADAS,-7.518016407220302,39.51219193318467
pt.ine.add.PTCONT.3461340,R ESPINHOSAS,14,7320-208,CASTELO DE VIDE,-7.454881646832627,39.41709302063385
pt.ine.add.PTCONT.3461344,R RELOGIO,14,7320-185,CASTELO DE VIDE,-7.457536289471333,39.41842429397217
pt.ine.add.PTCONT.3461345,ESTR S VICENTE,,7320-202,CASTELO DE VIDE,-7.4464316766122405,39.40856198782546
pt.ine.add.PTCONT.3461353,R COSTA,88,7320-301,CASTELO DE VIDE,-7.458642490188955,39.41737920899314
pt.ine.add.PTCONT.3461354,R CANTO DA ALDEIA,19,7320-159,CASTELO DE VIDE,-7.459636934592713,39.41802275221832
pt.ine.add.PTCONT.3461357,R ALDEIA,10,7320-159,CASTELO DE VIDE,-7.459394900156725,39.41762675751991
pt.ine.add.PTCONT.3461358,SENHORA DA ALEGRIA,11,7320-188,CASTELO DE VIDE,-7.459097150832511,39.4183996332211
pt.ine.add.PTCONT.3461371,,,7320-301,CASTELO DE VIDE,-7.531356042127759,39.45677828235631
pt.ine.add.PTCONT.3461385,R LADEIRINHA,2078 6,7320-407,CASTELO DE VIDE,-7.459782931723625,39.41350380437814
pt.ine.add.PTCONT.3461793,R ENCRUZILHADAS,46 48,7320-123,CASTELO DE VIDE,-7.453997972259434,39.41614525208086
pt.ine.add.PTCONT.3461797,ESTR BOM JESUS,,7320-203,CASTELO DE VIDE,-7.451575253644308,39.42883091516386
pt.ine.add.PTCONT.3461807,R OLIVENCA,,7320-134,CASTELO DE VIDE,-7.454732016619839,39.414690403435436
pt.ine.add.PTCONT.3461830,R ANTÓNIO VICENTE RAPOSO REPENICADO,,7320-207,CASTELO DE VIDE,-7.455353496976109,39.41286560743066
pt.ine.add.PTCONT.3461831,R ANTÓNIO VICENTE RAPOSO REPENICADO,,7320-207,CASTELO DE VIDE,-7.455353496976109,39.41286560743066
pt.ine.add.PTCONT.3461832,R ANTÓNIO VICENTE RAPOSO REPENICADO,,7320-207,CASTELO DE VIDE,-7.455353496976109,39.41286560743066
pt.ine.add.PTCONT.3461839,R ANTÓNIO VICENTE RAPOSO REPENICADO,,7320-207,CASTELO DE VIDE,-7.455353496976109,39.41286560743066
pt.ine.add.PTCONT.3461872,LG ESPÍRITO SANTO,3,7320-011,N SRA GRAÇA PÓVOA MEADAS,-7.518658929797477,39.5099749318245
pt.ine.add.PTCONT.3462078,R BAIXO,62,7320-011,N SRA GRAÇA PÓVOA MEADAS,-7.518584110207583,39.51144268076766
pt.ine.add.PTCONT.3462079,R AMOREIRA,7,7320-011,N SRA GRAÇA PÓVOA MEADAS,-7.519135211300443,39.51205280887741
pt.ine.add.PTCONT.3462080,R VINHA DO POÇO,30,7320-011,N SRA GRAÇA PÓVOA MEADAS,-7.521601926681896,39.51158405915252
pt.ine.add.PTCONT.3462081,R BAIXO,11,7320-011,N SRA GRAÇA PÓVOA MEADAS,-7.518699317274464,39.51078548086817
pt.ine.add.PTCONT.3462105,R ESPINHOSAS,27,7320-208,CASTELO DE VIDE,-7.454604464138479,39.4170678176778
pt.ine.add.PTCONT.3462106,R ESPINHOSAS,19,7320-208,CASTELO DE VIDE,-7.454719796379958,39.417149238805884
pt.ine.add.PTCONT.3462107,R SERRALHEIROS,9,7320-139,CASTELO DE VIDE,-7.455483493348313,39.41630943835865
pt.ine.add.PTCONT.3462108,CAM RIBEIRO DA FONTE,,7320-203,CASTELO DE VIDE,-7.456225674455796,39.42353495105045
pt.ine.add.PTCONT.3462109,,,7320-201,CASTELO DE VIDE,-7.441229178745688,39.415700723460844
pt.ine.add.PTCONT.3462110,R SANTO AMARO,70,7320-177,CASTELO DE VIDE,-7.4537708135422225,39.416913809309385
pt.ine.add.PTCONT.3462131,R CÂNDIDO DOS REIS,68,7320-118,CASTELO DE VIDE,-7.453582891796324,39.415413098568585
pt.ine.add.PTCONT.3462132,R MOUZINHO ALBUQUERQUE,53,7320-133,CASTELO DE VIDE,-7.452926870977721,39.415238295905006
pt.ine.add.PTCONT.3462133,R NOVA,13,7320-199,CASTELO DE VIDE,-7.455706200731258,39.41649523447618
pt.ine.add.PTCONT.3462163,R DIOGO BELO,23,7320-194,CASTELO DE VIDE,-7.456205284963274,39.416704923765195
pt.ine.add.PTCONT.3462164,R BARTOLOMEU ALVARES DA SANTA,71 73 4,7320-117,CASTELO DE VIDE,-7.4550674029016495,39.41530597673707
pt.ine.add.PTCONT.3462165,R BARTOLOMEU ALVARES SANTA,73,7320-117,CASTELO DE VIDE,-7.4550674029016495,39.41530597673707
pt.ine.add.PTCONT.3462166,PC D PEDRO V,45,7320-113,CASTELO DE VIDE,-7.4550674029016495,39.41530597673707
pt.ine.add.PTCONT.3462167,R ALFREDO CARLOS LE COCQ,15,7320-102,CASTELO DE VIDE,-7.448542371983986,39.4123753769593
pt.ine.add.PTCONT.3462198,R S PEDRO,8,7320-164,CASTELO DE VIDE,-7.458577958612884,39.4170111553507
pt.ine.add.PTCONT.3462199,,,7320-434,CASTELO DE VIDE,-7.4594861250211535,39.422626159316565
pt.ine.add.PTCONT.3462200,,,7320-301,CASTELO DE VIDE,-7.504421405875274,39.44024314673702
pt.ine.add.PTCONT.3462201,PCT FRANCISCO M ROMA,48,7320-147,CASTELO DE VIDE,-7.458082527916809,39.4140343693888
pt.ine.add.PTCONT.3462202,R PROF ANTÓNIO FLORES,33,7320-147,CASTELO DE VIDE,-7.457726932255104,39.413581956048866
pt.ine.add.PTCONT.3462229,R PISCO,6,7320-135,CASTELO DE VIDE,-7.454069407647181,39.41356967126258
pt.ine.add.PTCONT.3462425,R POUSO,,7320-407,CASTELO DE VIDE,-7.460684326122839,39.41274342393437
pt.ine.add.PTCONT.3462441,R MIGUEL FERREIRA,46,7320-132,CASTELO DE VIDE,-7.453534793023267,39.41513839639475
pt.ine.add.PTCONT.3462446,R S PEDRO,27,7320-163,CASTELO DE VIDE,-7.459243945453021,39.41747168542371
pt.ine.add.PTCONT.3462449,R PROF ANTÓNIO FLORES,34,7320-147,CASTELO DE VIDE,-7.457830911893742,39.41356783594632
pt.ine.add.PTCONT.3462463,R POUSO,,7320-407,CASTELO DE VIDE,-7.460684326122839,39.41274342393437
pt.ine.add.PTCONT.3462477,R SANTO ANTÓNIO,14,7320-011,N SRA GRAÇA PÓVOA MEADAS,-7.522616357135661,39.51001991161621
pt.ine.add.PTCONT.3462517,R JORNAL O CASTELOVIDENSE,,7320-102,CASTELO DE VIDE,-7.445982892233833,39.40933393925644
pt.ine.add.PTCONT.3462523,R STA MARGARIDA,12,7320-011,N SRA GRAÇA PÓVOA MEADAS,-7.517920763871326,39.510275018671976
pt.ine.add.PTCONT.3462536,LG ESCOLAS,16,7320-011,N SRA GRAÇA PÓVOA MEADAS,-7.519794382858464,39.51510961263664
pt.ine.add.PTCONT.3462547,LG JOÃO JOSE LE COCQ,4,7320-148,CASTELO DE VIDE,-7.4565419872068,39.416042984913275
pt.ine.add.PTCONT.3462553,TV BAIRRO DAS VINHAS,,7320-011,N SRA GRAÇA PÓVOA MEADAS,-7.5211213691726755,39.51230646644294
pt.ine.add.PTCONT.3462554,R OUTEIRO,14,7320-011,N SRA GRAÇA PÓVOA MEADAS,-7.518892179668938,39.51224877262021
pt.ine.add.PTCONT.3462562,R SANTO AMARO,55,7320-177,CASTELO DE VIDE,-7.4548836665955935,39.41701508958729
pt.ine.add.PTCONT.3462573,R BANDA UNIAO ARTISTICA,,7320-102,CASTELO DE VIDE,-7.446386863351259,39.40957951333577
pt.ine.add.PTCONT.3462583,R CANTO DA ALDEIA,,7320-159,CASTELO DE VIDE,-7.4595546887281525,39.41791590627284
pt.ine.add.PTCONT.3462584,R DA ALDEIA,48,7320-159,CASTELO DE VIDE,-7.459532736317134,39.41803432366501
pt.ine.add.PTCONT.3462585,R LUIS DE CAMÕES,27,7320-422,CASTELO DE VIDE,-7.459646543590527,39.41681758608878
pt.ine.add.PTCONT.3462592,TV MORAIS,2,7320-167,CASTELO DE VIDE,-7.458257490026061,39.41711668064512
pt.ine.add.PTCONT.3462602,LG MONTE DOS SETE,7,7320-148,CASTELO DE VIDE,-7.457124206172285,39.415875236886144
pt.ine.add.PTCONT.3462608,R CESAR VIDEIRA,,7320-146,CASTELO DE VIDE,-7.45390555633344,39.412505890135456
pt.ine.add.PTCONT.3463017,R OUTEIRO,30,7320-011,N SRA GRAÇA PÓVOA MEADAS,-7.518936955353226,39.512664126258024
pt.ine.add.PTCONT.3463036,R LUIS DE CAMÕES,27,7320-422,CASTELO DE VIDE,-7.459646543590527,39.41681758608878
pt.ine.add.PTCONT.3463152,ESTR POUSO,,7320-407,CASTELO DE VIDE,-7.460689621060407,39.41340096484878
pt.ine.add.PTCONT.3463153,,,7320-407,CASTELO DE VIDE,-7.5073831493896925,39.38284580770745
pt.ine.add.PTCONT.3463154,R STA MARIA CIMA,21,7320-151,CASTELO DE VIDE,-7.456993378455105,39.41681180640706
pt.ine.add.PTCONT.3463155,R BAIXO,23,7320-164,CASTELO DE VIDE,-7.457590043236332,39.41651138880859
pt.ine.add.PTCONT.3463156,R BAIXO,,7320-164,CASTELO DE VIDE,-7.457339342397422,39.41644392685399
pt.ine.add.PTCONT.3463497,R OUTEIRO,2,7320-011,N SRA GRAÇA PÓVOA MEADAS,-7.518731900325243,39.511636362692144
pt.ine.add.PTCONT.3463498,LG ROSSIO,21,7320-011,N SRA GRAÇA PÓVOA MEADAS,-7.518940396062653,39.511754373370195
pt.ine.add.PTCONT.3463499,R ESTRADA,,7320-011,N SRA GRAÇA PÓVOA MEADAS,-7.519946113050923,39.50314029138147
pt.ine.add.PTCONT.3463533,VAR TOURIL,,7320-011,N SRA GRAÇA PÓVOA MEADAS,-7.522333799201409,39.50663851835163
pt.ine.add.PTCONT.3463534,ESTR BOM JESUS,,7320-203,CASTELO DE VIDE,-7.449452468453466,39.42618842452957
pt.ine.add.PTCONT.3463535,ESTR RIBEIRA DA VIDE,,7320-204,CASTELO DE VIDE,-7.440738028744673,39.41957080105843
pt.ine.add.PTCONT.3463536,ESTR PERO BOI,,7320-203,CASTELO DE VIDE,-7.459676667068262,39.43058041658178
pt.ine.add.PTCONT.3463573,R BALCAO,6,7320-184,CASTELO DE VIDE,-7.457727402666847,39.41834665386021
pt.ine.add.PTCONT.3463574,R DR JOSE ANTÓNIO SERRANO,6,7320-195,CASTELO DE VIDE,-7.455974787981862,39.41653082836913
pt.ine.add.PTCONT.3463613,R ENG ALEXANDRE CORDEIRO,,7320-437,CASTELO DE VIDE,-7.443570578011525,39.40551871506419
pt.ine.add.PTCONT.3463614,R S PEDRO,28,7320-163,CASTELO DE VIDE,-7.459026452078565,39.41730037168875
pt.ine.add.PTCONT.3463615,ESTR CIRCUNVALAÇÃO,1,7320-436,CASTELO DE VIDE,-7.458926546428863,39.41682242259051
pt.ine.add.PTCONT.3463616,,,7320-301,CASTELO DE VIDE,-7.518697653162017,39.464016723409244
pt.ine.add.PTCONT.3463657,R S PEDRO,20,7320-163,CASTELO DE VIDE,-7.4589211680336645,39.41720379755573
pt.ine.add.PTCONT.3463665,CAM CASA BRANCA,,7320-203,CASTELO DE VIDE,-7.4361540062776434,39.4460869123682
pt.ine.add.PTCONT.3463690,R ESPINHOSAS,5,7320-208,CASTELO DE VIDE,-7.455044569435398,39.41718716023878
pt.ine.add.PTCONT.3463744,LG ESPÍRITO SANTO,7,7320-011,N SRA GRAÇA PÓVOA MEADAS,-7.51868629810625,39.5102130377538
pt.ine.add.PTCONT.3463785,CAM GALHARDO,,7320-203,CASTELO DE VIDE,-7.44598079923589,39.448568248339775
pt.ine.add.PTCONT.3463786,R POSTIGO,4,7320-186,CASTELO DE VIDE,-7.458410930619309,39.4185127459618
pt.ine.add.PTCONT.3463787,R ARCARIO,11,7320-193,CASTELO DE VIDE,-7.455948785895739,39.417345545960515
pt.ine.add.PTCONT.3463790,ESTR MEADA,,7320-203,CASTELO DE VIDE,-7.453724030230202,39.43240123492318
pt.ine.add.PTCONT.3463791,CAM RIBEIRO DA FONTE,,7320-203,CASTELO DE VIDE,-7.458087677623027,39.426743245770375
pt.ine.add.PTCONT.3463792,R MESTRE JORGE,20,7320-130,CASTELO DE VIDE,-7.456155240300735,39.41696088572576
pt.ine.add.PTCONT.3463801,,,7320-201,CASTELO DE VIDE,-7.42959646698856,39.41545982306677
pt.ine.add.PTCONT.3463806,R ESTRADA,37,7320-011,N SRA GRAÇA PÓVOA MEADAS,-7.518434264983891,39.50852343662602
pt.ine.add.PTCONT.3463807,R OUTEIRINHO,21,7320-127,CASTELO DE VIDE,-7.454586697906095,39.416444341682585
pt.ine.add.PTCONT.3463809,R STA MARIA,13,7320-197,CASTELO DE VIDE,-7.45648218919886,39.41622277680359
pt.ine.add.PTCONT.3463814,HORTA MOGANO,,7320-011,N SRA GRAÇA PÓVOA MEADAS,-7.52750447247199,39.50300877730781
pt.ine.add.PTCONT.3463816,R ALMEIDA SARZEDAS,27,7320-115,CASTELO DE VIDE,-7.45448396822038,39.41575347063248
pt.ine.add.PTCONT.3463817,R BARTOLOMEU ÁLVARES DA SANTA,66,7320-117,CASTELO DE VIDE,-7.454930923248008,39.41555749654354
pt.ine.add.PTCONT.3463818,R CÂNDIDO DOS REIS,27,7320-118,CASTELO DE VIDE,-7.454157480514462,39.41527092045983
pt.ine.add.PTCONT.3463819,R CÂNDIDO DOS REIS,27,7320-118,CASTELO DE VIDE,-7.454157480514462,39.41527092045983
pt.ine.add.PTCONT.3463820,ESTR MEADA,,7320-203,CASTELO DE VIDE,-7.452544353556257,39.43307886745578
pt.ine.add.PTCONT.3463835,ESTR MEADA,,7320-139,CASTELO DE VIDE,-7.456751973678376,39.47118470692807
pt.ine.add.PTCONT.3463864,R ALEXANDRE HERCULANO,20,7320-114,CASTELO DE VIDE,-7.4541471021343035,39.41393941121726
pt.ine.add.PTCONT.3463866,,,7320-422,CASTELO DE VIDE,-7.462985723820037,39.420989088452465
pt.ine.add.PTCONT.3463867,R PISCO,1,7320-135,CASTELO DE VIDE,-7.453889385832354,39.413589494013976
pt.ine.add.PTCONT.3463877,PCT DR AMADEU CANARIO,38,7320-147,CASTELO DE VIDE,-7.457855345434655,39.413669373949176
pt.ine.add.PTCONT.3464291,R MESTRE JORGE,59,7320-130,CASTELO DE VIDE,-7.456821566012372,39.41715246958507
pt.ine.add.PTCONT.3464317,PCT DR ADOLFO BUGALHO,51,7320-147,CASTELO DE VIDE,-7.458133771873676,39.41413280416553
pt.ine.add.PTCONT.3464363,R AMOREIRA,43,7320-011,N SRA GRAÇA PÓVOA MEADAS,-7.519100938321059,39.51246607689781
pt.ine.add.PTCONT.3464384,LG ESPÍRITO SANTO,2,7320-011,N SRA GRAÇA PÓVOA MEADAS,-7.518665423832213,39.50994272158151
pt.ine.add.PTCONT.3464426,CAM RIBEIRO DA FONTE,,7320-203,CASTELO DE VIDE,-7.455452790502508,39.42419696705399
pt.ine.add.PTCONT.3464427,R MESTRE JORGE,36,7320-130,CASTELO DE VIDE,-7.456395187294655,39.41704161350277
pt.ine.add.PTCONT.3464430,,,7320-201,CASTELO DE VIDE,-7.416205216161301,39.40779419400264
pt.ine.add.PTCONT.3464432,,,7320-201,CASTELO DE VIDE,-7.43231563953135,39.41620905128418
pt.ine.add.PTCONT.3464440,R TORRINHA,20,7320-124,CASTELO DE VIDE,-7.454591037454394,39.41632299249061
pt.ine.add.PTCONT.3464441,R NOVA,32,7320-011,N SRA GRAÇA PÓVOA MEADAS,-7.5196300630323885,39.51188581938621
pt.ine.add.PTCONT.3464442,R MIGUEL BOMBARDA,41 39,7320-131,CASTELO DE VIDE,-7.453894568434385,39.415650968400065
pt.ine.add.PTCONT.3464452,R MIGUEL BOMBARDA,30,7320-131,CASTELO DE VIDE,-7.454073145154135,39.415578250918024
pt.ine.add.PTCONT.3464454,LG ROSSIO,33,7320-011,N SRA GRAÇA PÓVOA MEADAS,-7.518977909162097,39.511249838840335
pt.ine.add.PTCONT.3464457,R MIGUEL FERREIRA,90,7320-132,CASTELO DE VIDE,-7.453059884530921,39.41536486780085
pt.ine.add.PTCONT.3464479,R LUIS DE CAMÕES,,7320-422,CASTELO DE VIDE,-7.460668454572868,39.41802142656671
pt.ine.add.PTCONT.3464505,PC D PEDRO V,12,7320-113,CASTELO DE VIDE,-7.455925865195822,39.41509675503481
pt.ine.add.PTCONT.3464514,,,7320-303,CASTELO DE VIDE,-7.465750842172094,39.424508698915346
pt.ine.add.PTCONT.3464519,R S JOSE,11,7320-438,CASTELO DE VIDE,-7.456217774530664,39.413546163667576
pt.ine.add.PTCONT.3464988,PC D PEDRO V,12,7320-113,CASTELO DE VIDE,-7.455925865195822,39.41509675503481
pt.ine.add.PTCONT.3465000,R DO BARREIRO,46,7320-011,N SRA GRAÇA PÓVOA MEADAS,-7.519208016964757,39.514349941899866
pt.ine.add.PTCONT.3465033,R SANTO ANTÓNIO,60,7320-011,N SRA GRAÇA PÓVOA MEADAS,-7.524959133902875,39.5095795126179
pt.ine.add.PTCONT.3465396,LG OUTEIRO DO RIBEIRO,2,7320-011,N SRA GRAÇA PÓVOA MEADAS,-7.517692059087979,39.512198294906604
pt.ine.add.PTCONT.3465397,TV BAIRRO DAS VINHAS,,7320-011,N SRA GRAÇA PÓVOA MEADAS,-7.521203235591226,39.51225285621601
pt.ine.add.PTCONT.3465398,TV BAIRRO DAS VINHAS,,7320-011,N SRA GRAÇA PÓVOA MEADAS,-7.521378437528269,39.51216370965553
pt.ine.add.PTCONT.3465399,R OUTEIRO,37,7320-011,N SRA GRAÇA PÓVOA MEADAS,-7.519042843671042,39.512355369391194
pt.ine.add.PTCONT.3465400,R OUTEIRO,25,7320-011,N SRA GRAÇA PÓVOA MEADAS,-7.518942956610855,39.512097458152866
pt.ine.add.PTCONT.3465423,BR VINHAS,,7320-011,N SRA GRAÇA PÓVOA MEADAS,-7.521023202617529,39.51156738715481
pt.ine.add.PTCONT.3465424,,,7320-014,N SRA GRAÇA PÓVOA MEADAS,-7.524372301877391,39.50354183923336
pt.ine.add.PTCONT.3465425,CAM FONTE DE ANDRADE,,7320-201,CASTELO DE VIDE,-7.436343976645645,39.42935314892163
pt.ine.add.PTCONT.3465454,R OUTEIRINHO,9 7,7320-127,CASTELO DE VIDE,-7.45442165278311,39.41626552430568
pt.ine.add.PTCONT.3465455,R MIGUEL BOMBARDA,67,7320-131,CASTELO DE VIDE,-7.4536062472992555,39.415827720187245
pt.ine.add.PTCONT.3465456,R MERCADO,97,7320-126,CASTELO DE VIDE,-7.456883870551007,39.41707284076414
pt.ine.add.PTCONT.3465476,R STA MARIA BAIXO,1B,7320-197,CASTELO DE VIDE,-7.456458008687967,39.41632171298151
pt.ine.add.PTCONT.3465477,R CÂNDIDO DOS REIS,33,7320-118,CASTELO DE VIDE,-7.45409581338326,39.415304325013516
pt.ine.add.PTCONT.3465478,R ALFREDO CARLOS LE COCQ,,7320-102,CASTELO DE VIDE,-7.448392232135822,39.412311303937685
pt.ine.add.PTCONT.3465507,R FR RAFAEL,,7320-102,CASTELO DE VIDE,-7.44755725946148,39.41100051368876
pt.ine.add.PTCONT.3465508,R JORNAL O CASTELOVIDENSE,,7320-102,CASTELO DE VIDE,-7.44616989245279,39.409208945735834
pt.ine.add.PTCONT.3465509,R COSTA,64,7320-145,CASTELO DE VIDE,-7.458384761189513,39.41717164544722
pt.ine.add.PTCONT.3465510,,,7320-301,CASTELO DE VIDE,-7.475569113608404,39.42274520289836
pt.ine.add.PTCONT.3465531,,,7320-441,CASTELO DE VIDE,-7.5464118930525075,39.43903042370882
pt.ine.add.PTCONT.3465532,R BAIXO,,7320-164,CASTELO DE VIDE,-7.457293244695377,39.416407631122716
pt.ine.add.PTCONT.3465533,CARREIRA S TIAGO,25,7320-157,CASTELO DE VIDE,-7.458048755008023,39.41644352692495
pt.ine.add.PTCONT.3465534,R JOÃO FRADE,4,7320-129,CASTELO DE VIDE,-7.453957667884743,39.413118669591206
pt.ine.add.PTCONT.3465556,R MERCADO,32,7320-126,CASTELO DE VIDE,-7.456545850016382,39.416844628943004
pt.ine.add.PTCONT.3465559,,,7320-014,N SRA GRAÇA PÓVOA MEADAS,-7.524372301877391,39.50354183923336
pt.ine.add.PTCONT.3465578,R COSTA,100,7320-301,CASTELO DE VIDE,-7.458836922195915,39.41749013125658
pt.ine.add.PTCONT.3465596,SIT DE VAL DORNAS,,7320-423,CASTELO DE VIDE,-7.452116402882162,39.44720826095978
pt.ine.add.PTCONT.3465620,R SANTO ANTÓNIO,40,7320-011,N SRA GRAÇA PÓVOA MEADAS,-7.523509610607975,39.509800380177644
pt.ine.add.PTCONT.3465733,R OUTEIRO,45,7320-011,N SRA GRAÇA PÓVOA MEADAS,-7.519130358395861,39.51250703154288
pt.ine.add.PTCONT.3465734,LG OUTEIRO DO RIBEIRO,16,7320-011,N SRA GRAÇA PÓVOA MEADAS,-7.517495823191181,39.512035132492585
pt.ine.add.PTCONT.3465735,R VINHA DO POÇO,20,7320-011,N SRA GRAÇA PÓVOA MEADAS,-7.5215077846351015,39.511375220836385
pt.ine.add.PTCONT.3465765,R BAIXO,28,7320-011,N SRA GRAÇA PÓVOA MEADAS,-7.5186047868298855,39.510897831801
pt.ine.add.PTCONT.3465766,ESTR BOM JESUS,,7320-203,CASTELO DE VIDE,-7.4503695432183,39.42622983868321
pt.ine.add.PTCONT.3465767,ESTR RIBEIRA DA VIDE,,7320-204,CASTELO DE VIDE,-7.441057126691681,39.4178343537523
pt.ine.add.PTCONT.3465768,ESTR RIBEIRA DA VIDE,,7320-204,CASTELO DE VIDE,-7.440861274643503,39.41885097663606
pt.ine.add.PTCONT.3465791,R OUTEIRINHO,10,7320-127,CASTELO DE VIDE,-7.454318582625096,39.4162737461729
pt.ine.add.PTCONT.3465792,R BARTOLOMEU ÁLVARES DA SANTA,74,7320-117,CASTELO DE VIDE,-7.455012870439448,39.415664795282495
pt.ine.add.PTCONT.3465818,R BARTOLOMEU ÁLVARES DA SANTA,65,7320-117,CASTELO DE VIDE,-7.454991760755201,39.41519944975458
pt.ine.add.PTCONT.3465819,R BARTOLOMEU ÁLVARES DA SANTA,65,7320-117,CASTELO DE VIDE,-7.454991760755201,39.41519944975458
pt.ine.add.PTCONT.3465820,R BARTOLOMEU ÁLVARES DA SANTA,65,7320-117,CASTELO DE VIDE,-7.454991760755201,39.41519944975458
pt.ine.add.PTCONT.3465847,R CÂNDIDO DOS REIS,14,7320-118,CASTELO DE VIDE,-7.454303334407056,39.41513720096911
pt.ine.add.PTCONT.3465848,R CÂNDIDO DOS REIS,14,7320-118,CASTELO DE VIDE,-7.454303334407056,39.41513720096911
pt.ine.add.PTCONT.3465849,R ALFREDO CARLOS LE COCQ,,7320-102,CASTELO DE VIDE,-7.44877948189485,39.4125173035199
pt.ine.add.PTCONT.3465850,R COSTA,69,7320-145,CASTELO DE VIDE,-7.4586569522749375,39.417277722893246
pt.ine.add.PTCONT.3465884,R S JOSE,4,7320-438,CASTELO DE VIDE,-7.456184057711205,39.41327904537708
pt.ine.add.PTCONT.3465885,CANTO DO FORNO,,7320-407,CASTELO DE VIDE,-7.4599466970864325,39.413378654274844
pt.ine.add.PTCONT.3465886,CX 20,,7320-407,CASTELO DE VIDE,-7.464350148185605,39.41443236091318
pt.ine.add.PTCONT.3466167,BR VINHAS,,7320-011,N SRA GRAÇA PÓVOA MEADAS,-7.5206782567071775,39.51112423435891
pt.ine.add.PTCONT.3466176,R BARTOLOMEU ÁLVARES DA SANTA,,7320-117,CASTELO DE VIDE,-7.45481818482079,39.4153844437624
pt.ine.add.PTCONT.3466180,R ENFERMEIRO AUGUSTO RAINHO,57,7320-147,CASTELO DE VIDE,-7.45822982361628,39.41441351748453
pt.ine.add.PTCONT.3466186,R FRANCISCO BOGALHO,,7320-102,CASTELO DE VIDE,-7.448576866856861,39.41122268546957
pt.ine.add.PTCONT.3466252,VAR TOURIL,,7320-011,N SRA GRAÇA PÓVOA MEADAS,-7.525044220840346,39.51048965092117
pt.ine.add.PTCONT.3466253,VAR TOURIL,,7320-011,N SRA GRAÇA PÓVOA MEADAS,-7.52345779563121,39.50707674751969
pt.ine.add.PTCONT.3466281,R VINHA DO POÇO,28,7320-011,N SRA GRAÇA PÓVOA MEADAS,-7.521591023659489,39.51153732014594
pt.ine.add.PTCONT.3466302,R NOVA,49,7320-199,CASTELO DE VIDE,-7.455626565660398,39.416906182692514
pt.ine.add.PTCONT.3466306,R BARREIRO,28,7320-011,N SRA GRAÇA PÓVOA MEADAS,-7.518969446520132,39.513711120755
pt.ine.add.PTCONT.3466313,CAM VALE DA VIOLA,,7320-203,CASTELO DE VIDE,-7.448287507402234,39.428928695865956
pt.ine.add.PTCONT.3466319,LG OUTEIRO DO RIBEIRO,11,7320-011,N SRA GRAÇA PÓVOA MEADAS,-7.517401531767452,39.51217874288103
pt.ine.add.PTCONT.3466320,R SANTO AMARO,103,7320-177,CASTELO DE VIDE,-7.453860594448145,39.41701329058584
pt.ine.add.PTCONT.3466322,R JOÃO BARATA,,7320-102,CASTELO DE VIDE,-7.4494021490217195,39.41166866676418
pt.ine.add.PTCONT.3466324,R FRANCISCO BOGALHO,,7320-102,CASTELO DE VIDE,-7.448673583487392,39.41113276581475
pt.ine.add.PTCONT.3466329,,,7320-410,CASTELO DE VIDE,-7.457789830757553,39.410673063128606
pt.ine.add.PTCONT.3466350,R COSTA,85,7320-145,CASTELO DE VIDE,-7.458931824611495,39.41747996298619
pt.ine.add.PTCONT.3466354,TV MORAIS,14,7320-167,CASTELO DE VIDE,-7.4581507508203355,39.417291060759055
pt.ine.add.PTCONT.3466355,R BAIXO,32,7320-164,CASTELO DE VIDE,-7.457523052722222,39.416528650766665
pt.ine.add.PTCONT.3466370,R CESAR VIDEIRA,,7320-146,CASTELO DE VIDE,-7.454400800748965,39.412923102025296
pt.ine.add.PTCONT.3466371,R CESAR VIDEIRA,,7320-146,CASTELO DE VIDE,-7.454400800748965,39.412923102025296
pt.ine.add.PTCONT.3466379,PCT DR AMADEU CANARIO,37,7320-147,CASTELO DE VIDE,-7.4577544299570535,39.41368289128013
pt.ine.add.PTCONT.3466906,R ALDEIA,1,7320-159,CASTELO DE VIDE,-7.459280084940854,39.41749098776828
pt.ine.add.PTCONT.3466889,R ESPINHOSAS,16,7320-208,CASTELO DE VIDE,-7.454848108754233,39.41708953214127
pt.ine.add.PTCONT.3466855,R ARCARIO,29,7320-193,CASTELO DE VIDE,-7.4562031944295954,39.41745511040087
pt.ine.add.PTCONT.3466859,R MERCADO,34,7320-126,CASTELO DE VIDE,-7.456603559073705,39.41688099249309
pt.ine.add.PTCONT.3466862,,,7320-201,CASTELO DE VIDE,-7.432488506910942,39.41313498156974
pt.ine.add.PTCONT.3466864,R OUTEIRINHO,14,7320-127,CASTELO DE VIDE,-7.45433779467243,39.416312183889154
pt.ine.add.PTCONT.3466865,LG ESCOLAS,14,7320-011,N SRA GRAÇA PÓVOA MEADAS,-7.519815183598166,39.51538893484884
pt.ine.add.PTCONT.3466866,R SANTO AMARO,2,7320-177,CASTELO DE VIDE,-7.455238077579055,39.416212483177645
pt.ine.add.PTCONT.3466867,R MESTRE JORGE,7,7320-130,CASTELO DE VIDE,-7.456123859875962,39.41690048152108
pt.ine.add.PTCONT.3466871,R FONTE,16,7320-011,N SRA GRAÇA PÓVOA MEADAS,-7.518197226184396,39.512310626478886
pt.ine.add.PTCONT.3466878,R MIGUEL BOMBARDA,13,7320-131,CASTELO DE VIDE,-7.454424090135767,39.415442238940926
pt.ine.add.PTCONT.3466880,R AMOREIRA,6,7320-011,N SRA GRAÇA PÓVOA MEADAS,-7.518985402723724,39.51189890100875
pt.ine.add.PTCONT.3466881,AV ARAMENHA,37,7320-101,CASTELO DE VIDE,-7.452557363034896,39.41383104510349
pt.ine.add.PTCONT.3466887,R NOVA,26,7320-199,CASTELO DE VIDE,-7.455594756953956,39.416731009775084
pt.ine.add.PTCONT.3466890,R MOUZINHO DE ALBUQUERQUE,28,7320-133,CASTELO DE VIDE,-7.452974891027949,39.415076450945406
pt.ine.add.PTCONT.3466894,R AMOREIRA,13,7320-011,N SRA GRAÇA PÓVOA MEADAS,-7.5192510100509535,39.512107461530846
pt.ine.add.PTCONT.3466895,CAM CAMINHO DA MEADA,,7320-139,CASTELO DE VIDE,-7.4345136489500065,39.493966725091305
pt.ine.add.PTCONT.3466897,SIT MARTINHO,,7320-407,CASTELO DE VIDE,-7.462244316724531,39.41474297530867
pt.ine.add.PTCONT.3466911,R DIREITA,31,7320-151,CASTELO DE VIDE,-7.458239968028922,39.418178495942946
pt.ine.add.PTCONT.3466928,,,7320-301,CASTELO DE VIDE,-7.527858975718899,39.470171463379096
pt.ine.add.PTCONT.3467314,R MOUZINHO ALBUQUERQUE,17,7320-133,CASTELO DE VIDE,-7.453440911475851,39.414917048895866
pt.ine.add.PTCONT.3467335,AV ARAMENHA,37,7320-101,CASTELO DE VIDE,-7.452557363034896,39.41383104510349
pt.ine.add.PTCONT.3467340,R ALDEIA,34,7320-159,CASTELO DE VIDE,-7.459484010696134,39.41783240309937
pt.ine.add.PTCONT.3467354,R MIGUEL FERREIRA,30 32,7320-132,CASTELO DE VIDE,-7.453710273275726,39.41505082596714
pt.ine.add.PTCONT.3467362,CAM COZINHEIRA,,7320-203,CASTELO DE VIDE,-7.44469059096568,39.420314817225375
pt.ine.add.PTCONT.3467458,LG FONTE VILA,10,7320-150,CASTELO DE VIDE,-7.455543864385531,39.41719006947898
pt.ine.add.PTCONT.3467462,R BAIXO,36,7320-011,N SRA GRAÇA PÓVOA MEADAS,-7.5185874196941525,39.51099614895707
pt.ine.add.PTCONT.3467476,R MERCADO,35,7320-126,CASTELO DE VIDE,-7.456195626420185,39.41652515032125
pt.ine.add.PTCONT.3467477,R MERCADO,89,7320-126,CASTELO DE VIDE,-7.456795457034496,39.41697740578874
pt.ine.add.PTCONT.3467486,LG ESCOLAS,,7320-011,N SRA GRAÇA PÓVOA MEADAS,-7.520345169210777,39.51462614692967
pt.ine.add.PTCONT.3467488,CAM CAMINHO DAS FREIRAS,,7320-203,CASTELO DE VIDE,-7.44998708837929,39.422579770717334
pt.ine.add.PTCONT.3467489,ESTR BOM JESUS,,7320-203,CASTELO DE VIDE,-7.4493073091601625,39.425593111491715
pt.ine.add.PTCONT.3467490,ESTR BOM JESUS,,7320-203,CASTELO DE VIDE,-7.451144741987813,39.42772053539818
pt.ine.add.PTCONT.3467497,ESTR RIBEIRA DA VIDE,,7320-204,CASTELO DE VIDE,-7.440491909013855,39.42214532967303
pt.ine.add.PTCONT.3467498,R ALFREDO CARLOS LE COCQ,,7320-102,CASTELO DE VIDE,-7.447896404874141,39.41193923855067
pt.ine.add.PTCONT.3467501,R NOVA,28,7320-199,CASTELO DE VIDE,-7.455581251742516,39.416777227912185
pt.ine.add.PTCONT.3467508,R ESPINHOSAS,3,7320-208,CASTELO DE VIDE,-7.455125762756246,39.417196640455735
pt.ine.add.PTCONT.3467511,R NOVA,23,7320-011,N SRA GRAÇA PÓVOA MEADAS,-7.519449389695125,39.512027447120964
pt.ine.add.PTCONT.3467512,R AMOREIRA,11,7320-011,N SRA GRAÇA PÓVOA MEADAS,-7.51920882614631,39.51208274553107
pt.ine.add.PTCONT.3467513,LG POUSO,,7320-407,CASTELO DE VIDE,-7.4586842343421536,39.41304709049567
pt.ine.add.PTCONT.3467518,R ALDEIA,24,7320-159,CASTELO DE VIDE,-7.459422976293853,39.417737976218916
pt.ine.add.PTCONT.3467519,SENHORA DA ALEGRIA,7,7320-188,CASTELO DE VIDE,-7.458803723649854,39.418481231987435
pt.ine.add.PTCONT.3467522,R STA MARIA CIMA,47,7320-151,CASTELO DE VIDE,-7.457330317427011,39.417053070775246
pt.ine.add.PTCONT.3467527,R COSTA,77,7320-145,CASTELO DE VIDE,-7.458768336578412,39.41735145398765
pt.ine.add.PTCONT.3467535,CARREIRA DE S TIAGO,,7320-157,CASTELO DE VIDE,-7.457814974999421,39.416491723793314
pt.ine.add.PTCONT.3467545,R PISCO,12,7320-135,CASTELO DE VIDE,-7.454162906426709,39.413507168073046
pt.ine.add.PTCONT.3467547,R JOÃO ANTÓNIO GORDO,,7320-146,CASTELO DE VIDE,-7.454162826901387,39.41231824513973
pt.ine.add.PTCONT.3468045,R LAGEM BRANCA,29,7320-011,N SRA GRAÇA PÓVOA MEADAS,-7.5164092137082665,39.50999382322542
pt.ine.add.PTCONT.3468052,,,7320-201,CASTELO DE VIDE,-7.431228101066403,39.41949579590031
pt.ine.add.PTCONT.3468064,R FONTE,12,7320-011,N SRA GRAÇA PÓVOA MEADAS,-7.518104378146181,39.512283929887474
pt.ine.add.PTCONT.3468065,R CORREDOURA,76,7320-121,CASTELO DE VIDE,-7.453662904796654,39.41597216285696
pt.ine.add.PTCONT.3468066,LG JOÃO JOSE LE COCQ,9,7320-148,CASTELO DE VIDE,-7.4566344425460445,39.416088557512175
pt.ine.add.PTCONT.3468072,R BAIXO,122,7320-011,N SRA GRAÇA PÓVOA MEADAS,-7.518689560811884,39.51248278364382
pt.ine.add.PTCONT.3468073,R CLERIGO MOUCO,16,7320-120,CASTELO DE VIDE,-7.452383539476791,39.41563367682935
pt.ine.add.PTCONT.3468075,AV ARAMENHA,11,7320-101,CASTELO DE VIDE,-7.453098177669597,39.414338598890126
pt.ine.add.PTCONT.3468076,AV ARAMENHA,,7320-101,CASTELO DE VIDE,-7.453572568695997,39.41451250368969
pt.ine.add.PTCONT.3468082,R SANTO AMARO,37,7320-177,CASTELO DE VIDE,-7.45521053973218,39.41666817604423
pt.ine.add.PTCONT.3468083,R MOUZINHO DE ALBUQUERQUE,59,7320-133,CASTELO DE VIDE,-7.452855457679806,39.415268572332806
pt.ine.add.PTCONT.3468084,R NOVA,2,7320-199,CASTELO DE VIDE,-7.4555986068790645,39.41625100951798
pt.ine.add.PTCONT.3468092,R RELOGIO,9,7320-185,CASTELO DE VIDE,-7.457647235872403,39.41825386053383
pt.ine.add.PTCONT.3468093,LG RUINHA DA RIBEIRA,9,7320-147,CASTELO DE VIDE,-7.4589166361647035,39.412971945724976
pt.ine.add.PTCONT.3468098,R VOLTA DO PE DA TORRE,16,7320-301,CASTELO DE VIDE,-7.458802795740865,39.41761431988112
pt.ine.add.PTCONT.3468105,R COSTA,15,7320-145,CASTELO DE VIDE,-7.45747306381668,39.41669875636852
pt.ine.add.PTCONT.3468108,R S PEDRO,7,7320-163,CASTELO DE VIDE,-7.458688327793261,39.41699676801776
pt.ine.add.PTCONT.3468121,,,7320-301,CASTELO DE VIDE,-7.476320289817623,39.42313674675759
pt.ine.add.PTCONT.3474927,,,7320-301,CASTELO DE VIDE,-7.551552878346325,39.48149698371251
pt.ine.add.PTCONT.3468512,R MIGUEL FERREIRA,58,7320-132,CASTELO DE VIDE,-7.453416926086605,39.41519411312772
pt.ine.add.PTCONT.3468603,SIT PASMAR,,7320-203,CASTELO DE VIDE,-7.450243877857178,39.4057832513709
pt.ine.add.PTCONT.3468613,,,7320-201,CASTELO DE VIDE,-7.420296565583517,39.41306139648926
pt.ine.add.PTCONT.3468618,R NOVA,53,7320-199,CASTELO DE VIDE,-7.455641508216614,39.41697023460405
pt.ine.add.PTCONT.3468627,R LAGEM BRANCA,7,7320-011,N SRA GRAÇA PÓVOA MEADAS,-7.516607431311046,39.50993182649265
pt.ine.add.PTCONT.3468628,R PENEDO,9,7320-196,CASTELO DE VIDE,-7.456457716635627,39.41648908626299
pt.ine.add.PTCONT.3468635,R OUTEIRO,28,7320-011,N SRA GRAÇA PÓVOA MEADAS,-7.5189348986592615,39.512595817290446
pt.ine.add.PTCONT.3468636,R MIGUEL BOMBARDA,60,7320-131,CASTELO DE VIDE,-7.453791979741449,39.41562223335649
pt.ine.add.PTCONT.3468637,R CÂNDIDO DOS REIS,19 21,7320-118,CASTELO DE VIDE,-7.454250633246447,39.41523702138846
pt.ine.add.PTCONT.3468638,R EGIPTO,8,7320-011,N SRA GRAÇA PÓVOA MEADAS,-7.518577895056096,39.5126701188148
pt.ine.add.PTCONT.3468639,R MIGUEL FERREIRA,1,7320-132,CASTELO DE VIDE,-7.4543085706502765,39.41487841039787
pt.ine.add.PTCONT.3468642,ESTR RIBEIRA DA VIDE,,7320-204,CASTELO DE VIDE,-7.440709958227005,39.422407829871425
pt.ine.add.PTCONT.3468643,R MIGUEL FERREIRA,65,7320-132,CASTELO DE VIDE,-7.453376095399698,39.41530806060323
pt.ine.add.PTCONT.3468646,R MOUZINHO DE ALBUQUERQUE,47,7320-133,CASTELO DE VIDE,-7.452968388950735,39.41518692953184
pt.ine.add.PTCONT.3468647,R FRANCISCO BOGALHO,,7320-102,CASTELO DE VIDE,-7.4483770215540295,39.41147370504936
pt.ine.add.PTCONT.3468652,LG ROSSIO,11,7320-011,N SRA GRAÇA PÓVOA MEADAS,-7.519544255526769,39.511672888435875
pt.ine.add.PTCONT.3468653,R NOVA,20,7320-199,CASTELO DE VIDE,-7.455643556534352,39.4164881054296
pt.ine.add.PTCONT.3468654,R SEVERINO DINIS PORTO,,7320-102,CASTELO DE VIDE,-7.448067767428184,39.41103954893039
pt.ine.add.PTCONT.3468660,,,7320-101,CASTELO DE VIDE,-7.43768399019226,39.407171379430764
pt.ine.add.PTCONT.3468671,LG POUSO,,7320-407,CASTELO DE VIDE,-7.458754506706398,39.412984448941295
pt.ine.add.PTCONT.3468678,SIT MARTINHO,,7320-407,CASTELO DE VIDE,-7.46204718671464,39.414714817356895
pt.ine.add.PTCONT.3468710,SIT MACHOQUINHO,1,7320-441,CASTELO DE VIDE,-7.510695682669118,39.42047954605848
pt.ine.add.PTCONT.3469127,CAM VALE CANO,,7320-139,CASTELO DE VIDE,-7.424310295980687,39.470739298532
pt.ine.add.PTCONT.3469132,R EGIPTO,16,7320-011,N SRA GRAÇA PÓVOA MEADAS,-7.518540878526663,39.51252834794419
pt.ine.add.PTCONT.3469163,R MIGUEL BOMBARDA,46 44,7320-131,CASTELO DE VIDE,-7.45408554278102,39.41549726042472
pt.ine.add.PTCONT.3469175,SIT MARTINHO,,7320-407,CASTELO DE VIDE,-7.462589668321208,39.41392923579297
pt.ine.add.PTCONT.3469201,VAR TOURIL,,7320-011,N SRA GRAÇA PÓVOA MEADAS,-7.523191800867227,39.506913228754605
pt.ine.add.PTCONT.3469292,LG ESCOLAS,9,7320-011,N SRA GRAÇA PÓVOA MEADAS,-7.520692581640078,39.51479010098033
pt.ine.add.PTCONT.3469293,R NOVA,12,7320-011,N SRA GRAÇA PÓVOA MEADAS,-7.519483289844852,39.51228162577936
pt.ine.add.PTCONT.3469294,R OUTEIRO,16,7320-011,N SRA GRAÇA PÓVOA MEADAS,-7.518900679968739,39.51227674149267
pt.ine.add.PTCONT.3469295,R BAIXO,71,7320-011,N SRA GRAÇA PÓVOA MEADAS,-7.518714665239054,39.51210476427619
pt.ine.add.PTCONT.3469296,R BAIXO,96,7320-011,N SRA GRAÇA PÓVOA MEADAS,-7.518571718727681,39.51192094343637
pt.ine.add.PTCONT.3469297,BR VINHAS,,7320-011,N SRA GRAÇA PÓVOA MEADAS,-7.520304522137439,39.511311409026376
pt.ine.add.PTCONT.3469334,R BAIXO,5,7320-011,N SRA GRAÇA PÓVOA MEADAS,-7.518752271680433,39.51043398695688
pt.ine.add.PTCONT.3469335,R ESTRADA,29,7320-011,N SRA GRAÇA PÓVOA MEADAS,-7.5182337563364205,39.50878756092339
pt.ine.add.PTCONT.3469371,CAM FONTE DA AMENDOA,,7320-203,CASTELO DE VIDE,-7.455642701189992,39.41777609894336
pt.ine.add.PTCONT.3469372,CAM VALE PEREIRO,,7320-203,CASTELO DE VIDE,-7.460310796591304,39.425026787023285
pt.ine.add.PTCONT.3469373,ESTR RIBEIRA DA VIDE,,7320-203,CASTELO DE VIDE,-7.439530918374201,39.43474033979305
pt.ine.add.PTCONT.3469374,,,7320-201,CASTELO DE VIDE,-7.428696243976134,39.416066849707164
pt.ine.add.PTCONT.3469375,,,7320-201,CASTELO DE VIDE,-7.432462061342071,39.416873198785076
pt.ine.add.PTCONT.3469376,R CORREDOURA,32,7320-121,CASTELO DE VIDE,-7.452835929068352,39.4154401150418
pt.ine.add.PTCONT.3469408,R FONTE,24,7320-150,CASTELO DE VIDE,-7.456184343648884,39.417216984894715
pt.ine.add.PTCONT.3469409,R ARCARIO,10,7320-193,CASTELO DE VIDE,-7.455901642558114,39.41741732738357
pt.ine.add.PTCONT.3469410,R VOLTA DO PENEDO,7,7320-140,CASTELO DE VIDE,-7.455919799358693,39.41626460950843
pt.ine.add.PTCONT.3469411,R MERCADO,18,7320-126,CASTELO DE VIDE,-7.456384153422613,39.41670042514071
pt.ine.add.PTCONT.3469412,R BARTOLOMEU ÁLVARES DA SANTA,1,7320-117,CASTELO DE VIDE,-7.454273988727456,39.41461510104358
pt.ine.add.PTCONT.3469439,R MIGUEL FERREIRA,22,7320-132,CASTELO DE VIDE,-7.4539054762597745,39.414991201109416
pt.ine.add.PTCONT.3469440,R ALFREDO CARLOS LE COCQ,,7320-102,CASTELO DE VIDE,-7.449142696110807,39.41273018054557
pt.ine.add.PTCONT.3469441,R ROMEIRAS,17,7320-162,CASTELO DE VIDE,-7.45941692454521,39.418065074782504
pt.ine.add.PTCONT.3469442,R S PEDRO,6,7320-164,CASTELO DE VIDE,-7.458549623527956,39.41699432002123
pt.ine.add.PTCONT.3469716,BR MURALHA,,7320-146,CASTELO DE VIDE,-7.453133411745447,39.41190691816399
pt.ine.add.PTCONT.3469724,R CALCADINHA,26,7320-011,N SRA GRAÇA PÓVOA MEADAS,-7.522210139606468,39.51146554794457
pt.ine.add.PTCONT.3469730,RUINHA DA JUDIARIA,14,7320-191,CASTELO DE VIDE,-7.456711926858764,39.41768324410275
pt.ine.add.PTCONT.3469756,LG CAP SALGUEIRO MAIA,34,7320-105,CASTELO DE VIDE,-7.45636807861224,39.41601495239074
pt.ine.add.PTCONT.3470174,R EGIPTO,29,7320-011,N SRA GRAÇA PÓVOA MEADAS,-7.518433835123802,39.51247242497717
pt.ine.add.PTCONT.3470175,LG ESCOLAS,10,7320-011,N SRA GRAÇA PÓVOA MEADAS,-7.520703655954716,39.51485320730355
pt.ine.add.PTCONT.3470176,R EGIPTO,30,7320-011,N SRA GRAÇA PÓVOA MEADAS,-7.518481614930252,39.512328567863534
pt.ine.add.PTCONT.3470177,R BAIXO,29,7320-011,N SRA GRAÇA PÓVOA MEADAS,-7.518769082782406,39.51137536025809
pt.ine.add.PTCONT.3470178,R BAIXO,52,7320-011,N SRA GRAÇA PÓVOA MEADAS,-7.518595704491761,39.51125735476172
pt.ine.add.PTCONT.3470179,R BAIXO,104,7320-011,N SRA GRAÇA PÓVOA MEADAS,-7.518589546182101,39.51204691572783
pt.ine.add.PTCONT.3470201,R MERCADO,19,7320-011,N SRA GRAÇA PÓVOA MEADAS,-7.517582460667247,39.511441138556066
pt.ine.add.PTCONT.3470202,R CASTELO,9,7320-011,N SRA GRAÇA PÓVOA MEADAS,-7.520875261702078,39.51084263669952
pt.ine.add.PTCONT.3470203,ESTR BOM JESUS,,7320-203,CASTELO DE VIDE,-7.452288621161942,39.42235908248403
pt.ine.add.PTCONT.3470204,ESTR CIRCUNVALAÇÃO,,7320-208,CASTELO DE VIDE,-7.45454376450309,39.41708644673953
pt.ine.add.PTCONT.3470226,R 5 DE OUTUBRO,39,7320-119,CASTELO DE VIDE,-7.454331873038902,39.41613504682382
pt.ine.add.PTCONT.3470227,R MIGUEL BOMBARDA,53,7320-131,CASTELO DE VIDE,-7.45378155292305,39.415711653251805
pt.ine.add.PTCONT.3470228,R MOUZINHO DE ALBUQUERQUE,,7320-133,CASTELO DE VIDE,-7.453499316921001,39.41488136217687
pt.ine.add.PTCONT.3470229,R MOUZINHO DE ALBUQUERQUE,,7320-133,CASTELO DE VIDE,-7.453499316921001,39.41488136217687
pt.ine.add.PTCONT.3470230,R ARCARIO,21,7320-193,CASTELO DE VIDE,-7.456051783187338,39.41740585815948
pt.ine.add.PTCONT.3470295,LG COOPERATIVA SINTRA DO ALENTEJO,,7320-102,CASTELO DE VIDE,-7.447063128865004,39.41047519537558
pt.ine.add.PTCONT.3470296,R ROMEIRAS,10,7320-162,CASTELO DE VIDE,-7.459126966187987,39.41771527531178
pt.ine.add.PTCONT.3470297,R VOLTA DA ALDEIA,,7320-160,CASTELO DE VIDE,-7.459129171861742,39.417159095164166
pt.ine.add.PTCONT.3470298,,,7320-434,CASTELO DE VIDE,-7.459674268506474,39.419970190297335
pt.ine.add.PTCONT.3470344,CARREIRA DE S TIAGO,24,7320-157,CASTELO DE VIDE,-7.4579248760119965,39.41649293636215
pt.ine.add.PTCONT.3470345,R MOUZINHO SILVEIRA,9,7320-154,CASTELO DE VIDE,-7.457037446222931,39.41644217272162
pt.ine.add.PTCONT.3470380,CARREIRA DE S TIAGO,24,7320-157,CASTELO DE VIDE,-7.4579248760119965,39.41649293636215
pt.ine.add.PTCONT.3470394,R ALFREDO CARLOS LE COCQ,,7320-102,CASTELO DE VIDE,-7.448650606291296,39.4124464934937
pt.ine.add.PTCONT.3470446,ESTR ESTAÇÃO DE SERVICO,,7320-419,CASTELO DE VIDE,-7.471671815586723,39.41856188163551
pt.ine.add.PTCONT.3470477,R JORNAL O CASTELOVIDENSE,,7320-102,CASTELO DE VIDE,-7.446637213455991,39.408914473523126
pt.ine.add.PTCONT.3470478,R VINHA DO POÇO,26,7320-011,N SRA GRAÇA PÓVOA MEADAS,-7.521553871679733,39.51149378640771
pt.ine.add.PTCONT.3470502,R BARREIRO,,7320-011,N SRA GRAÇA PÓVOA MEADAS,-7.519135770243192,39.51407555020675
pt.ine.add.PTCONT.3470503,R OUTEIRINHO,13,7320-127,CASTELO DE VIDE,-7.454452058351286,39.416304015598456
pt.ine.add.PTCONT.3470506,R ESTRADA,26,7320-011,N SRA GRAÇA PÓVOA MEADAS,-7.518562017965836,39.50738046803524
pt.ine.add.PTCONT.3470507,R ALMEIDA SARZEDAS,49,7320-115,CASTELO DE VIDE,-7.454110472099055,39.416053151259035
pt.ine.add.PTCONT.3470508,R STA MARIA,27,7320-197,CASTELO DE VIDE,-7.456674200257654,39.416389706640445
pt.ine.add.PTCONT.3470509,R STA MARIA,27,7320-197,CASTELO DE VIDE,-7.456674200257654,39.416389706640445
pt.ine.add.PTCONT.3470515,R MIGUEL BOMBARDA,47 49,7320-131,CASTELO DE VIDE,-7.453824998428198,39.415694714418876
pt.ine.add.PTCONT.3470521,R BAIXO,49,7320-011,N SRA GRAÇA PÓVOA MEADAS,-7.518675797223259,39.51160688396796
pt.ine.add.PTCONT.3470522,R MIGUEL BOMBARDA,9,7320-131,CASTELO DE VIDE,-7.454494677646524,39.4154029479462
pt.ine.add.PTCONT.3470527,R SOUTOS,5,7320-128,CASTELO DE VIDE,-7.4522408476136865,39.41533335954761
pt.ine.add.PTCONT.3470529,R MIGUEL FERREIRA,49 47,7320-132,CASTELO DE VIDE,-7.453565835773065,39.415206002220614
pt.ine.add.PTCONT.3470542,R CALCADINHA,25,7320-011,N SRA GRAÇA PÓVOA MEADAS,-7.522015867657034,39.511077231913504
pt.ine.add.PTCONT.3470543,CAM CASA BRANCA,,7320-139,CASTELO DE VIDE,-7.433978972348972,39.44751496697026
pt.ine.add.PTCONT.3470544,ESTR RIBEIRA DA VIDE,,7320-402,CASTELO DE VIDE,-7.438151219823528,39.44500902452001
pt.ine.add.PTCONT.3470562,R STA MARIA CIMA,17,7320-151,CASTELO DE VIDE,-7.456966848813222,39.41678025927157
pt.ine.add.PTCONT.3470581,,,7320-301,CASTELO DE VIDE,-7.478391269716838,39.43513670143522
pt.ine.add.PTCONT.3470590,PCT DR AMADEU CANARIO,11,7320-147,CASTELO DE VIDE,-7.457595579532378,39.413957625153884
pt.ine.add.PTCONT.3471020,R SANTO ANTÓNIO,21,7320-011,N SRA GRAÇA PÓVOA MEADAS,-7.522514540953473,39.509899953115394
pt.ine.add.PTCONT.3471073,R CESAR VIDEIRA,,7320-146,CASTELO DE VIDE,-7.454181942652641,39.412741685184905
pt.ine.add.PTCONT.3471130,R CESAR VIDEIRA,,7320-146,CASTELO DE VIDE,-7.454181942652641,39.412741685184905
pt.ine.add.PTCONT.3471462,R OUTEIRO,9,7320-011,N SRA GRAÇA PÓVOA MEADAS,-7.5188238881093294,39.511753937950985
pt.ine.add.PTCONT.3471463,R BAIXO,27,7320-011,N SRA GRAÇA PÓVOA MEADAS,-7.5187345181351,39.5113391501626
pt.ine.add.PTCONT.3471464,R STA MARGARIDA,6,7320-011,N SRA GRAÇA PÓVOA MEADAS,-7.517793858945966,39.510271381112865
pt.ine.add.PTCONT.3471505,R LAGEM BRANCA,9,7320-011,N SRA GRAÇA PÓVOA MEADAS,-7.516795202984671,39.50995898340244
pt.ine.add.PTCONT.3471506,MATO PÓVOA,,7320-011,N SRA GRAÇA PÓVOA MEADAS,-7.543353731391377,39.50135192615307
pt.ine.add.PTCONT.3471507,CAM CAMINHO DA COZINHEIRA,,7320-203,CASTELO DE VIDE,-7.447610233851447,39.41981866140247
pt.ine.add.PTCONT.3471508,CAM LADEIRA DO BOM JESUS,,7320-203,CASTELO DE VIDE,-7.454285715661985,39.417606062658606
pt.ine.add.PTCONT.3471509,R SANTO AMARO,11,7320-177,CASTELO DE VIDE,-7.455288665214809,39.41632543729973
pt.ine.add.PTCONT.3471531,R CORREDOURA,42,7320-121,CASTELO DE VIDE,-7.453102038809921,39.415588634239356
pt.ine.add.PTCONT.3471532,R MIGUEL FERREIRA,18,7320-132,CASTELO DE VIDE,-7.453948390667251,39.41497234334035
pt.ine.add.PTCONT.3471533,R ALFREDO CARLOS LE COCQ,,7320-102,CASTELO DE VIDE,-7.44906441326981,39.41242348270312
pt.ine.add.PTCONT.3471534,R FRANCISCO BUGALHO,,7320-102,CASTELO DE VIDE,-7.44894572002926,39.41112492184848
pt.ine.add.PTCONT.3471561,R LUIS CAMOES,5,7320-422,CASTELO DE VIDE,-7.458630897742643,39.41617220590918
pt.ine.add.PTCONT.3471562,R LUIS CAMOES,5,7320-422,CASTELO DE VIDE,-7.458630897742643,39.41617220590918
pt.ine.add.PTCONT.3471563,R LUIS CAMOES,5,7320-422,CASTELO DE VIDE,-7.458630897742643,39.41617220590918
pt.ine.add.PTCONT.3471564,R COSTA,54,7320-145,CASTELO DE VIDE,-7.458007760958956,39.4169974203006
pt.ine.add.PTCONT.3471565,,,7320-301,CASTELO DE VIDE,-7.469897971029474,39.440312618678654
pt.ine.add.PTCONT.3471611,R MIGUEL FERREIRA,53,7320-132,CASTELO DE VIDE,-7.453519128719439,39.415232750326936
pt.ine.add.PTCONT.3471662,R ANTÓNIO VICENTE RAPOSO REPENICADO,,7320-207,CASTELO DE VIDE,-7.454512719514766,39.4121581608554
pt.ine.add.PTCONT.3471663,R ANTÓNIO VICENTE RAPOSO REPENICADO,,7320-207,CASTELO DE VIDE,-7.454512719514766,39.4121581608554
pt.ine.add.PTCONT.3471664,R ANTÓNIO VICENTE RAPOSO REPENICADO,,7320-207,CASTELO DE VIDE,-7.454512719514766,39.4121581608554
pt.ine.add.PTCONT.3471665,R ANTÓNIO VICENTE RAPOSO REPENICADO,,7320-207,CASTELO DE VIDE,-7.454512719514766,39.4121581608554
pt.ine.add.PTCONT.3471678,VAR TOURIL,,7320-011,N SRA GRAÇA PÓVOA MEADAS,-7.526183533587361,39.50383052158942
pt.ine.add.PTCONT.3471756,LAD S JOÃO,,7320-405,CASTELO DE VIDE,-7.459489191987357,39.41386238341931
pt.ine.add.PTCONT.3471757,R S JOSE,14,7320-438,CASTELO DE VIDE,-7.455966087716147,39.41346206521496
pt.ine.add.PTCONT.3471758,R AMOREIRA,5,7320-171,CASTELO DE VIDE,-7.457389614903389,39.41681227666729
pt.ine.add.PTCONT.3471794,R OLIVENCA,,7320-134,CASTELO DE VIDE,-7.454895619180496,39.4145832735251
pt.ine.add.PTCONT.3472166,R BARREIRO,12,7320-011,N SRA GRAÇA PÓVOA MEADAS,-7.520251190651072,39.516057741338884
pt.ine.add.PTCONT.3472167,R BARREIRO,12,7320-011,N SRA GRAÇA PÓVOA MEADAS,-7.520251190651072,39.516057741338884
pt.ine.add.PTCONT.3472168,LG ESCOLAS,15,7320-011,N SRA GRAÇA PÓVOA MEADAS,-7.519817163558071,39.51516377394307
pt.ine.add.PTCONT.3472189,R EGIPTO,6,7320-011,N SRA GRAÇA PÓVOA MEADAS,-7.518582719391719,39.51271289806801
pt.ine.add.PTCONT.3472190,R AMOREIRA,14,7320-011,N SRA GRAÇA PÓVOA MEADAS,-7.519046257532279,39.512073124186955
pt.ine.add.PTCONT.3472191,R LAGEM BRANCA,3,7320-011,N SRA GRAÇA PÓVOA MEADAS,-7.515577485473272,39.50937694170275
pt.ine.add.PTCONT.3472226,R ESPINHOSAS,11,7320-208,CASTELO DE VIDE,-7.454882095583294,39.417177206108605
pt.ine.add.PTCONT.3472265,R MESTRE JORGE,,7320-130,CASTELO DE VIDE,-7.456418123998277,39.41684388602823
pt.ine.add.PTCONT.3472266,R CRUZ,8,7320-122,CASTELO DE VIDE,-7.452441850744571,39.41496301302723
pt.ine.add.PTCONT.3472267,LG MARTIRES DA REPUBLICA,15,7320-109,CASTELO DE VIDE,-7.45364118590718,39.414620988317616
pt.ine.add.PTCONT.3472311,,,7320-301,CASTELO DE VIDE,-7.484392298409898,39.48313221852554
pt.ine.add.PTCONT.3472312,,,7320-303,CASTELO DE VIDE,-7.466193461038483,39.426808015589266
pt.ine.add.PTCONT.3472361,HRD HERDADE DE SANTO ISIDRO,,7320-014,N SRA GRAÇA PÓVOA MEADAS,-7.454774579746039,39.50366999228817
pt.ine.add.PTCONT.3472371,LG OUTEIRO DO RIBEIRO,3,7320-011,N SRA GRAÇA PÓVOA MEADAS,-7.517607806644977,39.51224712269223
pt.ine.add.PTCONT.3472491,CAM VALE CANO,,7320-204,CASTELO DE VIDE,-7.414784713910348,39.43985920528578
pt.ine.add.PTCONT.3472495,R STA MARGARIDA,20,7320-011,N SRA GRAÇA PÓVOA MEADAS,-7.518185458436852,39.51030946520284
pt.ine.add.PTCONT.3472496,R MESTRE JORGE,44,7320-130,CASTELO DE VIDE,-7.456482990913663,39.417073727944704
pt.ine.add.PTCONT.3472497,R FONTE,9,7320-150,CASTELO DE VIDE,-7.455916304224389,39.41710216835179
pt.ine.add.PTCONT.3472501,CAM VALE PEREIRO,,7320-203,CASTELO DE VIDE,-7.461140778585654,39.42567107957865
pt.ine.add.PTCONT.3472516,R LAGEM BRANCA,16,7320-011,N SRA GRAÇA PÓVOA MEADAS,-7.515485984720013,39.50920532526489
pt.ine.add.PTCONT.3472527,CAM BOM JESUS,,7320-203,CASTELO DE VIDE,-7.449941518124482,39.42248943337413
pt.ine.add.PTCONT.3472528,R CLERIGO MOUCO,5,7320-120,CASTELO DE VIDE,-7.452645926060189,39.415470834475634
pt.ine.add.PTCONT.3472541,R OUTEIRO,3,7320-011,N SRA GRAÇA PÓVOA MEADAS,-7.518801664497816,39.51163673135208
pt.ine.add.PTCONT.3472547,R SANTO AMARO,19,7320-177,CASTELO DE VIDE,-7.455202585255215,39.41645851557444
pt.ine.add.PTCONT.3472553,R CALCADINHA,29,7320-011,N SRA GRAÇA PÓVOA MEADAS,-7.522085000163522,39.51114965017067
pt.ine.add.PTCONT.3472554,R ENG ALEXANDRE CORDEIRO,,7320-437,CASTELO DE VIDE,-7.443460769357334,39.406058483896466
pt.ine.add.PTCONT.3472555,VOLTA DE S JOSE,,7320-146,CASTELO DE VIDE,-7.457081244089738,39.41310984220558
pt.ine.add.PTCONT.3472556,QTA BRAZILEIRA,S N,7320-146,CASTELO DE VIDE,-7.457081244089738,39.41310984220558
pt.ine.add.PTCONT.3472570,R STA MARIA CIMA,23,7320-151,CASTELO DE VIDE,-7.457020334878929,39.41684485477883
pt.ine.add.PTCONT.3472573,R AMOREIRA,6,7320-145,CASTELO DE VIDE,-7.457334994331286,39.416894250785965
pt.ine.add.PTCONT.3472581,LG MONTE DOS SETE,11,7320-148,CASTELO DE VIDE,-7.457009920221315,39.415685426038294
pt.ine.add.PTCONT.3472582,LG CAP SALGUEIRO MAIA,2,7320-105,CASTELO DE VIDE,-7.456465409783931,39.41555616233916
pt.ine.add.PTCONT.3472583,LG CAP SALGUEIRO MAIA,2,7320-105,CASTELO DE VIDE,-7.456465409783931,39.41555616233916
pt.ine.add.PTCONT.3472596,RIBEIRA S JOÃO,,7320-301,CASTELO DE VIDE,-7.468759403905048,39.43544236501776
pt.ine.add.PTCONT.3472597,R JOÃO ANTÓNIO GORDO,,7320-146,CASTELO DE VIDE,-7.454370334899439,39.41247257483677
pt.ine.add.PTCONT.3472987,R EGIPTO,23,7320-011,N SRA GRAÇA PÓVOA MEADAS,-7.5184461801810025,39.51257513330057
pt.ine.add.PTCONT.3473003,RIBEIRA S JOÃO,,7320-301,CASTELO DE VIDE,-7.468759403905048,39.43544236501776
pt.ine.add.PTCONT.3473017,R CESAR VIDEIRA,,7320-146,CASTELO DE VIDE,-7.45408984279514,39.412660084747706
pt.ine.add.PTCONT.3473057,VAR TOURIL,,7320-011,N SRA GRAÇA PÓVOA MEADAS,-7.523829691185905,39.513752782431155
pt.ine.add.PTCONT.3473074,,,7320-201,CASTELO DE VIDE,-7.43081443105674,39.418466504576855
pt.ine.add.PTCONT.3473219,CAM FERRARIAS,,7320-201,CASTELO DE VIDE,-7.436405234296942,39.418536150938905
pt.ine.add.PTCONT.3473159,R OUTEIRO,6,7320-011,N SRA GRAÇA PÓVOA MEADAS,-7.518766542420381,39.51190143748489
pt.ine.add.PTCONT.3473160,R BAIXO,67,7320-011,N SRA GRAÇA PÓVOA MEADAS,-7.518713929289369,39.512005744387125
pt.ine.add.PTCONT.3473220,R CORREDOURA,,7320-121,CASTELO DE VIDE,-7.453086189863409,39.41557248574406
pt.ine.add.PTCONT.3473161,LG OUTEIRO DO RIBEIRO,13,7320-011,N SRA GRAÇA PÓVOA MEADAS,-7.517367126454271,39.51212451951241
pt.ine.add.PTCONT.3473162,BR VINHAS,24,7320-011,N SRA GRAÇA PÓVOA MEADAS,-7.521218655466953,39.51182060812192
pt.ine.add.PTCONT.3473187,R ESTRADA,15A,7320-011,N SRA GRAÇA PÓVOA MEADAS,-7.518271556781481,39.509406851171555
pt.ine.add.PTCONT.3473188,CAM CAMINHO DA COZINHEIRA,,7320-203,CASTELO DE VIDE,-7.445982209996798,39.41768340984346
pt.ine.add.PTCONT.3473189,R SERRALHEIROS,18,7320-139,CASTELO DE VIDE,-7.455473616036749,39.416446776952796
pt.ine.add.PTCONT.3473221,R MIGUEL FERREIRA,,7320-132,CASTELO DE VIDE,-7.45288853624815,39.41559835112066
pt.ine.add.PTCONT.3473222,R ALMEIDA SARZEDAS,28 30,7320-115,CASTELO DE VIDE,-7.454429272158505,39.41565112402981
pt.ine.add.PTCONT.3473223,R CLERIGO MOUCO,4,7320-120,CASTELO DE VIDE,-7.452550671402874,39.41543943554005
pt.ine.add.PTCONT.3473224,R SOUTOS,15,7320-128,CASTELO DE VIDE,-7.452137457305736,39.41545552226345
pt.ine.add.PTCONT.3473242,LG FONTE VILA,8,7320-150,CASTELO DE VIDE,-7.455604913780697,39.417202107104394
pt.ine.add.PTCONT.3473243,R ARCARIO,28,7320-193,CASTELO DE VIDE,-7.4562141962282675,39.417518223293655
pt.ine.add.PTCONT.3473259,R JORNAL O CASTELOVIDENSE,,7320-102,CASTELO DE VIDE,-7.446438516377562,39.40904840575725
pt.ine.add.PTCONT.3473260,R CANTO DA ALDEIA,13,7320-159,CASTELO DE VIDE,-7.4596230136701065,39.4179353966642
pt.ine.add.PTCONT.3473261,ESTR POUSO,,7320-407,CASTELO DE VIDE,-7.458972262109229,39.41207600495368
pt.ine.add.PTCONT.3473262,ESTR POUSO,,7320-407,CASTELO DE VIDE,-7.457150300217107,39.410768425826696
pt.ine.add.PTCONT.3473263,,,7320-407,CASTELO DE VIDE,-7.497911311585924,39.41138542708124
pt.ine.add.PTCONT.3473553,R STA MARGARIDA,4,7320-011,N SRA GRAÇA PÓVOA MEADAS,-7.517743944964588,39.51027110161102
pt.ine.add.PTCONT.3473572,R CESAR VIDEIRA,,7320-146,CASTELO DE VIDE,-7.453640607718265,39.41228817520846
pt.ine.add.PTCONT.3473580,R ALMEIDA SARZEDAS,61 63,7320-115,CASTELO DE VIDE,-7.453964886126216,39.415964919255565
pt.ine.add.PTCONT.3473857,R BARREIRO,52,7320-011,N SRA GRAÇA PÓVOA MEADAS,-7.519271320050185,39.514458343116274
pt.ine.add.PTCONT.3473886,R EGIPTO,11,7320-011,N SRA GRAÇA PÓVOA MEADAS,-7.518524317719955,39.512800482761236
pt.ine.add.PTCONT.3473887,LG ROSSIO,32,7320-011,N SRA GRAÇA PÓVOA MEADAS,-7.518989207012819,39.51132522469192
pt.ine.add.PTCONT.3473888,R VINHA DO POÇO,15,7320-011,N SRA GRAÇA PÓVOA MEADAS,-7.521664207257866,39.51139962990281
pt.ine.add.PTCONT.3473889,R MARTIR,13,7320-011,N SRA GRAÇA PÓVOA MEADAS,-7.518915786248451,39.510979916418336
pt.ine.add.PTCONT.3473917,,,7320-201,CASTELO DE VIDE,-7.41870512424116,39.41540245417456
pt.ine.add.PTCONT.3473918,,,7320-201,CASTELO DE VIDE,-7.430216437191341,39.413851321864776
pt.ine.add.PTCONT.3473919,R ALMEIDA SARZEDAS,23 21,7320-115,CASTELO DE VIDE,-7.454569881330424,39.41569981639052
pt.ine.add.PTCONT.3473920,R ALMEIDA SARZEDAS,23 21,7320-115,CASTELO DE VIDE,-7.454569881330424,39.41569981639052
pt.ine.add.PTCONT.3473921,R ALMEIDA SARZEDAS,23 21,7320-115,CASTELO DE VIDE,-7.454569881330424,39.41569981639052
pt.ine.add.PTCONT.3473962,PC ALTA,106,7320-112,CASTELO DE VIDE,-7.452772686477454,39.41557065270139
pt.ine.add.PTCONT.3473963,R CRUZ,5,7320-122,CASTELO DE VIDE,-7.452592948885173,39.41494811948894
pt.ine.add.PTCONT.3473964,R FONTE,27,7320-150,CASTELO DE VIDE,-7.456274930911092,39.41717224289619
pt.ine.add.PTCONT.3473999,R STA MARIA BAIXO,36,7320-197,CASTELO DE VIDE,-7.456711390983726,39.41650628681855
pt.ine.add.PTCONT.3474000,R ALFREDO CARLOS LE COCQ,,7320-102,CASTELO DE VIDE,-7.448105748610997,39.41190444346433
pt.ine.add.PTCONT.3474001,R S PEDRO,,7320-163,CASTELO DE VIDE,-7.459074212064803,39.41724765764355
pt.ine.add.PTCONT.3474002,ESTR CIRCUNVALAÇÃO,30,7320-436,CASTELO DE VIDE,-7.459604602216219,39.41755591594622
pt.ine.add.PTCONT.3474021,,,7320-301,CASTELO DE VIDE,-7.467079121032402,39.42039111564394
pt.ine.add.PTCONT.3474022,PCT DR AMADEU CANARIO,41,7320-147,CASTELO DE VIDE,-7.457851958895431,39.41386189848514
pt.ine.add.PTCONT.3474023,ESTR POUSO,,7320-407,CASTELO DE VIDE,-7.459914376378243,39.4131172645355
pt.ine.add.PTCONT.3474024,PCT DR AMADEU CANARIO,7,7320-147,CASTELO DE VIDE,-7.457458577106889,39.41371550259299
pt.ine.add.PTCONT.3474025,R PROF ANTÓNIO FLORES,,7320-147,CASTELO DE VIDE,-7.457540809869463,39.41361690329467
pt.ine.add.PTCONT.3474026,QTA ESTRADA DO POUSO,,7320-407,CASTELO DE VIDE,-7.458399220490112,39.41189492355797
pt.ine.add.PTCONT.3474045,LG CONCEIÇÃO,3,7320-108,CASTELO DE VIDE,-7.454129477093858,39.41340622260399
pt.ine.add.PTCONT.3474186,ESTR LAGAR MORGADO QTA LAGAR MORGADO,,7320-147,CASTELO DE VIDE,-7.456948178018506,39.4124605656073
pt.ine.add.PTCONT.3474227,R SANTO ANTÓNIO,3,7320-011,N SRA GRAÇA PÓVOA MEADAS,-7.522010236989265,39.51039268082509
pt.ine.add.PTCONT.3474259,R CALCADINHA,2,7320-011,N SRA GRAÇA PÓVOA MEADAS,-7.521498718634773,39.510831736978105
pt.ine.add.PTCONT.3474260,R AMOREIRA,16,7320-172,CASTELO DE VIDE,-7.458151959494103,39.41858954404277
pt.ine.add.PTCONT.3474265,CAM FERRARIAS,,7320-201,CASTELO DE VIDE,-7.4365870772497455,39.41893354669171
pt.ine.add.PTCONT.3474266,ESTR RIBEIRA DA VIDE,,7320-201,CASTELO DE VIDE,-7.439420735323761,39.425939886431145
pt.ine.add.PTCONT.3474270,R BAIXO,10,7320-011,N SRA GRAÇA PÓVOA MEADAS,-7.518604925191252,39.51060177612375
pt.ine.add.PTCONT.3474274,R MERCADO,9,7320-011,N SRA GRAÇA PÓVOA MEADAS,-7.51763620159882,39.510621798831394
pt.ine.add.PTCONT.3474282,R NOVA,5,7320-199,CASTELO DE VIDE,-7.455737145029047,39.416416594551606
pt.ine.add.PTCONT.3474297,LG ESCOLAS,8,7320-011,N SRA GRAÇA PÓVOA MEADAS,-7.520681507344758,39.51472699465551
pt.ine.add.PTCONT.3474301,TV BAIRRO DAS VINHAS,1,7320-011,N SRA GRAÇA PÓVOA MEADAS,-7.522312183110777,39.51176331050814
pt.ine.add.PTCONT.3474309,TV EGIPTO,8,7320-011,N SRA GRAÇA PÓVOA MEADAS,-7.518593008123383,39.512215427130165
pt.ine.add.PTCONT.3474312,LG DR JOSE FREDERICO LARANJO,20,7320-110,CASTELO DE VIDE,-7.4554642406791904,39.41701847301268
pt.ine.add.PTCONT.3474316,CAM BARRINHOS,,7320-139,CASTELO DE VIDE,-7.471579552960682,39.50931504752556
pt.ine.add.PTCONT.3474327,QTA MANGUITOS,,7320-414,CASTELO DE VIDE,-7.454153422179907,39.40849922554428
pt.ine.add.PTCONT.3474328,BR S PAULO,,7320-402,CASTELO DE VIDE,-7.469964617656618,39.41612928247505
pt.ine.add.PTCONT.3474329,BR S PAULO,,7320-402,CASTELO DE VIDE,-7.469964617656618,39.41612928247505
pt.ine.add.PTCONT.3474337,R LUIS DE CAMÕES,,7320-422,CASTELO DE VIDE,-7.4599460160097495,39.41707151498968
pt.ine.add.PTCONT.3474338,R LUIS DE CAMÕES,,7320-422,CASTELO DE VIDE,-7.4599460160097495,39.41707151498968
pt.ine.add.PTCONT.3474346,TV MORAIS,7,7320-167,CASTELO DE VIDE,-7.4582378685526844,39.41727977785636
pt.ine.add.PTCONT.3474347,TV MORAIS,6,7320-167,CASTELO DE VIDE,-7.458207781473797,39.41718114617002
pt.ine.add.PTCONT.3474352,TV ROSEIRA,4,7320-145,CASTELO DE VIDE,-7.458055014186484,39.416865233313224
pt.ine.add.PTCONT.3474353,TV ROSEIRA,4,7320-145,CASTELO DE VIDE,-7.458055014186484,39.416865233313224
pt.ine.add.PTCONT.3474354,,,7320-171,CASTELO DE VIDE,-7.494646792377941,39.476460821921606
pt.ine.add.PTCONT.3474355,QTA CANTO DAS NOGUEIRAS,,7320-301,CASTELO DE VIDE,-7.467509574716706,39.43983962089475
pt.ine.add.PTCONT.3474361,R PISCO,10,7320-135,CASTELO DE VIDE,-7.4541137191240745,39.41353633384091
pt.ine.add.PTCONT.3474801,QTA MATOSA,,7320-202,CASTELO DE VIDE,-7.443976117241529,39.40442226438498
pt.ine.add.PTCONT.3474837,R SANTO ANTÓNIO,15,7320-011,N SRA GRAÇA PÓVOA MEADAS,-7.5223622060859965,39.510034255887014
pt.ine.add.PTCONT.3474842,LG ESPÍRITO SANTO,21,7320-011,N SRA GRAÇA PÓVOA MEADAS,-7.518486128564946,39.509973433854306
pt.ine.add.PTCONT.3474847,LG ESPÍRITO SANTO,19,7320-011,N SRA GRAÇA PÓVOA MEADAS,-7.518494446386957,39.51005413337387
pt.ine.add.PTCONT.3474863,R FORNO,8,7320-152,CASTELO DE VIDE,-7.457862315006912,39.4182325629177
pt.ine.add.PTCONT.3474866,ESTR RIBEIRA DA VIDE,,7320-201,CASTELO DE VIDE,-7.438259144155934,39.428301784150506
pt.ine.add.PTCONT.3474875,R MESTRE JORGE,51,7320-130,CASTELO DE VIDE,-7.456647092010448,39.41705853279798
pt.ine.add.PTCONT.3478820,,,7320-201,CASTELO DE VIDE,-7.4449554002928275,39.414641987903856
pt.ine.add.PTCONT.3474885,R STO AMARO,15,7320-177,CASTELO DE VIDE,-7.455218058045633,39.416243819807114
pt.ine.add.PTCONT.3474889,R CORREDOURA,70,7320-121,CASTELO DE VIDE,-7.453524618538397,39.415863271287115
pt.ine.add.PTCONT.3474890,R OLIVENCA,42,7320-134,CASTELO DE VIDE,-7.454916310603455,39.41484459674639
pt.ine.add.PTCONT.3474894,R CLERIGO MOUCO,3,7320-120,CASTELO DE VIDE,-7.452692808712917,39.415426073781475
pt.ine.add.PTCONT.3474895,R BAIXO,51,7320-011,N SRA GRAÇA PÓVOA MEADAS,-7.518681910480986,39.511646432071
pt.ine.add.PTCONT.3474897,R CÂNDIDO DOS REIS,60,7320-118,CASTELO DE VIDE,-7.453658544971614,39.4153840813159
pt.ine.add.PTCONT.3474898,AV EUROPA,1,7320-435,CASTELO DE VIDE,-7.451951623805613,39.41283673133107
pt.ine.add.PTCONT.3474899,AV EUROPA,1,7320-435,CASTELO DE VIDE,-7.451951623805613,39.41283673133107
pt.ine.add.PTCONT.3474900,R GONÇALO LOURENÇO DE GOMIDE,,7320-102,CASTELO DE VIDE,-7.4497775019680805,39.41193228919
pt.ine.add.PTCONT.3474906,R BARTOLOMEU ÁLVARES DA SANTA,112,7320-117,CASTELO DE VIDE,-7.455472263227422,39.41618987728855
pt.ine.add.PTCONT.3474907,R MOUZINHO DE ALBUQUERQUE,42 40,7320-133,CASTELO DE VIDE,-7.452845880752261,39.415172341552584
pt.ine.add.PTCONT.3474908,R MOUZINHO DE ALBUQUERQUE,42 40,7320-133,CASTELO DE VIDE,-7.452845880752261,39.415172341552584
pt.ine.add.PTCONT.3474911,CAM GALHARDO,,7320-139,CASTELO DE VIDE,-7.4391447904082915,39.454922575822955
pt.ine.add.PTCONT.3474935,R ALEXANDRE HERCULANO,1,7320-114,CASTELO DE VIDE,-7.455560937974908,39.41422687097964
pt.ine.add.PTCONT.3474936,R ALEXANDRE HERCULANO,1,7320-114,CASTELO DE VIDE,-7.455560937974908,39.41422687097964
pt.ine.add.PTCONT.3474941,LG CONCEIÇÃO,,7320-108,CASTELO DE VIDE,-7.454025585346132,39.41329920583328
pt.ine.add.PTCONT.3474945,R LUIS DE CAMÕES,,7320-405,CASTELO DE VIDE,-7.458123299002645,39.41582699632434
pt.ine.add.PTCONT.3475370,R ALMEIDA SARZEDAS,14,7320-115,CASTELO DE VIDE,-7.454644153654603,39.4155554515043
pt.ine.add.PTCONT.3475388,R MOUZINHO DE ALBUQUERQUE,42 40,7320-133,CASTELO DE VIDE,-7.452845880752261,39.415172341552584
pt.ine.add.PTCONT.3475467,R BAIXO,38,7320-011,N SRA GRAÇA PÓVOA MEADAS,-7.518576203066853,39.51106219281473
pt.ine.add.PTCONT.3475468,R MERCADO,107,7320-126,CASTELO DE VIDE,-7.4569719935623064,39.41720738590541
pt.ine.add.PTCONT.3475475,R OUTEIRINHO,614,7320-127,CASTELO DE VIDE,-7.454287230533617,39.416250723319415
pt.ine.add.PTCONT.3475481,R DIOGO BELO,2,7320-194,CASTELO DE VIDE,-7.456069404399149,39.416836306893416
pt.ine.add.PTCONT.3475482,LG LAGEM BRANCA,2,7320-011,N SRA GRAÇA PÓVOA MEADAS,-7.5157268028679685,39.50958489255741
pt.ine.add.PTCONT.3475486,EN 359 MATO DA PÓVOA,,7320-011,N SRA GRAÇA PÓVOA MEADAS,-7.554775427015563,39.504985034690705
pt.ine.add.PTCONT.3475487,R BARTOLOMEU ÁLVARES DA SANTA,21,7320-117,CASTELO DE VIDE,-7.454487397742402,39.414770039571714
pt.ine.add.PTCONT.3475488,R BARTOLOMEU ÁLVARES DA SANTA,21,7320-117,CASTELO DE VIDE,-7.454487397742402,39.414770039571714
pt.ine.add.PTCONT.3475503,R CÂNDIDO DOS REIS,90 92,7320-118,CASTELO DE VIDE,-7.453298988761773,39.415560962990746
pt.ine.add.PTCONT.3475504,R CÂNDIDO DOS REIS,90 92,7320-118,CASTELO DE VIDE,-7.453298988761773,39.415560962990746
pt.ine.add.PTCONT.3475505,R MIGUEL FERREIRA,89,7320-132,CASTELO DE VIDE,-7.453087064910684,39.41548242101916
pt.ine.add.PTCONT.3475508,TV EGIPTO,3,7320-011,N SRA GRAÇA PÓVOA MEADAS,-7.518378078899851,39.51220192442312
pt.ine.add.PTCONT.3475509,TV EGIPTO,1,7320-011,N SRA GRAÇA PÓVOA MEADAS,-7.518375851812873,39.51221713423734
pt.ine.add.PTCONT.3475521,,,7320-407,CASTELO DE VIDE,-7.499203307918981,39.416166185918655
pt.ine.add.PTCONT.3475536,CARREIRA S TIAGO,1,7320-157,CASTELO DE VIDE,-7.457574646342035,39.4163896861971
pt.ine.add.PTCONT.3475545,PAINEL BREJO,,7320-303,CASTELO DE VIDE,-7.466541705893888,39.42073030271395
pt.ine.add.PTCONT.3479868,,,7320-441,CASTELO DE VIDE,-7.503091944896382,39.43050842427517
pt.ine.add.PTCONT.3475987,CAM MONTE CASADA,,7320-407,CASTELO DE VIDE,-7.469585272633803,39.40629057931884
pt.ine.add.PTCONT.3476024,PAINEL DA AMIEIRA,CCI 5,7320-201,CASTELO DE VIDE,-7.42904944423284,39.41327682523728
pt.ine.add.PTCONT.3476056,,,7320-201,CASTELO DE VIDE,-7.43785585945766,39.41512217887221
pt.ine.add.PTCONT.3476063,R ESTRADA,25,7320-011,N SRA GRAÇA PÓVOA MEADAS,-7.518471048693527,39.50896811531717
pt.ine.add.PTCONT.3476064,R LAGEM BRANCA,8,7320-011,N SRA GRAÇA PÓVOA MEADAS,-7.5166887412373935,39.50994126450291
pt.ine.add.PTCONT.3476066,LG OUTEIRO DO RIBEIRO,4,7320-011,N SRA GRAÇA PÓVOA MEADAS,-7.517575148722642,39.51226973083052
pt.ine.add.PTCONT.3476067,R ALMEIDA SARZEDAS,,7320-115,CASTELO DE VIDE,-7.454033368566094,39.41610485432998
pt.ine.add.PTCONT.3476074,R MIGUEL BOMBARDA,8,7320-131,CASTELO DE VIDE,-7.454505293416143,39.4153195700665
pt.ine.add.PTCONT.3476079,R BAIXO,53,7320-011,N SRA GRAÇA PÓVOA MEADAS,-7.5186760035446305,39.51170477340588
pt.ine.add.PTCONT.3476080,R MIGUEL BOMBARDA,1,7320-131,CASTELO DE VIDE,-7.454702771092592,39.41531171488127
pt.ine.add.PTCONT.3476081,R MIGUEL BOMBARDA,1,7320-131,CASTELO DE VIDE,-7.454702771092592,39.41531171488127
pt.ine.add.PTCONT.3476082,R MIGUEL BOMBARDA,1,7320-131,CASTELO DE VIDE,-7.454702771092592,39.41531171488127
pt.ine.add.PTCONT.3476083,R MIGUEL FERREIRA,13,7320-132,CASTELO DE VIDE,-7.454126396371152,39.41497949097073
pt.ine.add.PTCONT.3476085,R EGIPTO,20,7320-011,N SRA GRAÇA PÓVOA MEADAS,-7.518517139663724,39.51246660923715
pt.ine.add.PTCONT.3476086,R CÂNDIDO DOS REIS,54,7320-118,CASTELO DE VIDE,-7.4536959748255125,39.415363847766336
pt.ine.add.PTCONT.3476087,R BARTOLOMEU ÁLVARES DA SANTA,6,7320-117,CASTELO DE VIDE,-7.4541968579933044,39.41479536529105
pt.ine.add.PTCONT.3476088,R BARTOLOMEU ÁLVARES DA SANTA,6,7320-117,CASTELO DE VIDE,-7.4541968579933044,39.41479536529105
pt.ine.add.PTCONT.3476090,LG OUTEIRO DO RIBEIRO,12,7320-011,N SRA GRAÇA PÓVOA MEADAS,-7.517393509220568,39.51215231029821
pt.ine.add.PTCONT.3476098,LG JOSE REIS PIMENTEL,7,7320-011,N SRA GRAÇA PÓVOA MEADAS,-7.519609856906527,39.51143476361957
pt.ine.add.PTCONT.3476099,R NOVA,8,7320-199,CASTELO DE VIDE,-7.455637775336117,39.41636557678527
pt.ine.add.PTCONT.3476100,R PACO NOVO,,7320-136,CASTELO DE VIDE,-7.452671337442999,39.41524580851125
pt.ine.add.PTCONT.3476101,R SEVERINO DINIS PORTO,,7320-102,CASTELO DE VIDE,-7.448429982442217,39.41080749957486
pt.ine.add.PTCONT.3476105,R RELOGIO,7,7320-185,CASTELO DE VIDE,-7.457661082227088,39.41821694385468
pt.ine.add.PTCONT.3476106,ESTR S VICENTE,,7320-202,CASTELO DE VIDE,-7.4452946688406545,39.407294292042025
pt.ine.add.PTCONT.3476109,R VOLTA DO PE DA TORRE,10,7320-301,CASTELO DE VIDE,-7.458699197531808,39.41762115008365
pt.ine.add.PTCONT.3476119,R S PEDRO,32,7320-163,CASTELO DE VIDE,-7.45907246453062,39.41734567322124
pt.ine.add.PTCONT.3476129,R ARROCHELA,6,7320-116,CASTELO DE VIDE,-7.454969735857662,39.414124349292216
pt.ine.add.PTCONT.3476132,R LOUREIRO,1,7320-125,CASTELO DE VIDE,-7.453911836293652,39.41305535309986
pt.ine.add.PTCONT.3476138,BR MURALHA,,7320-146,CASTELO DE VIDE,-7.453656502037469,39.41184692555555
pt.ine.add.PTCONT.3476573,LG ROSSIO,15,7320-011,N SRA GRAÇA PÓVOA MEADAS,-7.519381527008121,39.51181092426959
pt.ine.add.PTCONT.3476574,R ESTRADA,30,7320-011,N SRA GRAÇA PÓVOA MEADAS,-7.518760250589971,39.507097053672034
pt.ine.add.PTCONT.3476582,SENHORA DA ALEGRIA,1,7320-188,CASTELO DE VIDE,-7.458679128919827,39.41839721043013
pt.ine.add.PTCONT.3476596,R MIGUEL BOMBARDA,1,7320-131,CASTELO DE VIDE,-7.454702771092592,39.41531171488127
pt.ine.add.PTCONT.3476629,R SANTO ANTÓNIO,11,7320-011,N SRA GRAÇA PÓVOA MEADAS,-7.5222565368689285,39.5101507899339
pt.ine.add.PTCONT.3476630,R SANTO ANTÓNIO,46,7320-011,N SRA GRAÇA PÓVOA MEADAS,-7.52375121521346,39.50975026983042
pt.ine.add.PTCONT.3476631,R SANTO ANTÓNIO,44,7320-011,N SRA GRAÇA PÓVOA MEADAS,-7.523676502212334,39.50976756227977
pt.ine.add.PTCONT.3476632,ESTR ESTAÇÃO DE SERVICO,PAINEL 10,7320-419,CASTELO DE VIDE,-7.471317263666643,39.41779913504903
pt.ine.add.PTCONT.3476684,CAM FERRARIAS,,7320-201,CASTELO DE VIDE,-7.436544801470694,39.41968087223801
pt.ine.add.PTCONT.3476696,CAM FREIRAS,,7320-203,CASTELO DE VIDE,-7.445513259440643,39.4252284815744
pt.ine.add.PTCONT.3476697,R STA MARIA DE CIMA,28,7320-137,CASTELO DE VIDE,-7.45703231320283,39.416973554924674
pt.ine.add.PTCONT.3476698,R MERCADO,40,7320-126,CASTELO DE VIDE,-7.456626540341352,39.41690528826989
pt.ine.add.PTCONT.3476705,R OUTEIRINHO,,7320-127,CASTELO DE VIDE,-7.454443633126812,39.416415458487386
pt.ine.add.PTCONT.3476706,R SANTO AMARO,58 56,7320-177,CASTELO DE VIDE,-7.4539508366628455,39.416919149590925
pt.ine.add.PTCONT.3476707,R STO AMARO,58,7320-177,CASTELO DE VIDE,-7.4539508366628455,39.416919149590925
pt.ine.add.PTCONT.3476708,R MERCADO,61,7320-126,CASTELO DE VIDE,-7.456544181485863,39.416740948860834
pt.ine.add.PTCONT.3476712,R EGIPTO,31,7320-011,N SRA GRAÇA PÓVOA MEADAS,-7.518434152599517,39.512436399224036
pt.ine.add.PTCONT.3476713,R ENCRUZILHADAS,44 42,7320-123,CASTELO DE VIDE,-7.454313225271789,39.415966952364634
pt.ine.add.PTCONT.3476719,TAPADA TOURIL TAPADA DO TOURIL,,7320-011,N SRA GRAÇA PÓVOA MEADAS,-7.525623808325107,39.50817714380688
pt.ine.add.PTCONT.3476720,R OLIVENCA,24 22,7320-134,CASTELO DE VIDE,-7.454700846471937,39.41464770869118
pt.ine.add.PTCONT.3476726,TV BAIRRO DAS VINHAS,,7320-011,N SRA GRAÇA PÓVOA MEADAS,-7.520679050528413,39.512358178326444
pt.ine.add.PTCONT.3476727,ESTR BOM JESUS,,7320-203,CASTELO DE VIDE,-7.451821984673115,39.421383597271515
pt.ine.add.PTCONT.3476735,R MIGUEL FERREIRA,14,7320-132,CASTELO DE VIDE,-7.45399415551195,39.41494740626801
pt.ine.add.PTCONT.3476737,R BAIXO,17,7320-011,N SRA GRAÇA PÓVOA MEADAS,-7.518729095307014,39.51112985792332
pt.ine.add.PTCONT.3476738,R ALFREDO CARLOS LE COCQ,,7320-102,CASTELO DE VIDE,-7.448727086449713,39.412484547620124
pt.ine.add.PTCONT.3476748,LG ROSSIO,10,7320-011,N SRA GRAÇA PÓVOA MEADAS,-7.519545577026394,39.511709969445235
pt.ine.add.PTCONT.3476758,,,7320-407,CASTELO DE VIDE,-7.520515413752351,39.38517909174117
pt.ine.add.PTCONT.3476773,,,7320-301,CASTELO DE VIDE,-7.464194785955333,39.41842005049062
pt.ine.add.PTCONT.3477208,R STA MARIA,31,7320-197,CASTELO DE VIDE,-7.456689278603852,39.41642213479373
pt.ine.add.PTCONT.3477212,R FONTE,24,7320-011,N SRA GRAÇA PÓVOA MEADAS,-7.518347459496655,39.512313074669486
pt.ine.add.PTCONT.3477251,R SANTO ANTÓNIO,58,7320-011,N SRA GRAÇA PÓVOA MEADAS,-7.524668065317148,39.509623023985775
pt.ine.add.PTCONT.3477255,R SANTO ANTÓNIO,38,7320-011,N SRA GRAÇA PÓVOA MEADAS,-7.523464515572265,39.50980819765011
pt.ine.add.PTCONT.3477314,R EGIPTO,14,7320-011,N SRA GRAÇA PÓVOA MEADAS,-7.518542672612594,39.51256584216924
pt.ine.add.PTCONT.3477317,R ESTRADA,3,7320-011,N SRA GRAÇA PÓVOA MEADAS,-7.518545361376586,39.509765372335536
pt.ine.add.PTCONT.3477318,CAM CEREJEIRO,,7320-139,CASTELO DE VIDE,-7.470241680034801,39.4898075720726
pt.ine.add.PTCONT.3477319,CAM CASA BRANCA,,7320-139,CASTELO DE VIDE,-7.4354956537808485,39.44570467427844
pt.ine.add.PTCONT.3477320,CAM VALE PEREIRO,,7320-203,CASTELO DE VIDE,-7.462553298658343,39.43044579855545
pt.ine.add.PTCONT.3477325,R CORREDOURA,41,7320-121,CASTELO DE VIDE,-7.453755970075754,39.41595469241645
pt.ine.add.PTCONT.3477326,R MIGUEL BOMBARDA,76,7320-131,CASTELO DE VIDE,-7.453583986595336,39.41572851333505
pt.ine.add.PTCONT.3477327,R CORREDOURA,12,7320-121,CASTELO DE VIDE,-7.452521009286949,39.41527913494328
pt.ine.add.PTCONT.3477328,R CÂNDIDO DOS REIS,72,7320-118,CASTELO DE VIDE,-7.453545042216243,39.41543254422051
pt.ine.add.PTCONT.3477329,R MIGUEL FERREIRA,86,7320-132,CASTELO DE VIDE,-7.453148084372957,39.4153352640135
pt.ine.add.PTCONT.3477330,R FONTE,35,7320-150,CASTELO DE VIDE,-7.45642472211736,39.41722952055354
pt.ine.add.PTCONT.3477336,R MESTRE JORGE,19,7320-130,CASTELO DE VIDE,-7.456312754685435,39.416878937095476
pt.ine.add.PTCONT.3477337,R SEVERINO DINIS PORTO,,7320-102,CASTELO DE VIDE,-7.448555824414165,39.410886968437914
pt.ine.add.PTCONT.3477338,R VOLTA DO PE DA TORRE,22,7320-162,CASTELO DE VIDE,-7.4589177199620025,39.41759802313733
pt.ine.add.PTCONT.3477339,,,7320-301,CASTELO DE VIDE,-7.5511511671631855,39.481014108179465
pt.ine.add.PTCONT.3477343,R 8 DE INFANTARIA,S,7320-153,CASTELO DE VIDE,-7.457609099106788,39.416166277062544
pt.ine.add.PTCONT.3478101,AZ AMEIXOEIRA,,7320-011,N SRA GRAÇA PÓVOA MEADAS,-7.517702124388163,39.50973947541644
pt.ine.add.PTCONT.3478134,ESTR BOM JESUS,,7320-203,CASTELO DE VIDE,-7.4500425197241995,39.42403922552499
pt.ine.add.PTCONT.3478135,CAM BORREGAO,,7320-201,CASTELO DE VIDE,-7.43257756137181,39.42157553310567
pt.ine.add.PTCONT.3478136,R CORREDOURA,58 56,7320-121,CASTELO DE VIDE,-7.453358532404801,39.41574232339082
pt.ine.add.PTCONT.3478137,R CÂNDIDO DOS REIS,52,7320-118,CASTELO DE VIDE,-7.453750303339712,39.415342184406974
pt.ine.add.PTCONT.3478179,R MIGUEL FERREIRA,76,7320-132,CASTELO DE VIDE,-7.453200881693917,39.41529695786234
pt.ine.add.PTCONT.3478180,R FONTE,13,7320-150,CASTELO DE VIDE,-7.456043482636352,39.417122114220795
pt.ine.add.PTCONT.3478181,LG MARTIRES DA REPUBLICA,,7320-109,CASTELO DE VIDE,-7.4539647386160945,39.41478341188262
pt.ine.add.PTCONT.3478215,LG POUSO,4,7320-407,CASTELO DE VIDE,-7.459642593189857,39.41324422120555
pt.ine.add.PTCONT.3478216,,,7320-407,CASTELO DE VIDE,-7.477596050878233,39.39990197389244
pt.ine.add.PTCONT.3478251,R PISCO,14,7320-135,CASTELO DE VIDE,-7.454109408546215,39.41348693507808
pt.ine.add.PTCONT.3478431,R MIGUEL FERREIRA,33,7320-132,CASTELO DE VIDE,-7.453764099959446,39.41511709035924
pt.ine.add.PTCONT.3478470,ESTR S VICENTE,,7320-202,CASTELO DE VIDE,-7.445380469915203,39.4080153587469
pt.ine.add.PTCONT.3478502,R SANTO ANTÓNIO,17,7320-011,N SRA GRAÇA PÓVOA MEADAS,-7.5224324417787,39.50998058366329
pt.ine.add.PTCONT.3478508,QTA STO ANTÓNIO DA MOUTOSA,,7320-202,CASTELO DE VIDE,-7.444765210445994,39.40564288048726
