id,street,house,postcode,city,lon,lat
pt.ine.add.PTCONT.1899084,R MANUEL DOS SANTOS,4,6360-302,CELORICO DA BEIRA,-7.390732688313179,40.640838890129054
pt.ine.add.PTCONT.1899088,R SOALHEIRO,,6360-210,VILA BOA DO MONDEGO,-7.437749217514468,40.625813889938065
pt.ine.add.PTCONT.1899093,R PADRE MANUEL FRANCISCO CARDOSO,8,6360-302,CELORICO DA BEIRA,-7.3908718946312435,40.6421455217296
pt.ine.add.PTCONT.1899108,QTA DO PANASCAL,,6360-140,RATOEIRA,-7.347378691912875,40.63718414004927
pt.ine.add.PTCONT.1899112,R DO FORNO,,6360-020,BARAÇAL CLB,-7.327565302928804,40.6815505002587
pt.ine.add.PTCONT.1899113,BR QUINTA CAPITAO,13,6360-220,CASAS DO SOEIRO,-7.403845307722078,40.62213780458457
pt.ine.add.PTCONT.1899115,R DO CAPITÃO-MOR,,6360-375,CELORICO DA BEIRA,-7.383647077857308,40.64758294699426
pt.ine.add.PTCONT.1899118,R DO MONTE,33,6360-524,LAJEOSA DO MONDEGO,-7.335862182874963,40.6274967880966
pt.ine.add.PTCONT.1899125,R DO PAÇO,,6360-011,AÇORES,-7.324600429948984,40.64791402141246
pt.ine.add.PTCONT.1899132,R NSA SRA DE FÁTIMA,,6360-140,RATOEIRA,-7.354320870307004,40.63791555275877
pt.ine.add.PTCONT.1899138,EN 16,,6360-140,RATOEIRA,-7.365432924545214,40.63995306516516
pt.ine.add.PTCONT.1899147,BC DO PINHAL,4,6360-201,VIDE ENTRE VINHAS,-7.414871340421684,40.593480505969175
pt.ine.add.PTCONT.1899556,R DA LAVANDEIRA,,6360-011,AÇORES,-7.3262868179626395,40.64532335683958
pt.ine.add.PTCONT.1899557,R DO FORNO,,6360-020,BARAÇAL CLB,-7.3280901640277945,40.68118495623987
pt.ine.add.PTCONT.1899558,CM 1101,,6360-020,BARAÇAL CLB,-7.333044815123035,40.67834680163673
pt.ine.add.PTCONT.1899559,QTA DO RIBEIRO,,6360-020,BARAÇAL CLB,-7.329745515218541,40.67926941645402
pt.ine.add.PTCONT.1899611,LG DA FEIRA,7,6360-040,CARRAPICHANA,-7.486762853382704,40.56196369675293
pt.ine.add.PTCONT.1899612,R GROSSA,,6360-052,CORTIÇÔ DA SERRA,-7.430862547123212,40.611913326792504
pt.ine.add.PTCONT.1899613,R DA FORJA,,6360-050,CORTIÇÔ DA SERRA,-7.437079934008686,40.5923647495467
pt.ine.add.PTCONT.1899672,R DO CEMITÉRIO,,6360-060,FORNO TELHEIRO,-7.355156979551674,40.662622057477776
pt.ine.add.PTCONT.1899673,LG DIOGO OSÓRIO LEITE,16,6360-498,LAJEOSA DO MONDEGO,-7.336854697599995,40.62752164587449
pt.ine.add.PTCONT.1899674,R DA FONTE NOVA,19,6360-516,LAJEOSA DO MONDEGO,-7.339581506277224,40.62781056746775
pt.ine.add.PTCONT.1899675,R DO MONTE,9,6360-524,LAJEOSA DO MONDEGO,-7.336154597152233,40.62676038942431
pt.ine.add.PTCONT.1899676,ESTR DE VALE DE AZARES,42,6360-505,LAJEOSA DO MONDEGO,-7.342284880717596,40.62307442414424
pt.ine.add.PTCONT.1899677,R DAS LAGES,,6360-082,LINHARES CLB,-7.460751011455244,40.56073461010139
pt.ine.add.PTCONT.1899738,CM 1105,,6360-083,LINHARES CLB,-7.45692788945984,40.55696612153023
pt.ine.add.PTCONT.1899739,EM 555,,6360-081,LINHARES CLB,-7.44126755964889,40.557404709790895
pt.ine.add.PTCONT.1899740,R DAS LAGES,,6360-081,LINHARES CLB,-7.440218298331266,40.55725433791553
pt.ine.add.PTCONT.1899741,R DO OUTEIRO,,6360-080,LINHARES CLB,-7.461237984353632,40.54036758508273
pt.ine.add.PTCONT.1899742,R DE S PEDRO,,6360-080,LINHARES CLB,-7.461431332651061,40.53991844633673
pt.ine.add.PTCONT.1899801,R NSA SRA DAS DORES,39,6360-102,MESQUITELA CLB,-7.472811150184951,40.58067867821086
pt.ine.add.PTCONT.1899802,R DO FORNO,6,6360-102,MESQUITELA CLB,-7.4731134391342975,40.581166686480934
pt.ine.add.PTCONT.1899803,R DA CAPELA,1,6360-103,MESQUITELA CLB,-7.47740976303197,40.5766255157873
pt.ine.add.PTCONT.1899804,R DA JUNTA DE FREGUESIA,,6360-120,PRADOS,-7.376549027280446,40.563104540730556
pt.ine.add.PTCONT.1899805,R SANTOS JÚNIOR,,6360-120,PRADOS,-7.376138888104012,40.56177808992765
pt.ine.add.PTCONT.1899851,R SANTOS JÚNIOR,,6360-120,PRADOS,-7.376204413291752,40.56120218649985
pt.ine.add.PTCONT.1899852,R DO BARREIRO,,6360-120,PRADOS,-7.37896684837036,40.562300876575804
pt.ine.add.PTCONT.1899853,QTA DE AMIAIS,,6360-120,PRADOS,-7.391121603896318,40.56509014871207
pt.ine.add.PTCONT.1899854,R DO CHAFARIZ,5,6360-130,RAPA,-7.345334870595889,40.581743729317516
pt.ine.add.PTCONT.1899855,R DO CEMITÉRIO,1,6360-140,RATOEIRA,-7.350006154813855,40.64196567030659
pt.ine.add.PTCONT.1899856,R RAMALHAL,6,6360-140,RATOEIRA,-7.349421434417624,40.641421399457606
pt.ine.add.PTCONT.1899891,R DO JOGO DA BOLA,,6360-150,SALGUEIRAIS,-7.42752155135244,40.568785773094426
pt.ine.add.PTCONT.1899892,ESTR DO SEIXAL,,6360-150,SALGUEIRAIS,-7.428932700672035,40.57736676931566
pt.ine.add.PTCONT.1899893,R 31 DE JANEIRO,98,6360-330,CELORICO DA BEIRA,-7.390732789466439,40.63869568086513
pt.ine.add.PTCONT.1899927,PC DE STA MARIA,8,6360-289,CELORICO DA BEIRA,-7.39095463004827,40.637877643978065
pt.ine.add.PTCONT.1899928,R DOS BOMBEIROS VOLUNTÁRIOS,,6360-344,CELORICO DA BEIRA,-7.3892505028552575,40.64124358567153
pt.ine.add.PTCONT.1899929,R ANTÓNIO FERNANDES COSTA ALMEIDA,14,6360-332,CELORICO DA BEIRA,-7.392805873078973,40.63508894388444
pt.ine.add.PTCONT.1899954,R ANTÓNIO FERNANDES COSTA ALMEIDA,14,6360-332,CELORICO DA BEIRA,-7.392805873078973,40.63508894388444
pt.ine.add.PTCONT.1899955,R ANTÓNIO FERNANDES COSTA ALMEIDA,14,6360-332,CELORICO DA BEIRA,-7.392805873078973,40.63508894388444
pt.ine.add.PTCONT.1899956,R ANTÓNIO FERNANDES COSTA ALMEIDA,14,6360-332,CELORICO DA BEIRA,-7.392805873078973,40.63508894388444
pt.ine.add.PTCONT.1899957,R ANTÓNIO FERNANDES COSTA ALMEIDA,14,6360-332,CELORICO DA BEIRA,-7.392805873078973,40.63508894388444
pt.ine.add.PTCONT.1899958,R ANTÓNIO FERNANDES COSTA ALMEIDA,,6360-332,CELORICO DA BEIRA,-7.392435681172439,40.635428763581075
pt.ine.add.PTCONT.1899959,R DA CORREDOURA,6,6360-335,CELORICO DA BEIRA,-7.393223041543134,40.6347764392388
pt.ine.add.PTCONT.1899960,ESCNH DA PARREIRA,6,6360-326,CELORICO DA BEIRA,-7.393666924948395,40.63418494624204
pt.ine.add.PTCONT.1899961,R DA FONTE PIPA,,6360-397,CELORICO DA BEIRA,-7.394651729929172,40.63492066044201
pt.ine.add.PTCONT.1899962,R ENG CARLOS ALBERTO FARIA DE ALMEIDA,13,6360-181,VALE DE AZARES,-7.3689790201257885,40.59953464693975
pt.ine.add.PTCONT.1899963,R NSA SRA DE AZARES,12,6360-181,VALE DE AZARES,-7.370617552150945,40.598816059157606
pt.ine.add.PTCONT.1899995,R DAS CONFRARIAS,5,6360-200,VIDE ENTRE VINHAS,-7.4002491403810176,40.598656671698045
pt.ine.add.PTCONT.1899996,R AMÁLIA RODRIGUES,20,6360-352,CASAS DO SOEIRO,-7.4007151363587536,40.62739499070358
pt.ine.add.PTCONT.1900025,EN 53,,6360-220,CASAS DO SOEIRO,-7.394037423765012,40.61880659846799
pt.ine.add.PTCONT.1900026,AV DA CARREIRA,,6360-220,CASAS DO SOEIRO,-7.407188678324663,40.61788143669974
pt.ine.add.PTCONT.1900060,QTA DA TROMBETA,,6360-393,CELORICO DA BEIRA,-7.374827559970434,40.63398173195062
pt.ine.add.PTCONT.1900070,R DA FONTE ALMEIDA,,6360-030,CADAFAZ CLB,-7.3621830339724665,40.5853784205318
pt.ine.add.PTCONT.1900085,R ANTÓNIO FERNANDES COSTA ALMEIDA,14,6360-332,CELORICO DA BEIRA,-7.392805873078973,40.63508894388444
pt.ine.add.PTCONT.1900088,R DA REGADINHA,,6360-120,PRADOS,-7.374832767105463,40.56451610913845
pt.ine.add.PTCONT.1900091,QTA DA VINHA DA PORTA,,6360-210,VILA BOA DO MONDEGO,-7.438588157117163,40.62811524332715
pt.ine.add.PTCONT.1900119,R DA FONTE,12,6360-103,MESQUITELA CLB,-7.477772346336024,40.57698778157743
pt.ine.add.PTCONT.1900144,EN 16,21,6360-140,RATOEIRA,-7.347881346646021,40.63463912265024
pt.ine.add.PTCONT.1900155,R DA PAZ,,6360-083,LINHARES CLB,-7.454910688023163,40.55562152312235
pt.ine.add.PTCONT.1900184,R DO VALE,57,6360-220,CASAS DO SOEIRO,-7.407842947994404,40.61966856128968
pt.ine.add.PTCONT.1900490,LG FORNO,,6360-011,AÇORES,-7.325934987681337,40.64803141864312
pt.ine.add.PTCONT.1900491,R DO CEMITÉRIO,,6360-020,BARAÇAL CLB,-7.328479768365871,40.683213796832106
pt.ine.add.PTCONT.1900492,R DO FORNO,51,6360-020,BARAÇAL CLB,-7.326861934455387,40.68200484537077
pt.ine.add.PTCONT.1900544,EN 17,,6360-040,CARRAPICHANA,-7.482417911339048,40.56071459445983
pt.ine.add.PTCONT.1900545,R DAS LAMEIRINHAS,,6360-040,CARRAPICHANA,-7.4912353217323835,40.56224077924694
pt.ine.add.PTCONT.1900546,R DA AMOREIRA,,6360-040,CARRAPICHANA,-7.487591077447802,40.56178822288281
pt.ine.add.PTCONT.1900598,TV DO OUTEIRO,,6360-060,FORNO TELHEIRO,-7.398980757370825,40.67242734175391
pt.ine.add.PTCONT.1900599,R DA TORRE,,6360-066,FORNO TELHEIRO,-7.38108344583148,40.66426165299404
pt.ine.add.PTCONT.1900659,R DAS LAGES,,6360-081,LINHARES CLB,-7.439972320179666,40.557063752637085
pt.ine.add.PTCONT.1900712,TV DO OUTEIRO,,6360-101,MESQUITELA CLB,-7.470085689954863,40.59593586345431
pt.ine.add.PTCONT.1900713,R NSA SRA DAS DORES,13,6360-102,MESQUITELA CLB,-7.4742841424528805,40.582226977575054
pt.ine.add.PTCONT.1900773,R DA REGADA,,6360-110,MINHOCAL,-7.344499159630917,40.686980362243595
pt.ine.add.PTCONT.1900774,R DA ALDEOLA,,6360-120,PRADOS,-7.380963039177172,40.564349065222814
pt.ine.add.PTCONT.1900880,AV DA CORREDOURA,121,6360-346,CELORICO DA BEIRA,-7.397816051483414,40.62878136479926
pt.ine.add.PTCONT.1900881,R DR FRANCISCO SÁ CARNEIRO,37,6360-353,CELORICO DA BEIRA,-7.39831973615981,40.62811819303402
pt.ine.add.PTCONT.1900882,R DAS LAGES,,6360-319,CELORICO DA BEIRA,-7.3808848212626375,40.615605910215834
pt.ine.add.PTCONT.1900991,R DO PRIOR,9,6360-182,VALE DE AZARES,-7.372896795979491,40.6041080934379
pt.ine.add.PTCONT.1900992,R DO CASTELO,7,6360-180,VALE DE AZARES,-7.3649721312042535,40.60485711789379
pt.ine.add.PTCONT.1900993,R DA LAGEIRA,4,6360-180,VALE DE AZARES,-7.3647118494715285,40.60385581715091
pt.ine.add.PTCONT.1900994,R JOSÉ RESENDE,,6360-181,VALE DE AZARES,-7.370231278011154,40.60057851569305
pt.ine.add.PTCONT.1900995,R PRINCIPAL,5,6360-183,VALE DE AZARES,-7.364468616632738,40.59414666001075
pt.ine.add.PTCONT.1901037,R DA CRUZ DAS ALMAS,,6360-200,VIDE ENTRE VINHAS,-7.403634166278076,40.59591351802069
pt.ine.add.PTCONT.1901038,R DO CEMITÉRIO,,6360-220,CASAS DO SOEIRO,-7.405267867490531,40.62500139960236
pt.ine.add.PTCONT.1901039,AV PRINCIPAL,,6360-220,CASAS DO SOEIRO,-7.406470916725309,40.620866622780255
pt.ine.add.PTCONT.1901139,R NOVA,8,6360-040,CARRAPICHANA,-7.489369711858863,40.5622394039227
pt.ine.add.PTCONT.1901155,R SANTOS,26,6360-180,VALE DE AZARES,-7.363864169199489,40.604624615684074
pt.ine.add.PTCONT.1901386,R DA PRAÇA,,6360-120,PRADOS,-7.37605411045025,40.561966643568
pt.ine.add.PTCONT.1901387,R DO BARROCO D EL-REI,1,6360-333,CELORICO DA BEIRA,-7.395793518719506,40.633207983196215
pt.ine.add.PTCONT.1901388,R SOALHEIRO,,6360-210,VILA BOA DO MONDEGO,-7.437242760312111,40.62678339218209
pt.ine.add.PTCONT.1901389,R DA AMOREIRA,25,6360-040,CARRAPICHANA,-7.488403602486925,40.56201789092003
pt.ine.add.PTCONT.1901392,QTA DO CABEÇUDO,,6360-300,CELORICO DA BEIRA,-7.387466486120635,40.6294624279612
pt.ine.add.PTCONT.1901393,R NSA SRA DA CONCEIÇÃO,,6360-020,BARAÇAL CLB,-7.329222444778438,40.68342608545967
pt.ine.add.PTCONT.1901394,R MIGUEL TORGA,23,6360-323,CELORICO DA BEIRA,-7.393388231651282,40.63266130045454
pt.ine.add.PTCONT.1901395,URB CELURBA,,6360-220,CASAS DO SOEIRO,-7.40462530851276,40.62975204467913
pt.ine.add.PTCONT.1901397,R DIREITA,1,6360-101,MESQUITELA CLB,-7.46888932035155,40.59506449303512
pt.ine.add.PTCONT.1901398,R AGOSTINHO SARAIVA,,6360-150,SALGUEIRAIS,-7.425186490272276,40.56974348633648
pt.ine.add.PTCONT.1901399,R DA PONTE,14,6360-100,MESQUITELA CLB,-7.4913570364011495,40.58781626048444
pt.ine.add.PTCONT.1901400,R DR FERNANDO CALHEIROS,45,6360-302,CELORICO DA BEIRA,-7.390893738080598,40.64017354926303
pt.ine.add.PTCONT.1901401,QTA DO CARRIL,,6360-300,CELORICO DA BEIRA,-7.388649976692707,40.619744548506326
pt.ine.add.PTCONT.1901402,R 25 DE ABRIL,8,6360-100,MESQUITELA CLB,-7.488883917108842,40.588270763875286
pt.ine.add.PTCONT.1901403,QTA DA PÓVOA,,6360-120,PRADOS,-7.409090907504763,40.56206134839603
pt.ine.add.PTCONT.1901404,R NSA SRA DA CONCEIÇÃO,,6360-020,BARAÇAL CLB,-7.328415249865353,40.680709957534894
pt.ine.add.PTCONT.1901405,QTA DOS VERMELHOS,,6360-060,FORNO TELHEIRO,-7.361661454204991,40.66770851915445
pt.ine.add.PTCONT.1901406,R MARIA JOSÉ FURTADO DE MENDONÇA,7,6360-130,RAPA,-7.344790772551641,40.58482878570642
pt.ine.add.PTCONT.1901408,EN 102,,6360-060,FORNO TELHEIRO,-7.3839169375729785,40.655166961793206
pt.ine.add.PTCONT.1901409,R SACADURA CABRAL,,6360-350,CELORICO DA BEIRA,-7.391358250447987,40.63665554532463
pt.ine.add.PTCONT.1901410,R DAS CABEÇAS,1,6360-103,MESQUITELA CLB,-7.476451487651495,40.574377775606315
pt.ine.add.PTCONT.1901411,R DA FONTE SANTA,,6360-220,CASAS DO SOEIRO,-7.405028740127777,40.61981294613832
pt.ine.add.PTCONT.1901412,R ENG COUTO DOS SANTOS,37,6360-497,LAJEOSA DO MONDEGO,-7.338503803314058,40.62799226394953
pt.ine.add.PTCONT.1901413,R DA FONTE NOVA,7,6360-516,LAJEOSA DO MONDEGO,-7.340116416988685,40.62755309429801
pt.ine.add.PTCONT.1901414,EN 17,,6360-220,CASAS DO SOEIRO,-7.41695570038199,40.60959465739359
pt.ine.add.PTCONT.1901416,R DO RAMALHAL,,6360-011,AÇORES,-7.322788767596118,40.65009855378298
pt.ine.add.PTCONT.1901417,R DO MONTE,,6360-524,LAJEOSA DO MONDEGO,-7.335590292134086,40.6284944750703
pt.ine.add.PTCONT.1901418,R DO CEMITÉRIO,6,6360-140,RATOEIRA,-7.349787906740352,40.6424324535073
pt.ine.add.PTCONT.1901419,R DA COVA DA AREIA,2,6360-308,CELORICO DA BEIRA,-7.3874405229411755,40.64135798334123
pt.ine.add.PTCONT.1901420,LOTEAM DE S FRANCISCO,34,6360-220,CASAS DO SOEIRO,-7.404184667661009,40.619186268557115
pt.ine.add.PTCONT.1901422,R DA FONTE DA PRAÇA,,6360-060,FORNO TELHEIRO,-7.397679224703567,40.67355369310163
pt.ine.add.PTCONT.1901423,R DO CAMPO,,6360-080,LINHARES CLB,-7.461942192260628,40.539588220449545
pt.ine.add.PTCONT.1901424,LG DA ESCOLA,14,6360-140,RATOEIRA,-7.356927234954951,40.64048153667775
pt.ine.add.PTCONT.1901428,R DA AMOREIRA,,6360-060,FORNO TELHEIRO,-7.398422218317213,40.67374752909218
pt.ine.add.PTCONT.1901429,BR DA POÇA DA NOGUEIRA,2,6360-140,RATOEIRA,-7.352238683468194,40.637046009485964
pt.ine.add.PTCONT.1901430,R FERNÃO PACHECO,40,6360-347,CELORICO DA BEIRA,-7.392651582118325,40.63728519658162
pt.ine.add.PTCONT.1901431,R DR MÁRIO DOS REIS FARIA,,6360-180,VALE DE AZARES,-7.364139449161182,40.607409033042586
pt.ine.add.PTCONT.1901432,R DA IGREJA,,6360-010,AÇORES,-7.305365204317578,40.64596772342963
pt.ine.add.PTCONT.1901433,R DA CAPELA DE STO ANTÓNIO,13,6360-066,FORNO TELHEIRO,-7.378206348452354,40.668763407497686
pt.ine.add.PTCONT.1901434,QTA DOS RAMOS,,6360-389,CELORICO DA BEIRA,-7.414958079880049,40.63945221870438
pt.ine.add.PTCONT.1901435,R CONDE DE FERREIRA,24,6360-366,CELORICO DA BEIRA,-7.393093920322462,40.63469456605323
pt.ine.add.PTCONT.1901436,R DR MÁRIO DOS REIS FARIA,21,6360-180,VALE DE AZARES,-7.36610154392785,40.606314449367275
pt.ine.add.PTCONT.1902058,R DA GERINGOTA,,6360-210,VILA BOA DO MONDEGO,-7.437939988917599,40.6256529462881
pt.ine.add.PTCONT.1902059,EN 17,36,6360-040,CARRAPICHANA,-7.487461857107486,40.55803231764992
pt.ine.add.PTCONT.1902075,R DA TORRE,,6360-060,FORNO TELHEIRO,-7.381061800631491,40.66618859088979
pt.ine.add.PTCONT.1902076,RASA,,6360-070,LAJEOSA DO MONDEGO,-7.327340020793354,40.62459203389366
pt.ine.add.PTCONT.1902514,R ESCURA,,6360-010,AÇORES,-7.306852203517725,40.6452219492519
pt.ine.add.PTCONT.1902515,LG DR CÓNEGO MANUEL SIMÃO,,6360-020,BARAÇAL CLB,-7.325450732105813,40.68230115155025
pt.ine.add.PTCONT.1902516,LG DR CÓNEGO MANUEL SIMÃO,,6360-020,BARAÇAL CLB,-7.325450732105813,40.68230115155025
pt.ine.add.PTCONT.1902517,LG DE S PEDRO,,6360-020,BARAÇAL CLB,-7.3282615351603715,40.6826719758235
pt.ine.add.PTCONT.1902579,R DA CAPELA,,6360-031,CADAFAZ CLB,-7.368723831085277,40.582522227078314
pt.ine.add.PTCONT.1902580,TV DO FREIXO,,6360-060,FORNO TELHEIRO,-7.397096957212044,40.686706322150464
pt.ine.add.PTCONT.1902636,,,6360-060,FORNO TELHEIRO,-7.380136149552799,40.668577898094505
pt.ine.add.PTCONT.1902637,LG DIOGO OSÓRIO LEITE,2,6360-498,LAJEOSA DO MONDEGO,-7.33744101232123,40.62791290564831
pt.ine.add.PTCONT.1902691,R DA IGREJA,,6360-080,LINHARES CLB,-7.461058236571904,40.540636697426805
pt.ine.add.PTCONT.1902692,R DA IGREJA,,6360-080,LINHARES CLB,-7.4623968538664585,40.54015819199548
pt.ine.add.PTCONT.1902693,R DIREITA,,6360-090,MAÇAL DO CHÃO,-7.299981392572985,40.69289912712725
pt.ine.add.PTCONT.1902694,R DA LAPA,,6360-090,MAÇAL DO CHÃO,-7.303020829033858,40.69298405678209
pt.ine.add.PTCONT.1902739,R DA CAPELA,6,6360-103,MESQUITELA CLB,-7.4775513025709825,40.57664432952185
pt.ine.add.PTCONT.1902740,R DO QUELHO,,6360-110,MINHOCAL,-7.346041726014382,40.690601891594504
pt.ine.add.PTCONT.1902741,QTA DA TAPADA,,6360-110,MINHOCAL,-7.361704871104919,40.678307721706325
pt.ine.add.PTCONT.1902789,R ESCURA,7,6360-130,RAPA,-7.34488481587371,40.58184872102316
pt.ine.add.PTCONT.1902790,R DAS FONTINHAS,B,6360-140,RATOEIRA,-7.350800484131014,40.63772066099923
pt.ine.add.PTCONT.1902791,R DAS FONTINHAS,,6360-140,RATOEIRA,-7.353026167773667,40.63946469161846
pt.ine.add.PTCONT.1902836,LG SENHORA DO CARMO,6,6360-140,RATOEIRA,-7.352894229995959,40.64064346457215
pt.ine.add.PTCONT.1902837,AV DAS TÍLIAS,,6360-140,RATOEIRA,-7.353286110809218,40.63947545239808
pt.ine.add.PTCONT.1902838,R DA ESCOLA,9,6360-140,RATOEIRA,-7.356078035295984,40.6403137343061
pt.ine.add.PTCONT.1902839,R DA MISERICÓRDIA,25,6360-309,CELORICO DA BEIRA,-7.390153134644411,40.63979957833246
pt.ine.add.PTCONT.1902878,R FERNÃO PACHECO,74,6360-347,CELORICO DA BEIRA,-7.391759199246535,40.63781077127169
pt.ine.add.PTCONT.1902879,R 25 DE ABRIL,32,6360-329,CELORICO DA BEIRA,-7.390192198511091,40.632010427285074
pt.ine.add.PTCONT.1902880,R DE STO ANTÓNIO,,6360-319,CELORICO DA BEIRA,-7.379988507144394,40.61544698183679
pt.ine.add.PTCONT.1902904,AV DA CORREDOURA,68,6360-346,CELORICO DA BEIRA,-7.396995328109436,40.62925340670609
pt.ine.add.PTCONT.1902905,R DA FONTE PIPA,,6360-397,CELORICO DA BEIRA,-7.395836668546759,40.63465807886071
pt.ine.add.PTCONT.1902932,R DOS ARAIS,36,6360-200,VIDE ENTRE VINHAS,-7.402977857280321,40.59760234007629
pt.ine.add.PTCONT.1902933,R DAS CONFRARIAS,,6360-200,VIDE ENTRE VINHAS,-7.399847488433375,40.59865412252711
pt.ine.add.PTCONT.1902934,QTA DO CHÃO DO RIO,,6360-210,VILA BOA DO MONDEGO,-7.432586318162797,40.63015016857913
pt.ine.add.PTCONT.1902935,AV DOS EMIGRANTES,,6360-210,VILA BOA DO MONDEGO,-7.436380048415293,40.627912835343814
pt.ine.add.PTCONT.1902936,R MALVAR,,6360-210,VILA BOA DO MONDEGO,-7.437995812039716,40.62596846148379
pt.ine.add.PTCONT.1902937,URB TAPADA CRUZ,14,6360-220,CASAS DO SOEIRO,-7.399962901080363,40.63025384052774
pt.ine.add.PTCONT.1902974,R DAS ESCOLAS,53,6360-220,CASAS DO SOEIRO,-7.40783983152582,40.61995670554839
pt.ine.add.PTCONT.1902975,R DO CANTINHO DA VINHA,,6360-220,CASAS DO SOEIRO,-7.406337689851353,40.61898371457934
pt.ine.add.PTCONT.1903028,R DA AMOREIRA,6,6360-040,CARRAPICHANA,-7.487754905625087,40.56194222712688
pt.ine.add.PTCONT.1903031,R DOS PENEDOS ALTOS,,6360-317,CELORICO DA BEIRA,-7.408912445360264,40.659594834446686
pt.ine.add.PTCONT.1903038,R DO FREIXO,,6360-060,FORNO TELHEIRO,-7.39847937428201,40.67392799345175
pt.ine.add.PTCONT.1903041,R DIREITA,,6360-080,LINHARES CLB,-7.461680367049701,40.539802825439025
pt.ine.add.PTCONT.1903054,R DR JOSÉ ALBERTO REIS,47,6360-180,VALE DE AZARES,-7.366261453976313,40.603695018583856
pt.ine.add.PTCONT.1919059,,,6360-031,CADAFAZ CLB,-7.372954333554201,40.57920922693775
pt.ine.add.PTCONT.1903123,EN 17,,6360-220,CASAS DO SOEIRO,-7.420098965095937,40.61513425266818
pt.ine.add.PTCONT.1903396,R DIREITA,,6360-030,CADAFAZ CLB,-7.361002978417659,40.58425389901045
pt.ine.add.PTCONT.1903437,TV ESCURA,,6360-030,CADAFAZ CLB,-7.3615819073884285,40.58423975697203
pt.ine.add.PTCONT.1903438,R DE S MIGUEL,,6360-031,CADAFAZ CLB,-7.369077220045923,40.58260561153048
pt.ine.add.PTCONT.1903439,,,6360-031,CADAFAZ CLB,-7.371553629528077,40.57983036282743
pt.ine.add.PTCONT.1903440,EN 17,18,6360-040,CARRAPICHANA,-7.4848522969665465,40.559278437429725
pt.ine.add.PTCONT.1903441,R ESPÍRITO SANTO,,6360-050,CORTIÇÔ DA SERRA,-7.437652238423781,40.603255438303336
pt.ine.add.PTCONT.1903494,R DO CASAL,,6360-050,CORTIÇÔ DA SERRA,-7.436482404421234,40.59302752995377
pt.ine.add.PTCONT.1903495,R DIREITA,,6360-050,CORTIÇÔ DA SERRA,-7.435084796252683,40.593379299190005
pt.ine.add.PTCONT.1903496,EN 102,,6360-060,FORNO TELHEIRO,-7.381475576699663,40.66725387988598
pt.ine.add.PTCONT.1903497,R DO COMÉRCIO,,6360-060,FORNO TELHEIRO,-7.381522579253944,40.66517402159318
pt.ine.add.PTCONT.1903498,EN 102,,6360-060,FORNO TELHEIRO,-7.380009352955769,40.6535656568776
pt.ine.add.PTCONT.1903552,R DAS VIDEIRAS,,6360-518,LAJEOSA DO MONDEGO,-7.339691718004613,40.6264875770025
pt.ine.add.PTCONT.1903553,LG DA IGREJA,4,6360-508,LAJEOSA DO MONDEGO,-7.336778121077753,40.62600826339052
pt.ine.add.PTCONT.1903554,ESTR DE AÇORES,,6360-530,LAJEOSA DO MONDEGO,-7.326371569789419,40.63239267701915
pt.ine.add.PTCONT.1903608,R DIREITA,,6360-090,MAÇAL DO CHÃO,-7.300407707999672,40.69286618306347
pt.ine.add.PTCONT.1903609,R DA PIPA,,6360-090,MAÇAL DO CHÃO,-7.302373639339458,40.693654774324735
pt.ine.add.PTCONT.1903610,R DA LAPA,,6360-090,MAÇAL DO CHÃO,-7.302861678275846,40.693415150999655
pt.ine.add.PTCONT.1903611,BR DA SAUDADE,19,6360-100,MESQUITELA CLB,-7.486528085261371,40.58758221148307
pt.ine.add.PTCONT.1903663,R DA IGREJA,,6360-110,MINHOCAL,-7.346524565973648,40.68877716887728
pt.ine.add.PTCONT.1903664,QTA DAS CORGAS,,6360-110,MINHOCAL,-7.3448961441903915,40.704488760180595
pt.ine.add.PTCONT.1903665,R DA ALDEOLA,,6360-120,PRADOS,-7.378542485771687,40.56328867735399
pt.ine.add.PTCONT.1903666,R DAS MOITAS,,6360-120,PRADOS,-7.375984930485146,40.56286670998577
pt.ine.add.PTCONT.1903667,R DAS MOITAS,,6360-120,PRADOS,-7.375999375404376,40.56263266952257
pt.ine.add.PTCONT.1903668,R FRANCA,,6360-120,PRADOS,-7.377446521221464,40.55889598104274
pt.ine.add.PTCONT.1903669,R DAS LAGINHAS,26,6360-130,RAPA,-7.344630986539436,40.58234227232411
pt.ine.add.PTCONT.1903670,R DO RAMALHAL,,6360-140,RATOEIRA,-7.348639266010022,40.6415871848132
pt.ine.add.PTCONT.1903671,R DA IGREJA,4,6360-140,RATOEIRA,-7.351955891942181,40.64102433885992
pt.ine.add.PTCONT.1903672,LG DO ROSSIO,,6360-317,CELORICO DA BEIRA,-7.409654689950623,40.66094124103251
pt.ine.add.PTCONT.1903725,CC ROMANA,,6360-302,CELORICO DA BEIRA,-7.39464324709993,40.63998146591024
pt.ine.add.PTCONT.1903726,R DE BAIXO,19,6360-310,CELORICO DA BEIRA,-7.3921830329416185,40.63796657790634
pt.ine.add.PTCONT.1903727,R MASSA,2,6360-364,CELORICO DA BEIRA,-7.389928408436834,40.63874453742301
pt.ine.add.PTCONT.1903728,R POCO,29,6360-342,CELORICO DA BEIRA,-7.39025897841146,40.63878268473953
pt.ine.add.PTCONT.1903729,R POCO,15,6360-342,CELORICO DA BEIRA,-7.39025897841146,40.63878268473953
pt.ine.add.PTCONT.1903730,R DO PENEDO,10,6360-340,CELORICO DA BEIRA,-7.38962930374062,40.63906679513486
pt.ine.add.PTCONT.1903851,R MIGUEL TORGA,15,6360-323,CELORICO DA BEIRA,-7.393698909912851,40.63235711684019
pt.ine.add.PTCONT.1903898,R DO PICOTO,,6360-341,CELORICO DA BEIRA,-7.394336180282153,40.63566606478612
pt.ine.add.PTCONT.1903899,R DR JOSÉ ALBERTO REIS,20,6360-180,VALE DE AZARES,-7.363616173328228,40.60461395857677
pt.ine.add.PTCONT.1903900,R DO CASTELO,1,6360-183,VALE DE AZARES,-7.364520093867953,40.59377779158856
pt.ine.add.PTCONT.1903901,R DO CALVÁRIO,,6360-190,VELOSA,-7.292727807460853,40.65250414931127
pt.ine.add.PTCONT.1903902,R DA CAPELA,,6360-190,VELOSA,-7.291853901111058,40.65148021704715
pt.ine.add.PTCONT.1903975,R DA PORTELA,,6360-200,VIDE ENTRE VINHAS,-7.401447061253044,40.59714239567547
pt.ine.add.PTCONT.1903976,BR DO AMOR,,6360-210,VILA BOA DO MONDEGO,-7.436287303678068,40.628875823080286
pt.ine.add.PTCONT.1903977,R SOALHEIRO,,6360-210,VILA BOA DO MONDEGO,-7.437812043773807,40.62545406341714
pt.ine.add.PTCONT.1903978,R AMÁLIA RODRIGUES,,6360-352,CASAS DO SOEIRO,-7.3997107675473535,40.62953183144638
pt.ine.add.PTCONT.1903979,BR QUINTA CAPITAO,2,6360-220,CASAS DO SOEIRO,-7.405294170506377,40.62148957106026
pt.ine.add.PTCONT.1903980,R DAS ESCOLAS,,6360-220,CASAS DO SOEIRO,-7.4080289045662395,40.61995789276419
pt.ine.add.PTCONT.1904017,R DOS LOUREIROS,,6360-345,CELORICO DA BEIRA,-7.389553585582324,40.63949855164802
pt.ine.add.PTCONT.1904020,LG EIRO,,6360-210,VILA BOA DO MONDEGO,-7.43663291526667,40.62746410481697
pt.ine.add.PTCONT.1904037,R DO CALVÁRIO,,6360-190,VELOSA,-7.291954421786298,40.65194921104096
pt.ine.add.PTCONT.1904041,R DO CRUZEIRO,2,6360-220,CASAS DO SOEIRO,-7.407696955247001,40.620054864515915
pt.ine.add.PTCONT.1904053,EN 102,,6360-061,FORNO TELHEIRO,-7.38074123135972,40.671562508793606
pt.ine.add.PTCONT.1904075,R DA PIPA,,6360-090,MAÇAL DO CHÃO,-7.30271580858984,40.69372927586131
pt.ine.add.PTCONT.1904081,R IGREJA,,6360-220,CASAS DO SOEIRO,-7.406836941585058,40.61980632117944
pt.ine.add.PTCONT.1904091,TAPADAS,,6360-319,CELORICO DA BEIRA,-7.396271082247344,40.62847434917437
pt.ine.add.PTCONT.1904104,R DA ESCOLA,,6360-190,VELOSA,-7.291815998726415,40.65073252313737
pt.ine.add.PTCONT.1904112,R DO TERREIRO,,6360-200,VIDE ENTRE VINHAS,-7.4033536594996,40.596722210019635
pt.ine.add.PTCONT.1904135,R DO CASTELO,2,6360-180,VALE DE AZARES,-7.364904544675676,40.60456850424189
pt.ine.add.PTCONT.1904136,R DO POVO,,6360-201,VIDE ENTRE VINHAS,-7.417412545382046,40.59224456191636
pt.ine.add.PTCONT.1904200,R JOAQUIM SILVA PEREIRA,27,6360-220,CASAS DO SOEIRO,-7.399751245259865,40.630153440520886
pt.ine.add.PTCONT.1904201,URB CELURBA,,6360-220,CASAS DO SOEIRO,-7.399273277384091,40.62954706246511
pt.ine.add.PTCONT.1904202,R DO CANTINHO DA VINHA,1,6360-220,CASAS DO SOEIRO,-7.40638554290218,40.618929984982145
pt.ine.add.PTCONT.1904571,R DA TORRE,8,6360-011,AÇORES,-7.324063556999758,40.648315488279614
pt.ine.add.PTCONT.1904622,LG DA LAMEIRA,,6360-010,AÇORES,-7.3058647788632305,40.644764627180784
pt.ine.add.PTCONT.1904623,R DE S MIGUEL,,6360-031,CADAFAZ CLB,-7.368949047925787,40.58245167588713
pt.ine.add.PTCONT.1904679,R DIREITA,,6360-060,FORNO TELHEIRO,-7.398601491361931,40.686508788743346
pt.ine.add.PTCONT.1904681,R DO EIRÓ,,6360-060,FORNO TELHEIRO,-7.3754588779426316,40.6565525820419
pt.ine.add.PTCONT.1904682,QTA DE NADABAUS,,6360-060,FORNO TELHEIRO,-7.38843445080786,40.660419116510035
pt.ine.add.PTCONT.1904683,EN 16,37,6360-517,LAJEOSA DO MONDEGO,-7.3408435065917965,40.628035354272754
pt.ine.add.PTCONT.1904684,R SOALHEIRO,,6360-504,LAJEOSA DO MONDEGO,-7.339615279731815,40.625955751633626
pt.ine.add.PTCONT.1904685,R DO FREIXO,,6360-508,LAJEOSA DO MONDEGO,-7.338854047946845,40.62536518795575
pt.ine.add.PTCONT.1904723,,,6360-082,LINHARES CLB,-7.460582112598061,40.562273520514466
pt.ine.add.PTCONT.1904724,LG DA FATERNIDADE,,6360-083,LINHARES CLB,-7.4585692097682745,40.55694870068644
pt.ine.add.PTCONT.1904725,R DA IGREJA,,6360-080,LINHARES CLB,-7.462041680522591,40.54026419275204
pt.ine.add.PTCONT.1904726,R DA LAPA,,6360-090,MAÇAL DO CHÃO,-7.302498199304411,40.69315139215246
pt.ine.add.PTCONT.1904727,R DA LAPA,,6360-090,MAÇAL DO CHÃO,-7.302151334717621,40.69345506501285
pt.ine.add.PTCONT.1904728,LG DO CHAFARIZ,8,6360-101,MESQUITELA CLB,-7.468508902205128,40.595305444540436
pt.ine.add.PTCONT.1904782,R DO PARQUE INFANTIL,1,6360-101,MESQUITELA CLB,-7.469068829215098,40.594831390589746
pt.ine.add.PTCONT.1904783,TV DO CIMO DA RUA,,6360-102,MESQUITELA CLB,-7.472562336439944,40.5807583024791
pt.ine.add.PTCONT.1904784,R DA AMIEIRA,,6360-110,MINHOCAL,-7.345752627658395,40.69104116481456
pt.ine.add.PTCONT.1904785,R DAS RAMADAS,,6360-120,PRADOS,-7.375874573418191,40.562181591647324
pt.ine.add.PTCONT.1904786,R DO FORNO,,6360-120,PRADOS,-7.377273348509934,40.56169546587014
pt.ine.add.PTCONT.1904787,R DO CIMO DO POVO,,6360-120,PRADOS,-7.3763951448069545,40.56104134239086
pt.ine.add.PTCONT.1904788,R DAS BOICINHAS,12,6360-140,RATOEIRA,-7.353628555597997,40.64153992561905
pt.ine.add.PTCONT.1904829,R DA CARREIRA,,6360-317,CELORICO DA BEIRA,-7.41065437131638,40.65925454929202
pt.ine.add.PTCONT.1904874,R PADRE FRANCISCO MARTINS,3,6360-302,CELORICO DA BEIRA,-7.3912908531384645,40.64060834497144
pt.ine.add.PTCONT.1904875,QLHA DE S JOÃO,10,6360-315,CELORICO DA BEIRA,-7.390185420070775,40.637953743646946
pt.ine.add.PTCONT.1904935,AV DA CORREDOURA,16,6360-346,CELORICO DA BEIRA,-7.395905470044905,40.63055219418035
pt.ine.add.PTCONT.1904936,TV DO ROSSIO,3,6360-350,CELORICO DA BEIRA,-7.392942538293728,40.63555808465978
pt.ine.add.PTCONT.1930534,SOITO,,6360-141,RATOEIRA,-7.3586882081189975,40.63744964453439
pt.ine.add.PTCONT.1905109,EN 17,,6360-050,CORTIÇÔ DA SERRA,-7.437452180714564,40.59178165591904
pt.ine.add.PTCONT.1905039,R FORNO,,6360-011,AÇORES,-7.324503356023502,40.64812045781191
pt.ine.add.PTCONT.1905110,BR NOVO,,6360-060,FORNO TELHEIRO,-7.400709562358545,40.67115960595459
pt.ine.add.PTCONT.1905059,R DA PAZ,,6360-083,LINHARES CLB,-7.455570818013443,40.55572445398228
pt.ine.add.PTCONT.1905108,SIT DAS MALHADINHAS,,6360-050,CORTIÇÔ DA SERRA,-7.439391612133684,40.5915771959681
pt.ine.add.PTCONT.1905111,R DA TORRE,,6360-066,FORNO TELHEIRO,-7.38110841023661,40.66414475002895
pt.ine.add.PTCONT.1905189,R DA SILVEIRA,10,6360-525,LAJEOSA DO MONDEGO,-7.333117248102684,40.6267483938494
pt.ine.add.PTCONT.1905190,R DA SILVEIRA,10,6360-525,LAJEOSA DO MONDEGO,-7.333117248102684,40.6267483938494
pt.ine.add.PTCONT.1905239,LG DA IGREJA,,6360-080,LINHARES CLB,-7.461213028386116,40.54050251882771
pt.ine.add.PTCONT.1905240,LG DO OUTEIRO,,6360-080,LINHARES CLB,-7.460885868617746,40.54016742128377
pt.ine.add.PTCONT.1905241,R DA LAPA,,6360-090,MAÇAL DO CHÃO,-7.303207533915518,40.69319251349642
pt.ine.add.PTCONT.1905242,R DA CARREIRA VELHA,,6360-090,MAÇAL DO CHÃO,-7.301053745244941,40.69324004502252
pt.ine.add.PTCONT.1905306,ESTR DAS LAMEIRAS,,6360-101,MESQUITELA CLB,-7.468179621030693,40.59396177816993
pt.ine.add.PTCONT.1905307,BR DA SAUDADE,11,6360-100,MESQUITELA CLB,-7.486459731202021,40.58732067826187
pt.ine.add.PTCONT.1905308,BC DO TERREIRO,,6360-110,MINHOCAL,-7.346139750974705,40.69031440012409
pt.ine.add.PTCONT.1905309,R DAS QUELHAS,,6360-110,MINHOCAL,-7.346542870997634,40.69124466148204
pt.ine.add.PTCONT.1905310,R DA LIBERDADE,,6360-120,PRADOS,-7.377669284401695,40.5600861247171
pt.ine.add.PTCONT.1905356,R DO JOGO DA BOLA,,6360-150,SALGUEIRAIS,-7.430101815756903,40.568350681087196
pt.ine.add.PTCONT.1905357,ESTR DO SEIXAL,,6360-150,SALGUEIRAIS,-7.425330208680043,40.575156490934944
pt.ine.add.PTCONT.1905398,R DA FONTE PIPA,,6360-397,CELORICO DA BEIRA,-7.395762801862473,40.63922318766633
pt.ine.add.PTCONT.1905433,LG OUTEIRO,3,6360-308,CELORICO DA BEIRA,-7.388742009792977,40.64125831917595
pt.ine.add.PTCONT.1905434,R 25 ABRIL,,6360-329,CELORICO DA BEIRA,-7.389680579792298,40.63231330804329
pt.ine.add.PTCONT.1905435,R 25 DE ABRIL,29,6360-329,CELORICO DA BEIRA,-7.389680579792298,40.63231330804329
pt.ine.add.PTCONT.1905436,R 25 DE ABRIL,29,6360-329,CELORICO DA BEIRA,-7.389680579792298,40.63231330804329
pt.ine.add.PTCONT.1905437,R 25 DE ABRIL,29,6360-329,CELORICO DA BEIRA,-7.389680579792298,40.63231330804329
pt.ine.add.PTCONT.1905480,R 25 DE ABRIL,5,6360-329,CELORICO DA BEIRA,-7.391439633506289,40.63571053365163
pt.ine.add.PTCONT.1905481,R DOS SANTOS,33,6360-180,VALE DE AZARES,-7.36439540012281,40.60672634732982
pt.ine.add.PTCONT.1905482,R DO CASTELO,18,6360-180,VALE DE AZARES,-7.365003244390119,40.60523554022292
pt.ine.add.PTCONT.1905483,R DO CASTELO,21,6360-180,VALE DE AZARES,-7.365040027545654,40.60511871816753
pt.ine.add.PTCONT.1905524,R NSA SRA DE AZARES,8,6360-181,VALE DE AZARES,-7.370580884621901,40.598923878770414
pt.ine.add.PTCONT.1905525,R DO FORNO,8,6360-183,VALE DE AZARES,-7.364843830651637,40.594392295237924
pt.ine.add.PTCONT.1905526,R DA ESCOLA,,6360-190,VELOSA,-7.291685276268479,40.65078560083576
pt.ine.add.PTCONT.1905561,EN 17,,6360-220,CASAS DO SOEIRO,-7.408755485459423,40.615054659870694
pt.ine.add.PTCONT.1905562,R NOVA,,6360-220,CASAS DO SOEIRO,-7.4052891948024735,40.62085918152671
pt.ine.add.PTCONT.1905563,LOTEAM DE S FRANCISCO,,6360-220,CASAS DO SOEIRO,-7.406017361088065,40.61800914524322
pt.ine.add.PTCONT.1905817,R DO RAMALHAL,,6360-011,AÇORES,-7.322314138016031,40.65023930277178
pt.ine.add.PTCONT.1905818,ESTR DIREITA,,6360-010,AÇORES,-7.305757978130946,40.64575441719651
pt.ine.add.PTCONT.1905819,ESTR DIREITA,18,6360-010,AÇORES,-7.306242763736032,40.64574888459661
pt.ine.add.PTCONT.1905865,QTA NOVA,,6360-010,AÇORES,-7.309392205888268,40.650174860642174
pt.ine.add.PTCONT.1905866,R DO ALAMBIQUE,,6360-020,BARAÇAL CLB,-7.328539315864649,40.68219664711351
pt.ine.add.PTCONT.1905867,R ALBERTO FERNÃO MAGALHÃES OSÓRIO,,6360-020,BARAÇAL CLB,-7.3278926530761055,40.67990486877628
pt.ine.add.PTCONT.1905868,ESTR PRINCIPAL,,6360-030,CADAFAZ CLB,-7.3529840673060995,40.58517257673785
pt.ine.add.PTCONT.1905932,R 25 DE ABRIL,5,6360-329,CELORICO DA BEIRA,-7.391439633506289,40.63571053365163
pt.ine.add.PTCONT.1905977,R 25 ABRIL,,6360-329,CELORICO DA BEIRA,-7.391439633506289,40.63571053365163
pt.ine.add.PTCONT.1906059,R DIREITA,,6360-050,CORTIÇÔ DA SERRA,-7.4351799513089185,40.59331683800859
pt.ine.add.PTCONT.1906060,R DA AMOREIRA,,6360-060,FORNO TELHEIRO,-7.3973640685376925,40.68715827538989
pt.ine.add.PTCONT.1906061,EN 102,,6360-061,FORNO TELHEIRO,-7.381547444805977,40.66295894277034
pt.ine.add.PTCONT.1906062,AV COMERCIO,,6360-060,FORNO TELHEIRO,-7.381547444805977,40.66295894277034
pt.ine.add.PTCONT.1906104,R DO FORNO,,6360-060,FORNO TELHEIRO,-7.375880232225498,40.65588897207061
pt.ine.add.PTCONT.1906105,QTA DA TORRE,,6360-060,FORNO TELHEIRO,-7.378132025196613,40.66172097983707
pt.ine.add.PTCONT.1906106,R DA FONTE NOVA,12,6360-516,LAJEOSA DO MONDEGO,-7.3396215439753725,40.62742362388606
pt.ine.add.PTCONT.1906164,,,6360-517,LAJEOSA DO MONDEGO,-7.328421301668804,40.625094852937245
pt.ine.add.PTCONT.1906165,R DO ARCO,,6360-080,LINHARES CLB,-7.4618888682652935,40.540200268288594
pt.ine.add.PTCONT.1906166,R DAS ALMINHAS,,6360-090,MAÇAL DO CHÃO,-7.303252643498407,40.691463882735526
pt.ine.add.PTCONT.1906167,R DAS QUINTAS,,6360-090,MAÇAL DO CHÃO,-7.301820358941431,40.692480145134596
pt.ine.add.PTCONT.1906213,BR DA SAUDADE,5,6360-100,MESQUITELA CLB,-7.486020361843972,40.587561357954385
pt.ine.add.PTCONT.1906214,R DO EIRÓ,,6360-110,MINHOCAL,-7.347056449837516,40.68881681155908
pt.ine.add.PTCONT.1906215,QTA DO CHAPARRAL,,6360-110,MINHOCAL,-7.341788812907653,40.69209466153883
pt.ine.add.PTCONT.1906216,R DOS EMIGRANTES,,6360-120,PRADOS,-7.376499579356321,40.56120412001326
pt.ine.add.PTCONT.1906275,TV DO RIBEIRO,3,6360-140,RATOEIRA,-7.352407908407418,40.64078425882936
pt.ine.add.PTCONT.1906276,BR NSA SRA DE FÁTIMA,,6360-140,RATOEIRA,-7.354523171768287,40.63779985093961
pt.ine.add.PTCONT.1906277,R DAS LAGINHAS,,6360-317,CELORICO DA BEIRA,-7.409668893403694,40.659626591565456
pt.ine.add.PTCONT.1906318,R POCO,47 A,6360-342,CELORICO DA BEIRA,-7.3893365924902685,40.638812767834146
pt.ine.add.PTCONT.1906319,R POCO,47,6360-342,CELORICO DA BEIRA,-7.3893365924902685,40.638812767834146
pt.ine.add.PTCONT.1906320,R FERNÃO PACHECO,97,6360-347,CELORICO DA BEIRA,-7.392543111794982,40.63747360785785
pt.ine.add.PTCONT.1906321,R DA TORRE DO RELÓGIO,2,6360-339,CELORICO DA BEIRA,-7.391380854176335,40.637817346833934
pt.ine.add.PTCONT.1906322,R DA TORRE DO RELÓGIO,2,6360-339,CELORICO DA BEIRA,-7.391380854176335,40.637817346833934
pt.ine.add.PTCONT.1906379,QTA DAS PEDREIRAS,,6360-370,CELORICO DA BEIRA,-7.379050187966778,40.65054270164334
pt.ine.add.PTCONT.1906380,QTA DOS CARREGAIS,,6360-357,CELORICO DA BEIRA,-7.375803280828816,40.64073294162938
pt.ine.add.PTCONT.1906381,R DAS LAGES,,6360-319,CELORICO DA BEIRA,-7.380769083231209,40.615389033500826
pt.ine.add.PTCONT.1906427,R 25 ABRIL,,6360-329,CELORICO DA BEIRA,-7.390383425042323,40.63715356459177
pt.ine.add.PTCONT.1906428,R DO PICOTO,28,6360-341,CELORICO DA BEIRA,-7.394630484625335,40.635776008293895
pt.ine.add.PTCONT.1906429,R DA FONTE PIPA,,6360-397,CELORICO DA BEIRA,-7.394711324295582,40.63487601605062
pt.ine.add.PTCONT.1906430,R SACADURA CABRAL,1,6360-350,CELORICO DA BEIRA,-7.39208414703035,40.63621895628447
pt.ine.add.PTCONT.1906431,R DR JOSÉ ALBERTO REIS,34,6360-180,VALE DE AZARES,-7.36484578280608,40.60454109799973
pt.ine.add.PTCONT.1906432,R DIREITA,4,6360-180,VALE DE AZARES,-7.365253752939342,40.60399449805354
pt.ine.add.PTCONT.1906477,R ESCURA,2,6360-181,VALE DE AZARES,-7.369307129562477,40.59977095077178
pt.ine.add.PTCONT.1906478,R DO CALVÁRIO,,6360-190,VELOSA,-7.292246024907254,40.65226651104283
pt.ine.add.PTCONT.1906479,R DOS ARAIS,,6360-200,VIDE ENTRE VINHAS,-7.402645815941465,40.597717307639456
pt.ine.add.PTCONT.1906480,R SOALHEIRO,,6360-210,VILA BOA DO MONDEGO,-7.43721207217334,40.62632394623987
pt.ine.add.PTCONT.1906527,URB TAPADA CRUZ,8,6360-352,CASAS DO SOEIRO,-7.401149133348498,40.63094575292272
pt.ine.add.PTCONT.1906528,EN 17,,6360-220,CASAS DO SOEIRO,-7.4177562436010565,40.60654687580162
pt.ine.add.PTCONT.1906529,AV PRINCIPAL,,6360-220,CASAS DO SOEIRO,-7.404106339800604,40.623130015169316
pt.ine.add.PTCONT.1906530,R DO MEIO,,6360-220,CASAS DO SOEIRO,-7.40720197991958,40.61883606320962
pt.ine.add.PTCONT.1906840,R DA CAPELA,4,6360-010,AÇORES,-7.305969057085858,40.64493647009032
pt.ine.add.PTCONT.1906902,LG DO CHOSSO,,6360-020,BARAÇAL CLB,-7.329228575591336,40.68193129851489
pt.ine.add.PTCONT.1906903,LG DO CHAFARIZ,,6360-031,CADAFAZ CLB,-7.368692602928759,40.582152808664276
pt.ine.add.PTCONT.1906904,R DA AMOREIRA,17,6360-040,CARRAPICHANA,-7.48806232124827,40.56189891784353
pt.ine.add.PTCONT.1906905,R DO CEMITÉRIO NOVO,8,6360-040,CARRAPICHANA,-7.482008163384035,40.55669595077693
pt.ine.add.PTCONT.1906970,R DR FERNANDO CALHEIROS,4,6360-302,CELORICO DA BEIRA,-7.3909065560150475,40.64008358081644
pt.ine.add.PTCONT.1906991,QTA GIMARY,,6360-220,CASAS DO SOEIRO,-7.4002829540954655,40.62368214431726
pt.ine.add.PTCONT.1907022,R DAS PEREIRAS,2,6360-130,RAPA,-7.344107988959117,40.5816182885856
pt.ine.add.PTCONT.1907002,R CASAL CELORICO,CELORICO,6360-050,CORTIÇÔ DA SERRA,-7.437067094703916,40.59474203678232
pt.ine.add.PTCONT.1907015,R DA IGREJA,,6360-080,LINHARES CLB,-7.4608592916996885,40.5404644401669
pt.ine.add.PTCONT.1907024,R DAS VIDEIRAS,11,6360-518,LAJEOSA DO MONDEGO,-7.339904655607639,40.62647102958614
pt.ine.add.PTCONT.1907321,R DA PORTELA,,6360-060,FORNO TELHEIRO,-7.396679332323058,40.67628484928465
pt.ine.add.PTCONT.1907322,R DA ESCOLA,,6360-060,FORNO TELHEIRO,-7.396471600839258,40.67259146091959
pt.ine.add.PTCONT.1907323,R DA ESCOLA VELHA,,6360-060,FORNO TELHEIRO,-7.382034285585764,40.66488919001349
pt.ine.add.PTCONT.1907357,QTA DOS CAMPANÁRIOS,,6360-531,LAJEOSA DO MONDEGO,-7.323029718141856,40.62723638898357
pt.ine.add.PTCONT.1907358,R DO CIMO DO POVO,1 B,6360-140,RATOEIRA,-7.353142484800606,40.639627568614365
pt.ine.add.PTCONT.1907359,LG DA SEDE DA JUNTA,,6360-150,SALGUEIRAIS,-7.425619223623045,40.57014236624711
pt.ine.add.PTCONT.1907360,LG SRA DO OUVIDO,,6360-150,SALGUEIRAIS,-7.423597034070191,40.56929248014199
pt.ine.add.PTCONT.1907361,R DE TRÁS,,6360-317,CELORICO DA BEIRA,-7.409550314582166,40.660751480814724
pt.ine.add.PTCONT.1907362,R DAS LAGINHAS,,6360-317,CELORICO DA BEIRA,-7.410127018244217,40.65990861782594
pt.ine.add.PTCONT.1907363,R DOS BOMBEIROS VOLUNTÁRIOS,1,6360-344,CELORICO DA BEIRA,-7.389343496453561,40.642450865391964
pt.ine.add.PTCONT.1907364,R DOS BOMBEIROS VOLUNTÁRIOS,1,6360-344,CELORICO DA BEIRA,-7.389343496453561,40.642450865391964
pt.ine.add.PTCONT.1907365,R JOSÉ RESENDE,,6360-182,VALE DE AZARES,-7.37032234841749,40.60192088249461
pt.ine.add.PTCONT.1907366,R DA LAGARETA,,6360-180,VALE DE AZARES,-7.3612807077393905,40.60940711171927
pt.ine.add.PTCONT.1907367,R DO CASTELO,,6360-180,VALE DE AZARES,-7.366566854948349,40.60488572309833
pt.ine.add.PTCONT.1907368,R DO CASTELO,10,6360-183,VALE DE AZARES,-7.36483908935318,40.5948065003628
pt.ine.add.PTCONT.1907369,R DA BARREIRINHA,,6360-190,VELOSA,-7.290976334350387,40.65168994088937
pt.ine.add.PTCONT.1907370,R DA CARREIRA,,6360-190,VELOSA,-7.2910063184310445,40.65118587774642
pt.ine.add.PTCONT.1907371,EM 1102,,6360-190,VELOSA,-7.285875354836906,40.65583095830637
pt.ine.add.PTCONT.1907372,R DA PORTELA,,6360-200,VIDE ENTRE VINHAS,-7.400155015796252,40.5975394357517
pt.ine.add.PTCONT.1907398,R DIREITA,,6360-010,AÇORES,-7.306055067550713,40.64563047479305
pt.ine.add.PTCONT.1907399,R DAS LARANJEIRAS,,6360-010,AÇORES,-7.3072080616599155,40.64512543950402
pt.ine.add.PTCONT.1907400,QTA DOS CAMPANÁRIOS,,6360-531,LAJEOSA DO MONDEGO,-7.321996805771883,40.62664380856772
pt.ine.add.PTCONT.1907401,R DA AMIEIRA,,6360-110,MINHOCAL,-7.345857820914332,40.691149942085474
pt.ine.add.PTCONT.1907402,R SENHORA-A-NOVA,,6360-302,CELORICO DA BEIRA,-7.390474961904763,40.643826919411296
pt.ine.add.PTCONT.1907403,R DE STA LUZIA,11,6360-311,CELORICO DA BEIRA,-7.3902351794902,40.63986314174655
pt.ine.add.PTCONT.1907404,R 31 DE JANEIRO,,6360-330,CELORICO DA BEIRA,-7.3909604670064795,40.63841798666493
pt.ine.add.PTCONT.1907405,R DA PORTELA,45,6360-200,VIDE ENTRE VINHAS,-7.400589151799949,40.597812344401554
pt.ine.add.PTCONT.1907406,R DA PORTELA,,6360-200,VIDE ENTRE VINHAS,-7.402742913372987,40.59639416415119
pt.ine.add.PTCONT.1907407,R DE STO ANTÓNIO,,6360-210,VILA BOA DO MONDEGO,-7.4381001222180725,40.6261672019016
pt.ine.add.PTCONT.1907408,URB CELURBA,,6360-220,CASAS DO SOEIRO,-7.402109613524234,40.630663673472085
pt.ine.add.PTCONT.1907409,AV DAS CASAS DO SOEIRO,,6360-220,CASAS DO SOEIRO,-7.403691316407163,40.62434308480255
pt.ine.add.PTCONT.1907450,QTA GERMANO,,6360-030,CADAFAZ CLB,-7.35571826792921,40.59080122016416
pt.ine.add.PTCONT.1907451,QTA DE S JOÃO,,6360-110,MINHOCAL,-7.353093361672127,40.69459393747661
pt.ine.add.PTCONT.1907452,R DO BARREIRO,,6360-120,PRADOS,-7.378118273449976,40.56216025598204
pt.ine.add.PTCONT.1907453,R LIGA AMIGOS PRADOS,,6360-120,PRADOS,-7.3774101500874805,40.56003039869588
pt.ine.add.PTCONT.1907454,R DOS MOINHOS,,6360-130,RAPA,-7.343982160967134,40.587299680878154
pt.ine.add.PTCONT.1907455,R DO CEMITÉRIO,8,6360-140,RATOEIRA,-7.349316148906725,40.64334776907071
pt.ine.add.PTCONT.1907456,QTA ALDEIA DO MOURO,,6360-319,CELORICO DA BEIRA,-7.38915904710821,40.617532570462295
pt.ine.add.PTCONT.1907457,R MAXIMIANO ANTÓNIO DA COSTA,9,6360-348,CELORICO DA BEIRA,-7.389200446080194,40.63829860100993
pt.ine.add.PTCONT.1907458,AV DA CORREDOURA,10,6360-346,CELORICO DA BEIRA,-7.395640798146685,40.630973743957114
pt.ine.add.PTCONT.1907459,LOTEAM DE S FRANCISCO,30,6360-220,CASAS DO SOEIRO,-7.404805015205608,40.618649875059155
pt.ine.add.PTCONT.1907966,R DE S PEDRO,6,6360-292,CELORICO DA BEIRA,-7.392996963563584,40.63598167274005
pt.ine.add.PTCONT.1907968,R DA CALÇADA,,6360-082,LINHARES CLB,-7.460999952779947,40.561816685742706
pt.ine.add.PTCONT.1907969,R DE BAIXO,11,6360-310,CELORICO DA BEIRA,-7.392814079165466,40.637556391047276
pt.ine.add.PTCONT.1907986,R DO JOGO DA BOLA,,6360-150,SALGUEIRAIS,-7.426562794957155,40.56880208847648
pt.ine.add.PTCONT.1908011,R DAS BOICINHAS,,6360-140,RATOEIRA,-7.35305856482907,40.64074363055701
pt.ine.add.PTCONT.1908017,AV DA CORREDOURA,10,6360-346,CELORICO DA BEIRA,-7.395640798146685,40.630973743957114
pt.ine.add.PTCONT.1908099,R DO CORREIO,8,6360-180,VALE DE AZARES,-7.364837474246725,40.604234868320766
pt.ine.add.PTCONT.1908100,R DA FONTE,,6360-181,VALE DE AZARES,-7.370081246648081,40.59922675388784
pt.ine.add.PTCONT.1908101,LG DO EIRÓ,,6360-210,VILA BOA DO MONDEGO,-7.436339699851421,40.62724621330512
pt.ine.add.PTCONT.1908102,R DO CRUZEIRO,,6360-210,VILA BOA DO MONDEGO,-7.43895122184119,40.62615431053716
pt.ine.add.PTCONT.1908152,R AMÁLIA RODRIGUES,,6360-352,CASAS DO SOEIRO,-7.399854267353736,40.62829904353763
pt.ine.add.PTCONT.1908153,EN 17,,6360-220,CASAS DO SOEIRO,-7.4163209475952305,40.609284545051224
pt.ine.add.PTCONT.1908154,AV CASAS SOEIRO,42,6360-220,CASAS DO SOEIRO,-7.405581787759472,40.62221179254936
pt.ine.add.PTCONT.1908155,BR QTA DO CAPITÃO,16,6360-220,CASAS DO SOEIRO,-7.403718254431566,40.6218668487699
pt.ine.add.PTCONT.1908156,BR QTA DO CAPITÃO,16,6360-220,CASAS DO SOEIRO,-7.403718254431566,40.6218668487699
pt.ine.add.PTCONT.1908568,BR NOVO,,6360-020,BARAÇAL CLB,-7.329455003957522,40.68376088942356
pt.ine.add.PTCONT.1908569,R PRINCIPAL,,6360-021,BARAÇAL CLB,-7.337749536506354,40.666645772323754
pt.ine.add.PTCONT.1908570,BC DA OLIVEIRA,,6360-031,CADAFAZ CLB,-7.36934640072972,40.58282351561498
pt.ine.add.PTCONT.1908626,QTA DA RIBEIRA,,6360-060,FORNO TELHEIRO,-7.4000989133227915,40.686959551583826
pt.ine.add.PTCONT.1908627,EN 16,18,6360-517,LAJEOSA DO MONDEGO,-7.342671236896797,40.62939864158215
pt.ine.add.PTCONT.1908679,R DIREITA,,6360-101,MESQUITELA CLB,-7.470331019926332,40.595018743524705
pt.ine.add.PTCONT.1908675,R DE S PEDRO,,6360-080,LINHARES CLB,-7.461267258424652,40.539800424026105
pt.ine.add.PTCONT.1908676,R DAS LAGES,,6360-090,MAÇAL DO CHÃO,-7.301752670743027,40.694118562635055
pt.ine.add.PTCONT.1908677,R DA LAPA,,6360-090,MAÇAL DO CHÃO,-7.302319859175248,40.693222148645205
pt.ine.add.PTCONT.1908678,R DIREITA,,6360-090,MAÇAL DO CHÃO,-7.300940041571515,40.69287002158859
pt.ine.add.PTCONT.1908727,R DOS EMIGRANTES,18,6360-100,MESQUITELA CLB,-7.49050341132886,40.588144706902746
pt.ine.add.PTCONT.1908728,R DO GALGARO,2,6360-100,MESQUITELA CLB,-7.489076791421679,40.58786660576325
pt.ine.add.PTCONT.1908729,LG DAS LAGES,,6360-130,RAPA,-7.343063280298025,40.5860867095734
pt.ine.add.PTCONT.1908730,R DO RAMALHAL,,6360-140,RATOEIRA,-7.347200827328887,40.642270794076474
pt.ine.add.PTCONT.1908782,LG SENHORA DO OUVIDO,,6360-150,SALGUEIRAIS,-7.4237202506867765,40.56880695590957
pt.ine.add.PTCONT.1908783,LG DO ROSSIO,,6360-317,CELORICO DA BEIRA,-7.4110703802316715,40.66234588620265
pt.ine.add.PTCONT.1908840,R DOS LOUREIROS,5,6360-345,CELORICO DA BEIRA,-7.389919520582592,40.639545932732496
pt.ine.add.PTCONT.1908841,EN 16,,6360-357,CELORICO DA BEIRA,-7.376164613456465,40.640140975570056
pt.ine.add.PTCONT.1908842,AV DA CORREDOURA,8,6360-346,CELORICO DA BEIRA,-7.399028844924309,40.62812270268304
pt.ine.add.PTCONT.1908843,QTA DA FORNEA,,6360-300,CELORICO DA BEIRA,-7.37746122988952,40.623697165308826
pt.ine.add.PTCONT.1908942,R DE BAIXO,8,6360-310,CELORICO DA BEIRA,-7.392232902007057,40.6377327655985
pt.ine.add.PTCONT.1908958,QTA DE AMIAIS,,6360-120,PRADOS,-7.39103815670847,40.565161654300354
pt.ine.add.PTCONT.1908967,R MIGUEL TORGA,13,6360-323,CELORICO DA BEIRA,-7.393889606237066,40.632214256140394
pt.ine.add.PTCONT.1909000,CELORICO DA BEIRA,,6360-302,CELORICO DA BEIRA,-7.377933428625995,40.64262895273351
pt.ine.add.PTCONT.1909001,TV DA ESCOLA NOVA,,6360-150,SALGUEIRAIS,-7.423351916222764,40.56902081833069
pt.ine.add.PTCONT.1909223,R DIREITA,7,6360-010,AÇORES,-7.305747602397594,40.64563727725049
pt.ine.add.PTCONT.1909224,EN 102,,6360-060,FORNO TELHEIRO,-7.381201470065667,40.6674412009636
pt.ine.add.PTCONT.1909225,LG DO EIRÓ,,6360-210,VILA BOA DO MONDEGO,-7.436543045602126,40.6270133069466
pt.ine.add.PTCONT.1909227,R ESCURA,1,6360-010,AÇORES,-7.305683458197993,40.64508750977356
pt.ine.add.PTCONT.1909228,LG DA FEIRA,9,6360-040,CARRAPICHANA,-7.486691751175434,40.56199031462439
pt.ine.add.PTCONT.1909229,R MALVAR,,6360-210,VILA BOA DO MONDEGO,-7.438423599902098,40.625745907560045
pt.ine.add.PTCONT.1909230,R DO COMÉRCIO,,6360-060,FORNO TELHEIRO,-7.381535313975271,40.66509305911193
pt.ine.add.PTCONT.1909231,R DOS ESTADOS UNIDOS DA AMÉRICA,,6360-120,PRADOS,-7.378396580139843,40.562612334410666
pt.ine.add.PTCONT.1909232,R DOS COMBATENTES DA GRANDE GUERRA,,6360-120,PRADOS,-7.378328065171127,40.56240476722026
pt.ine.add.PTCONT.1909233,R DA GERINGOTA,,6360-210,VILA BOA DO MONDEGO,-7.438111373438297,40.625694097416115
pt.ine.add.PTCONT.1909234,ESTR GROSSA,,6360-052,CORTIÇÔ DA SERRA,-7.4305361401821965,40.611488100133954
pt.ine.add.PTCONT.1909235,R DIREITA,,6360-052,CORTIÇÔ DA SERRA,-7.430621706355632,40.61234410879412
pt.ine.add.PTCONT.1909236,,,6360-517,LAJEOSA DO MONDEGO,-7.326795122920128,40.62567784603391
pt.ine.add.PTCONT.1909237,R DAS LAGES,,6360-338,CELORICO DA BEIRA,-7.410267229891422,40.65458750355887
pt.ine.add.PTCONT.1909238,CAM DO CARRIL,,6360-300,CELORICO DA BEIRA,-7.388816116121102,40.62926401696264
pt.ine.add.PTCONT.1909241,R DO EIRÓ,,6360-060,FORNO TELHEIRO,-7.375444705049213,40.65571501905173
pt.ine.add.PTCONT.1909242,EN 16,,6360-517,LAJEOSA DO MONDEGO,-7.315379275942121,40.62170738012036
pt.ine.add.PTCONT.1909243,R NSA SRA DA CONCEIÇÃO,,6360-020,BARAÇAL CLB,-7.328236644942569,40.68080776752891
pt.ine.add.PTCONT.1909244,TAPADA DAS CABEÇAS,,6360-050,CORTIÇÔ DA SERRA,-7.439448427796924,40.59408097465528
pt.ine.add.PTCONT.1909245,R DOS LOUREIROS,3,6360-345,CELORICO DA BEIRA,-7.389978922509818,40.63951929976503
pt.ine.add.PTCONT.1909246,R MARIA JOSÉ FURTADO DE MENDONÇA,18,6360-130,RAPA,-7.346012448210873,40.584395864257246
pt.ine.add.PTCONT.1909248,R DO CEMITÉRIO,2,6360-220,CASAS DO SOEIRO,-7.408492494618741,40.61970865904437
pt.ine.add.PTCONT.1909249,QTA DAS PRESINHAS,,6360-060,FORNO TELHEIRO,-7.379606865244926,40.679875754253395
pt.ine.add.PTCONT.1909250,R DA FONTE,14,6360-103,MESQUITELA CLB,-7.477773137136234,40.57690673920689
pt.ine.add.PTCONT.1909251,LG DA QUINTA,4,6360-130,RAPA,-7.344757652524672,40.58161371911522
pt.ine.add.PTCONT.1909252,R PRINCIPAL,,6360-220,CASAS DO SOEIRO,-7.407082836384158,40.61892536548706
pt.ine.add.PTCONT.1909254,R DO CIMO DO POVO,,6360-031,CADAFAZ CLB,-7.370026451284272,40.58222466405209
pt.ine.add.PTCONT.1909255,R 5 DE OUTUBRO,,6360-110,MINHOCAL,-7.3462686024134465,40.69042333830303
pt.ine.add.PTCONT.1909256,R FERNÃO PACHECO,73 A,6360-347,CELORICO DA BEIRA,-7.392878849047524,40.637043516223414
pt.ine.add.PTCONT.1909257,R MAXIMIANO ANTÓNIO DA COSTA,2,6360-348,CELORICO DA BEIRA,-7.389114828908079,40.63962179684114
pt.ine.add.PTCONT.1909258,R LAGES,6,6360-338,CELORICO DA BEIRA,-7.389257574287798,40.63954167067799
pt.ine.add.PTCONT.1909259,R DA FONTE DA PRAÇA,,6360-060,FORNO TELHEIRO,-7.39745214596914,40.67376836725464
pt.ine.add.PTCONT.1909260,EN 16,,6360-517,LAJEOSA DO MONDEGO,-7.324775992618616,40.626501203528235
pt.ine.add.PTCONT.1909261,R DA AMOREIRA,7,6360-140,RATOEIRA,-7.34894839609816,40.64143619829443
pt.ine.add.PTCONT.1909262,CAM DE MUXAGATA,,6360-182,VALE DE AZARES,-7.3741732368933794,40.60407146226029
pt.ine.add.PTCONT.1909264,R DO PAÇO,,6360-011,AÇORES,-7.324406390192483,40.64831788982916
pt.ine.add.PTCONT.1909265,R DA FONTE DA PRAÇA,,6360-060,FORNO TELHEIRO,-7.397794027237225,40.67386960048306
pt.ine.add.PTCONT.1909266,LG DIOGO OSÓRIO LEITE,19,6360-498,LAJEOSA DO MONDEGO,-7.337246087998501,40.627407277722305
pt.ine.add.PTCONT.1909267,R DA FONTE,,6360-110,MINHOCAL,-7.346883035628238,40.68847344089881
pt.ine.add.PTCONT.1909268,EN 102,,6360-060,FORNO TELHEIRO,-7.380788707521974,40.673651985126384
pt.ine.add.PTCONT.1909269,R DIREITA,,6360-090,MAÇAL DO CHÃO,-7.30068836931479,40.69312935134319
pt.ine.add.PTCONT.1909270,QTA DE S JOÃO,,6360-110,MINHOCAL,-7.3522590391493665,40.691067346184994
pt.ine.add.PTCONT.1909917,R DO RIBEIRO,13,6360-140,RATOEIRA,-7.35131631744714,40.64112807141804
pt.ine.add.PTCONT.1909921,BC PAROQUIAL,,6360-080,LINHARES CLB,-7.461475847116152,40.540188862866245
pt.ine.add.PTCONT.1909922,R DO OUTEIRO,,6360-120,PRADOS,-7.376425843217935,40.56250939090745
pt.ine.add.PTCONT.1909967,TV DA PEDRA DA PACIÊNCIA,2,6360-101,MESQUITELA CLB,-7.469608033914126,40.59525773248105
pt.ine.add.PTCONT.1909968,QTA DE S NICOLAU,,6360-110,MINHOCAL,-7.341163157706,40.68098721139102
pt.ine.add.PTCONT.1909969,R DA PRAÇA,,6360-120,PRADOS,-7.375707552571626,40.56233358511131
pt.ine.add.PTCONT.1910022,LG PROF LAURINDINHA,,6360-120,PRADOS,-7.377573882828614,40.56122015617251
pt.ine.add.PTCONT.1910023,R DA EIRA DE CIMA,,6360-150,SALGUEIRAIS,-7.428400041570827,40.56847539046107
pt.ine.add.PTCONT.1910079,R DAS LAGES,,6360-338,CELORICO DA BEIRA,-7.41088174394813,40.6546183640273
pt.ine.add.PTCONT.1910080,R DA MISERICÓRDIA,5,6360-309,CELORICO DA BEIRA,-7.3893430431480915,40.64036168374601
pt.ine.add.PTCONT.1910081,R DE BAIXO,15,6360-310,CELORICO DA BEIRA,-7.3927652070338095,40.63770015913544
pt.ine.add.PTCONT.1910082,R FERNÃO PACHECO,30,6360-347,CELORICO DA BEIRA,-7.3930115543697426,40.636801229403765
pt.ine.add.PTCONT.1910125,PCT DO ESCORIAL,1,6360-359,CELORICO DA BEIRA,-7.389950885083038,40.6313875230051
pt.ine.add.PTCONT.1910126,QTA DO CARRIL,,6360-300,CELORICO DA BEIRA,-7.3868194859864955,40.62706289202005
pt.ine.add.PTCONT.1910127,R AMADEU BARREIRO,9,6360-296,CELORICO DA BEIRA,-7.391279619395606,40.63308001895275
pt.ine.add.PTCONT.1910128,R AMADEU BARREIRO,3,6360-296,CELORICO DA BEIRA,-7.391279619395606,40.63308001895275
pt.ine.add.PTCONT.1910129,R AMADEU BARREIRO,9,6360-296,CELORICO DA BEIRA,-7.391279619395606,40.63308001895275
pt.ine.add.PTCONT.1910130,R AMADEU BARREIRO,9,6360-296,CELORICO DA BEIRA,-7.391279619395606,40.63308001895275
pt.ine.add.PTCONT.1910131,R AMADEU BARREIRO,9,6360-296,CELORICO DA BEIRA,-7.391279619395606,40.63308001895275
pt.ine.add.PTCONT.1910181,R AMADEU BARREIRO,9,6360-296,CELORICO DA BEIRA,-7.391279619395606,40.63308001895275
pt.ine.add.PTCONT.1910182,R AMADEU BARREIRO,9,6360-296,CELORICO DA BEIRA,-7.391279619395606,40.63308001895275
pt.ine.add.PTCONT.1910183,R AMADEU BARREIRO,9,6360-296,CELORICO DA BEIRA,-7.391279619395606,40.63308001895275
pt.ine.add.PTCONT.1910184,R MAXIMIANO ANTONIO COSTA,28,6360-348,CELORICO DA BEIRA,-7.3949379256777314,40.63147353879275
pt.ine.add.PTCONT.1910185,AV S EUFEMIA,53,6360-346,CELORICO DA BEIRA,-7.3949379256777314,40.63147353879275
pt.ine.add.PTCONT.1910186,R DE S PEDRO,9,6360-292,CELORICO DA BEIRA,-7.392807647032775,40.635998469429374
pt.ine.add.PTCONT.1910232,R DA CAPELA,,6360-190,VELOSA,-7.291592792485221,40.651559359713104
pt.ine.add.PTCONT.1910233,QTA DA VINHA DA PORTA,,6360-210,VILA BOA DO MONDEGO,-7.438205295519748,40.62856319596815
pt.ine.add.PTCONT.1910234,R DA AMOREIRA,,6360-210,VILA BOA DO MONDEGO,-7.438012633213578,40.62662593639957
pt.ine.add.PTCONT.1910293,R AMÁLIA RODRIGUES,14,6360-352,CASAS DO SOEIRO,-7.400038834092443,40.62871445005529
pt.ine.add.PTCONT.1910294,AV DAS CASAS DO SOEIRO,20,6360-220,CASAS DO SOEIRO,-7.403613196332956,40.62391935111592
pt.ine.add.PTCONT.1910295,EN 17,,6360-220,CASAS DO SOEIRO,-7.413736604926166,40.608971307728574
pt.ine.add.PTCONT.1910296,R DA IGREJA,,6360-220,CASAS DO SOEIRO,-7.407072599854408,40.61987083874411
pt.ine.add.PTCONT.1910297,R DO OUTEIRO,4,6360-220,CASAS DO SOEIRO,-7.406312405082929,40.620226261957136
pt.ine.add.PTCONT.1910298,R DO OUTEIRO,4,6360-220,CASAS DO SOEIRO,-7.406312405082929,40.620226261957136
pt.ine.add.PTCONT.1910580,R DO RAMALHAL,,6360-011,AÇORES,-7.32355677179772,40.65013996095844
pt.ine.add.PTCONT.1910630,R NOVA DA AMENDOEIRA,24,6360-010,AÇORES,-7.303200445486998,40.6460692509526
pt.ine.add.PTCONT.1910631,R DO FORNO,,6360-020,BARAÇAL CLB,-7.327445724751944,40.68165772584162
pt.ine.add.PTCONT.1910632,R DA FONTE VELHA,,6360-031,CADAFAZ CLB,-7.371133556121108,40.582502127356385
pt.ine.add.PTCONT.1910633,R DA PROCISSÃO,11,6360-040,CARRAPICHANA,-7.4890055904147514,40.562039259266946
pt.ine.add.PTCONT.1910682,R DA AMOREIRA,5,6360-040,CARRAPICHANA,-7.4879335676918215,40.56178113084838
pt.ine.add.PTCONT.1910683,R DIREITA,,6360-050,CORTIÇÔ DA SERRA,-7.43516523622706,40.593595909318715
pt.ine.add.PTCONT.1910684,EN 102,,6360-060,FORNO TELHEIRO,-7.381390048802083,40.671710815421534
pt.ine.add.PTCONT.1910724,R DO FORNO,,6360-060,FORNO TELHEIRO,-7.375939145204206,40.65590736851267
pt.ine.add.PTCONT.1910783,BC DAS ESCADINHAS,,6360-080,LINHARES CLB,-7.462832494084467,40.54026878319288
pt.ine.add.PTCONT.1910784,BR DA CORREDOURA,1,6360-080,LINHARES CLB,-7.459383799499522,40.540464851042444
pt.ine.add.PTCONT.1910785,R DAS LAGES,,6360-090,MAÇAL DO CHÃO,-7.303438756104001,40.69458094113882
pt.ine.add.PTCONT.1910786,R DIREITA,,6360-090,MAÇAL DO CHÃO,-7.29993799984246,40.69258363993168
pt.ine.add.PTCONT.1910787,QTA DOS MALHÕES DE CIMA,,6360-090,MAÇAL DO CHÃO,-7.298231411641224,40.701351151848016
pt.ine.add.PTCONT.1910886,R DA CALÇADA,,6360-060,FORNO TELHEIRO,-7.398272922194558,40.67334135244755
pt.ine.add.PTCONT.1911140,R DO MEIO,10,6360-521,LAJEOSA DO MONDEGO,-7.338400137479709,40.62676685895324
pt.ine.add.PTCONT.1911141,R DIREITA,,6360-090,MAÇAL DO CHÃO,-7.299901838073095,40.692637408777635
pt.ine.add.PTCONT.1911142,EN 16,,6360-140,RATOEIRA,-7.362855730212625,40.63893634013953
pt.ine.add.PTCONT.1911143,R DA JUNTA DE FREGUESIA,,6360-120,PRADOS,-7.376598080059702,40.562942768415866
pt.ine.add.PTCONT.1911144,R DO RAMALHAL,,6360-140,RATOEIRA,-7.346218323583139,40.64238116894473
pt.ine.add.PTCONT.1911146,EN 16,,6360-210,VILA BOA DO MONDEGO,-7.449829757885176,40.62797518475775
pt.ine.add.PTCONT.1911149,LG DO CALVÁRIO,1,6360-040,CARRAPICHANA,-7.4852268086082985,40.559622737248354
pt.ine.add.PTCONT.1911150,R DO CALVÁRIO,4,6360-101,MESQUITELA CLB,-7.470557587340734,40.596001607501925
pt.ine.add.PTCONT.1911153,R DA FONTE,,6360-052,CORTIÇÔ DA SERRA,-7.430554395622088,40.61200150410524
pt.ine.add.PTCONT.1911154,R AMÁLIA RODRIGUES,,6360-352,CASAS DO SOEIRO,-7.400355270903483,40.62787898359909
pt.ine.add.PTCONT.1911155,R QUINTA CEDROS,24,6360-220,CASAS DO SOEIRO,-7.403994791617849,40.623606581969995
pt.ine.add.PTCONT.1911157,LG DA IGREJA,,6360-020,BARAÇAL CLB,-7.329039439235998,40.681920976409124
pt.ine.add.PTCONT.1911158,R 31 DE JANEIRO,9,6360-330,CELORICO DA BEIRA,-7.390824958265441,40.63891239540132
pt.ine.add.PTCONT.1911159,R DO CASTELO,,6360-183,VALE DE AZARES,-7.365272375182614,40.59410698020704
pt.ine.add.PTCONT.1911160,R DO CABO DA ALDEIA,,6360-050,CORTIÇÔ DA SERRA,-7.435228527449412,40.59432571032804
pt.ine.add.PTCONT.1911161,QTA FINA,,6360-060,FORNO TELHEIRO,-7.407243397039205,40.678296835329576
pt.ine.add.PTCONT.1911162,AV PRINCIPAL,,6360-220,CASAS DO SOEIRO,-7.404156645020435,40.622851174181264
pt.ine.add.PTCONT.1911163,SOITO,,6360-083,LINHARES CLB,-7.456395779418006,40.5558733728517
pt.ine.add.PTCONT.1911164,R DA CARREIRA,11,6360-102,MESQUITELA CLB,-7.474677314078608,40.58308471301553
pt.ine.add.PTCONT.1911165,R DA CARREIRA,,6360-102,MESQUITELA CLB,-7.4747178674035055,40.5825626427745
pt.ine.add.PTCONT.1911166,R DO CHÃO DA FONTE,10,6360-360,CELORICO DA BEIRA,-7.394085382923956,40.63589859241905
pt.ine.add.PTCONT.1911167,R DO VALE,,6360-220,CASAS DO SOEIRO,-7.406739756716702,40.618959228697314
pt.ine.add.PTCONT.1911169,R PRINCIPAL,,6360-220,CASAS DO SOEIRO,-7.4072487600525365,40.6188813828389
pt.ine.add.PTCONT.1911171,R DA AMIEIRA,,6360-110,MINHOCAL,-7.3456177332900365,40.69144546928971
pt.ine.add.PTCONT.1911172,R DA PORTELA,20,6360-200,VIDE ENTRE VINHAS,-7.400497693909784,40.597532604642915
pt.ine.add.PTCONT.1911175,BC DA OLIVEIRA,,6360-031,CADAFAZ CLB,-7.369229116015623,40.58275069875321
pt.ine.add.PTCONT.1911176,R DO CASTELO,3,6360-339,CELORICO DA BEIRA,-7.391525884804368,40.63753011549916
pt.ine.add.PTCONT.1911177,R JOSÉ RESENDE,6,6360-182,VALE DE AZARES,-7.37061088359713,40.60356172210576
pt.ine.add.PTCONT.1911179,R DO CANTINHO DO CASTELO,,6360-339,CELORICO DA BEIRA,-7.391870162234224,40.63739724956166
pt.ine.add.PTCONT.1911180,R DA CORREDOURA,46,6360-335,CELORICO DA BEIRA,-7.392657968340091,40.63563730617726
pt.ine.add.PTCONT.1911183,R DAS FONTINHAS,1 A,6360-140,RATOEIRA,-7.352764651965278,40.6395889957035
pt.ine.add.PTCONT.1911185,EN 102,,6360-061,FORNO TELHEIRO,-7.380619731035084,40.67184987799091
pt.ine.add.PTCONT.1911186,R DO MEIO,9,6360-521,LAJEOSA DO MONDEGO,-7.3386309500903675,40.62723671156062
pt.ine.add.PTCONT.1911187,R DA REGADINHA,,6360-120,PRADOS,-7.374683050565994,40.5652265366242
pt.ine.add.PTCONT.1911188,QTA DA VINHA DA PORTA,,6360-210,VILA BOA DO MONDEGO,-7.438138304263272,40.62818457798848
pt.ine.add.PTCONT.1911810,LG ROSSIO,,6360-317,CELORICO DA BEIRA,-7.411686809224985,40.66220565842748
pt.ine.add.PTCONT.1911812,LG DA IGREJA,3 A,6360-140,RATOEIRA,-7.349228089765189,40.641780289839744
pt.ine.add.PTCONT.1911839,R DO SOITO,,6360-083,LINHARES CLB,-7.456109172170336,40.55619588206333
pt.ine.add.PTCONT.1911840,R DO VALE,104,6360-220,CASAS DO SOEIRO,-7.406670611188844,40.61879670161548
pt.ine.add.PTCONT.1911842,ESTR DA SERRA,2,6360-080,LINHARES CLB,-7.460883235159092,40.53806918041494
pt.ine.add.PTCONT.1911861,R DA EIRA DE CIMA,,6360-150,SALGUEIRAIS,-7.4286479163654775,40.5684859074981
pt.ine.add.PTCONT.1911927,R DA JUNTA DE FREGUESIA,,6360-120,PRADOS,-7.375769360913498,40.56313545288565
pt.ine.add.PTCONT.1911928,R DA CARRIÇA,8,6360-130,RAPA,-7.344112075344603,40.58227569298384
pt.ine.add.PTCONT.1911929,R DO CEMITÉRIO,2,6360-140,RATOEIRA,-7.349801096076789,40.64231547711161
pt.ine.add.PTCONT.1912000,R DAS LAGES,,6360-338,CELORICO DA BEIRA,-7.410257350395552,40.65440734037153
pt.ine.add.PTCONT.1912001,R DAS LAGES,,6360-338,CELORICO DA BEIRA,-7.410385364514688,40.654597248096664
pt.ine.add.PTCONT.1912082,R NOVA DO CALVÁRIO,,6360-010,AÇORES,-7.308301165137117,40.64180138382506
pt.ine.add.PTCONT.1912083,R DO POÇO,28,6360-342,CELORICO DA BEIRA,-7.389692201642662,40.63872500685533
pt.ine.add.PTCONT.1912084,R DA NOGUEIRINHA,20,6360-336,CELORICO DA BEIRA,-7.392744966713039,40.63632225082404
pt.ine.add.PTCONT.1912085,R DR ANTÓNIO CARINHAS,,6360-370,CELORICO DA BEIRA,-7.384187529349748,40.644713835572716
pt.ine.add.PTCONT.1912151,EM 581,SN,6360-020,BARAÇAL CLB,-7.3365230762557445,40.68424211437267
pt.ine.add.PTCONT.1912152,R DO LOUREIRO,,6360-020,BARAÇAL CLB,-7.328046772347304,40.68184201861028
pt.ine.add.PTCONT.1912153,,,6360-030,CADAFAZ CLB,-7.372588429544127,40.56771620903576
pt.ine.add.PTCONT.1912154,R DAS BEIRAS,4,6360-180,VALE DE AZARES,-7.362718448784092,40.60665213796746
pt.ine.add.PTCONT.1912155,R DOS SANTOS,16,6360-180,VALE DE AZARES,-7.364177787561946,40.60509497073103
pt.ine.add.PTCONT.1912213,R DA AMOREIRA,9,6360-040,CARRAPICHANA,-7.487708628784989,40.56184291105003
pt.ine.add.PTCONT.1912214,R DA PORTELA,,6360-060,FORNO TELHEIRO,-7.3969325523103135,40.67584521770839
pt.ine.add.PTCONT.1912215,LG DO ROSSIO,,6360-060,FORNO TELHEIRO,-7.399096528186276,40.67373380789156
pt.ine.add.PTCONT.1912216,R DO OUTEIRO,,6360-060,FORNO TELHEIRO,-7.399690335432438,40.67243185136799
pt.ine.add.PTCONT.1912217,R DA FONTE DA CALÇADA,,6360-060,FORNO TELHEIRO,-7.398106560702451,40.673412333780526
pt.ine.add.PTCONT.1912219,R DO CALVÁRIO,,6360-190,VELOSA,-7.291625883873981,40.65174870655361
pt.ine.add.PTCONT.1912220,R DAS LAGES,,6360-200,VIDE ENTRE VINHAS,-7.40532017505441,40.597310947639514
pt.ine.add.PTCONT.1912259,QTA DAS OLAS,,6360-060,FORNO TELHEIRO,-7.3774274859181155,40.67175698832881
pt.ine.add.PTCONT.1912260,QTA DO RIBEIRO VELHO,,6360-060,FORNO TELHEIRO,-7.391171021196484,40.662102667618214
pt.ine.add.PTCONT.1912261,R VIDEIRAS,11,6360-518,LAJEOSA DO MONDEGO,-7.339655411355227,40.626559368257126
pt.ine.add.PTCONT.1912262,EN 16,,6360-517,LAJEOSA DO MONDEGO,-7.324270169534236,40.62336389243224
pt.ine.add.PTCONT.1912263,R DAS LAGES,,6360-082,LINHARES CLB,-7.460562463508031,40.560697491704225
pt.ine.add.PTCONT.1912264,BR DO AMOR,,6360-210,VILA BOA DO MONDEGO,-7.436670679134125,40.62951749877798
pt.ine.add.PTCONT.1912307,R DAS QUINTAS,,6360-090,MAÇAL DO CHÃO,-7.301372178989354,40.692368857328056
pt.ine.add.PTCONT.1912308,TV DO FREIXO,,6360-101,MESQUITELA CLB,-7.469017123183442,40.59528135211643
pt.ine.add.PTCONT.1912309,R DO PARQUE INFANTIL,7,6360-101,MESQUITELA CLB,-7.470121946955502,40.59465733660199
pt.ine.add.PTCONT.1912310,BR DA SAUDADE,2,6360-100,MESQUITELA CLB,-7.4865735103899835,40.587771574781556
pt.ine.add.PTCONT.1912698,R SACADURA CABRAL,71,6360-130,RAPA,-7.345309559954672,40.581887639226856
pt.ine.add.PTCONT.1912748,R SACADURA CABRAL,29,6360-130,RAPA,-7.344901065408372,40.581470615266745
pt.ine.add.PTCONT.1912786,R DO PICOTO,,6360-150,SALGUEIRAIS,-7.42312812490467,40.56784876669672
pt.ine.add.PTCONT.1912826,R DE BAIXO,,6360-310,CELORICO DA BEIRA,-7.3928600666500195,40.637673751988075
pt.ine.add.PTCONT.1912827,R DE STA LUZIA,5,6360-311,CELORICO DA BEIRA,-7.389996871674788,40.640032705027174
pt.ine.add.PTCONT.1912828,R LAGES,1,6360-338,CELORICO DA BEIRA,-7.389440477362609,40.63903856400611
pt.ine.add.PTCONT.1912874,R DA CORREDOURA,50,6360-335,CELORICO DA BEIRA,-7.392622011530229,40.635682101071055
pt.ine.add.PTCONT.1912875,R VERGÍLIO FERREIRA,24,6360-353,CELORICO DA BEIRA,-7.394827074187822,40.63080645290023
pt.ine.add.PTCONT.1912876,R DE S PEDRO,34,6360-292,CELORICO DA BEIRA,-7.3933024905136415,40.63614572209104
pt.ine.add.PTCONT.1912941,R SACADURA CABRAL,8,6360-350,CELORICO DA BEIRA,-7.392692134474415,40.63575459142111
pt.ine.add.PTCONT.1912942,R CHAO,9,6360-360,CELORICO DA BEIRA,-7.393925864020862,40.63535726598879
pt.ine.add.PTCONT.1912943,R ENG CARLOS ALBERTO FARIA DE ALMEIDA,25,6360-181,VALE DE AZARES,-7.36984672149657,40.59907211695504
pt.ine.add.PTCONT.1912944,R DA PORTELA,,6360-200,VIDE ENTRE VINHAS,-7.402273679281887,40.59717464443235
pt.ine.add.PTCONT.1912995,BR QTA DO CAPITÃO,,6360-220,CASAS DO SOEIRO,-7.405378846322336,40.62131000233099
pt.ine.add.PTCONT.1912996,LG DO TERREIRO,,6360-220,CASAS DO SOEIRO,-7.4062858352787755,40.61940662889779
pt.ine.add.PTCONT.1912997,AV DA CARREIRA,,6360-220,CASAS DO SOEIRO,-7.4070804758292805,40.618051853862916
pt.ine.add.PTCONT.1913481,,,6360-083,LINHARES CLB,-7.460611671353327,40.55931997834359
pt.ine.add.PTCONT.1913319,R DO PAÇO,2,6360-011,AÇORES,-7.325815359145313,40.64814764799095
pt.ine.add.PTCONT.1913320,QTA DA PORTELA,,6360-020,BARAÇAL CLB,-7.333362122314959,40.68643548973
pt.ine.add.PTCONT.1913321,R DO FORNO,,6360-020,BARAÇAL CLB,-7.3271716262304745,40.68182690771642
pt.ine.add.PTCONT.1913322,R NSA SRA DA CONCEIÇÃO,,6360-020,BARAÇAL CLB,-7.328450082875399,40.68076423031798
pt.ine.add.PTCONT.1913323,R DE SEIXAIS,,6360-030,CADAFAZ CLB,-7.3600965647478285,40.58398668709668
pt.ine.add.PTCONT.1913369,QTA JOAQUIM VENÂNCIO,,6360-030,CADAFAZ CLB,-7.361419753892723,40.582932925502114
pt.ine.add.PTCONT.1913370,TV DO LOUREIRO,,6360-040,CARRAPICHANA,-7.488047575122678,40.5622050134007
pt.ine.add.PTCONT.1913371,BC DO SOL,2,6360-040,CARRAPICHANA,-7.488427994157336,40.56193697994594
pt.ine.add.PTCONT.1913372,AV DR ANTÓNIO MARQUES FERNANDES,13,6360-040,CARRAPICHANA,-7.486442221471575,40.56092630068142
pt.ine.add.PTCONT.1913415,R DA PORTELA,,6360-060,FORNO TELHEIRO,-7.396866324156977,40.67756475589102
pt.ine.add.PTCONT.1913416,QTA DA AZINHEIRA,,6360-060,FORNO TELHEIRO,-7.38299609639168,40.684589437582964
pt.ine.add.PTCONT.1913479,EN 16,,6360-517,LAJEOSA DO MONDEGO,-7.3302535494003545,40.62605313932298
pt.ine.add.PTCONT.1913480,EN 16,,6360-517,LAJEOSA DO MONDEGO,-7.3233299219175745,40.62488816786083
pt.ine.add.PTCONT.1913482,EM 555,,6360-081,LINHARES CLB,-7.4422835361802,40.55734775291232
pt.ine.add.PTCONT.1913483,LG DO CASTELO,,6360-080,LINHARES CLB,-7.461811487199426,40.540857202551784
pt.ine.add.PTCONT.1913484,R DA IGREJA,,6360-080,LINHARES CLB,-7.461698489086994,40.54035225152471
pt.ine.add.PTCONT.1913536,LG DA CAPELA,17,6360-102,MESQUITELA CLB,-7.474345050587697,40.582038215800466
pt.ine.add.PTCONT.1913537,R NSA SRA DAS DORES,10,6360-102,MESQUITELA CLB,-7.474021072313191,40.58135197268621
pt.ine.add.PTCONT.1913538,LG DA AMOREIRA,4,6360-103,MESQUITELA CLB,-7.477033878698659,40.576416261822594
pt.ine.add.PTCONT.1913539,R DA REGADA,,6360-110,MINHOCAL,-7.342505107731742,40.6865434891048
pt.ine.add.PTCONT.1913588,LG DA ESCOLA,8,6360-140,RATOEIRA,-7.356062977829485,40.64059279020136
pt.ine.add.PTCONT.1913589,LG DA SEDE DA JUNTA,,6360-150,SALGUEIRAIS,-7.425653795168393,40.57022362478495
pt.ine.add.PTCONT.1913662,R DA PORTELA,,6360-030,CADAFAZ CLB,-7.3612088412479775,40.58484061021333
pt.ine.add.PTCONT.1913675,R DE STO ANTÓNIO,,6360-319,CELORICO DA BEIRA,-7.38067758436049,40.615118283874395
pt.ine.add.PTCONT.1913730,R DO RAMALHAL,,6360-011,AÇORES,-7.32369102124889,40.65077125527055
pt.ine.add.PTCONT.1913756,R DR JOSÉ ALBERTO REIS,11,6360-180,VALE DE AZARES,-7.364210084499498,40.604338754903374
pt.ine.add.PTCONT.1913955,R DIREITA,,6360-090,MAÇAL DO CHÃO,-7.301211339247635,40.692935011712244
pt.ine.add.PTCONT.1913956,R ANTERO DA SILVA PEREIRA,19,6360-302,CELORICO DA BEIRA,-7.39126262611051,40.64102239742102
pt.ine.add.PTCONT.1913997,TV UM DOS PENEDOS,,6360-080,LINHARES CLB,-7.462219087661816,40.54022920198541
pt.ine.add.PTCONT.1913957,R ANTERO DA SILVA PEREIRA,19,6360-302,CELORICO DA BEIRA,-7.39126262611051,40.64102239742102
pt.ine.add.PTCONT.1913958,R ANTERO DA SILVA PEREIRA,19,6360-302,CELORICO DA BEIRA,-7.39126262611051,40.64102239742102
pt.ine.add.PTCONT.1913959,R ANTERO DA SILVA PEREIRA,19,6360-302,CELORICO DA BEIRA,-7.39126262611051,40.64102239742102
pt.ine.add.PTCONT.1913960,EN 16,,6360-357,CELORICO DA BEIRA,-7.372355717646911,40.638269904476644
pt.ine.add.PTCONT.1913961,R DO CASTELO,12,6360-180,VALE DE AZARES,-7.3648404211651854,40.60500932905275
pt.ine.add.PTCONT.1913963,EN 17,,6360-150,SALGUEIRAIS,-7.441839959051661,40.587836715859716
pt.ine.add.PTCONT.1913965,LG DA AMOREIRA,33,6360-040,CARRAPICHANA,-7.488652155477403,40.56195624109903
pt.ine.add.PTCONT.1913966,R DO OUTEIRO,,6360-120,PRADOS,-7.376664514937398,40.562285824007624
pt.ine.add.PTCONT.1913967,R DO CANTO,,6360-150,SALGUEIRAIS,-7.424120704783014,40.570025116617266
pt.ine.add.PTCONT.1913968,R DO JOGO DA BOLA,,6360-150,SALGUEIRAIS,-7.426843577167419,40.56918339369365
pt.ine.add.PTCONT.1913969,R IRMÃ MARIA DE JESUS PINTO,2,6360-302,CELORICO DA BEIRA,-7.391114939134406,40.640481143615865
pt.ine.add.PTCONT.1913970,QTA DO CABEÇUDO,,6360-300,CELORICO DA BEIRA,-7.38158633041544,40.6278754349596
pt.ine.add.PTCONT.1913971,R 25 ABRIL,35,6360-329,CELORICO DA BEIRA,-7.389948788588411,40.63157661653319
pt.ine.add.PTCONT.1913972,R 25 DE ABRIL,,6360-329,CELORICO DA BEIRA,-7.38983642604949,40.632116199128454
pt.ine.add.PTCONT.1913973,TV DA BOTICA,2,6360-180,VALE DE AZARES,-7.365632629386963,40.60392497522728
pt.ine.add.PTCONT.1913975,R DAS AZINHEIRAS,,6360-492,LAJEOSA DO MONDEGO,-7.340427310485294,40.62624949106049
pt.ine.add.PTCONT.1913976,LG S EUFEMIA,5,6360-404,CELORICO DA BEIRA,-7.393846700207307,40.63288936366443
pt.ine.add.PTCONT.1913977,R DR FRANCISCO SÁ CARNEIRO,23,6360-353,CELORICO DA BEIRA,-7.3988799385050115,40.62768951104456
pt.ine.add.PTCONT.1913978,R AMÁLIA RODRIGUES,13,6360-352,CASAS DO SOEIRO,-7.399845993904673,40.62905541970631
pt.ine.add.PTCONT.1913980,R DO FORNO,,6360-060,FORNO TELHEIRO,-7.376553144150007,40.655983433579394
pt.ine.add.PTCONT.1913981,ESTR DE VALE DE AZARES,,6360-505,LAJEOSA DO MONDEGO,-7.3414194437643845,40.62330262701346
pt.ine.add.PTCONT.1913982,R DR ANTÓNIO CARLOS BORGES,1,6360-302,CELORICO DA BEIRA,-7.39085658071457,40.640326396842724
pt.ine.add.PTCONT.1913983,R DE BAIXO,,6360-310,CELORICO DA BEIRA,-7.392765704416741,40.63765513688661
pt.ine.add.PTCONT.1913984,QTA DA FORNEA,,6360-298,CELORICO DA BEIRA,-7.380061198410903,40.62475874013016
pt.ine.add.PTCONT.1913986,R PRINCIPAL,,6360-319,CELORICO DA BEIRA,-7.383939190300618,40.61616607073325
pt.ine.add.PTCONT.1913987,R LARGO,,6360-050,CORTIÇÔ DA SERRA,-7.434371924496094,40.5937712163778
pt.ine.add.PTCONT.1913988,R DAS LAGINHAS,,6360-317,CELORICO DA BEIRA,-7.409303515308152,40.65951624103308
pt.ine.add.PTCONT.1913989,R DAS LAGINHAS,,6360-130,RAPA,-7.343915851780268,40.581887130763796
pt.ine.add.PTCONT.1913990,QTA DA LAVANDEIRA,,6360-302,CELORICO DA BEIRA,-7.389042414966765,40.64507840824918
pt.ine.add.PTCONT.1913991,R DO FUNDO DO POVO,,6360-030,CADAFAZ CLB,-7.362962411226738,40.58436603657562
pt.ine.add.PTCONT.1913992,R ESCURA,3,6360-130,RAPA,-7.344697650281732,40.581694356014886
pt.ine.add.PTCONT.1913993,R DO POÇO,22,6360-342,CELORICO DA BEIRA,-7.389798984088377,40.63868967390413
pt.ine.add.PTCONT.1913994,EN 102,,6360-062,FORNO TELHEIRO,-7.377022937877001,40.67930055023059
pt.ine.add.PTCONT.1913995,R DO FORNO,45,6360-513,LAJEOSA DO MONDEGO,-7.338207598665599,40.62805326107025
pt.ine.add.PTCONT.1913996,TV DA SILVEIRA,,6360-499,LAJEOSA DO MONDEGO,-7.333350816359504,40.62698414381376
pt.ine.add.PTCONT.1913999,R DO BARREIRO,,6360-110,MINHOCAL,-7.346518259023003,40.69132553870324
pt.ine.add.PTCONT.1914000,R DAS LAGES,,6360-200,VIDE ENTRE VINHAS,-7.404578884238618,40.597036119763914
pt.ine.add.PTCONT.1914001,R DA CAPELA,,6360-031,CADAFAZ CLB,-7.368632526226103,40.58224246273355
pt.ine.add.PTCONT.1914002,R DO BECO,,6360-200,VIDE ENTRE VINHAS,-7.402908391971851,40.59638620525068
pt.ine.add.PTCONT.1914003,TV DO CASTELO,6,6360-316,CELORICO DA BEIRA,-7.3918560513832565,40.63760427599829
pt.ine.add.PTCONT.1914004,TV DO RIBEIRO,9,6360-140,RATOEIRA,-7.352471522101135,40.640397470871655
pt.ine.add.PTCONT.1914005,QTA DA RIBEIRA,,6360-371,CELORICO DA BEIRA,-7.431079611807738,40.63971344402967
pt.ine.add.PTCONT.1914006,QTA DOS RAMOS,,6360-389,CELORICO DA BEIRA,-7.398570956603735,40.63862873816995
pt.ine.add.PTCONT.1914007,AV DO ESTÁDIO,4,6360-180,VALE DE AZARES,-7.362771835121407,40.60714777594259
pt.ine.add.PTCONT.1914009,AV DAS TÍLIAS,3 A,6360-140,RATOEIRA,-7.353356823400104,40.639493940048126
pt.ine.add.PTCONT.1914010,AV DOS EMIGRANTES,,6360-210,VILA BOA DO MONDEGO,-7.4373247410852255,40.626855927074644
pt.ine.add.PTCONT.1914675,R ANTERO DA SILVA PEREIRA,19,6360-302,CELORICO DA BEIRA,-7.39126262611051,40.64102239742102
pt.ine.add.PTCONT.1914680,LG DA LAMEIRA,18,6360-010,AÇORES,-7.306132068573005,40.64418121358144
pt.ine.add.PTCONT.1914692,R ANTERO DA SILVA PEREIRA,19,6360-302,CELORICO DA BEIRA,-7.39126262611051,40.64102239742102
pt.ine.add.PTCONT.1914698,EN 16,13,6360-517,LAJEOSA DO MONDEGO,-7.333711908886352,40.62643733372099
pt.ine.add.PTCONT.1914788,R SACADURA CABRAL,65,6360-130,RAPA,-7.345653639522326,40.58175490799625
pt.ine.add.PTCONT.1914789,R SACADURA CABRAL,25,6360-130,RAPA,-7.344759343999889,40.58146964812829
pt.ine.add.PTCONT.1914790,R DO RIBEIRO,7,6360-140,RATOEIRA,-7.352247142127943,40.64037794366763
pt.ine.add.PTCONT.1914791,LG DO ROSSIO,,6360-317,CELORICO DA BEIRA,-7.410385755602225,40.66113492546922
pt.ine.add.PTCONT.1914856,R DAS LAMEIRINHAS,,6360-317,CELORICO DA BEIRA,-7.410203545975066,40.6550103430031
pt.ine.add.PTCONT.1914857,LG DO TABULADO,7,6360-305,CELORICO DA BEIRA,-7.389259599157057,40.640424181843485
pt.ine.add.PTCONT.1914858,LG DO TABULADO,7,6360-305,CELORICO DA BEIRA,-7.389259599157057,40.640424181843485
pt.ine.add.PTCONT.1914859,LAD DE BAIXO,1,6360-310,CELORICO DA BEIRA,-7.392099196315194,40.638065095922464
pt.ine.add.PTCONT.1914860,R DAS LAGES,17,6360-338,CELORICO DA BEIRA,-7.389956579761859,40.63940208989011
pt.ine.add.PTCONT.1914861,R DO POÇO,37,6360-342,CELORICO DA BEIRA,-7.389797985298926,40.6387797183248
pt.ine.add.PTCONT.1914910,QTA DOS RAMOS,,6360-389,CELORICO DA BEIRA,-7.415288379269992,40.639517307989564
pt.ine.add.PTCONT.1914911,R 25 DE ABRIL,22A,6360-329,CELORICO DA BEIRA,-7.389947966923536,40.63378285935617
pt.ine.add.PTCONT.1914942,R 25 DE ABRIL,22A,6360-329,CELORICO DA BEIRA,-7.389947966923536,40.63378285935617
pt.ine.add.PTCONT.1914943,R 25 DE ABRIL,22A,6360-329,CELORICO DA BEIRA,-7.389947966923536,40.63378285935617
pt.ine.add.PTCONT.1914944,R 25 ABRIL,,6360-329,CELORICO DA BEIRA,-7.389947966923536,40.63378285935617
pt.ine.add.PTCONT.1914945,R 25 ABRIL,22 B,6360-329,CELORICO DA BEIRA,-7.389947966923536,40.63378285935617
pt.ine.add.PTCONT.1914946,R 25 DE ABRIL,22A,6360-329,CELORICO DA BEIRA,-7.389947966923536,40.63378285935617
pt.ine.add.PTCONT.1914947,R 25 ABRIL,22 B,6360-329,CELORICO DA BEIRA,-7.389947966923536,40.63378285935617
pt.ine.add.PTCONT.1914948,R DE STO ANTÓNIO,,6360-319,CELORICO DA BEIRA,-7.381020555355788,40.61509350246908
pt.ine.add.PTCONT.1914949,R DO SERRADO,12,6360-396,CELORICO DA BEIRA,-7.389319765271826,40.63500350738501
pt.ine.add.PTCONT.1914950,R DAS LAGES,9,6360-338,CELORICO DA BEIRA,-7.389376978232707,40.63943437875715
pt.ine.add.PTCONT.1914951,R MAXIMIANO ANTÓNIO DA COSTA,46,6360-348,CELORICO DA BEIRA,-7.388960162697426,40.63971085109047
pt.ine.add.PTCONT.1914987,R DA FONTE PIPA,,6360-397,CELORICO DA BEIRA,-7.3956350413718175,40.63471982706833
pt.ine.add.PTCONT.1914988,EN 16,,6360-357,CELORICO DA BEIRA,-7.40472316518309,40.63053610587486
pt.ine.add.PTCONT.1915030,QTA DO MONTE VERÃO,,6360-180,VALE DE AZARES,-7.340704862442294,40.597759227543385
pt.ine.add.PTCONT.1915031,R SOALHEIRO,,6360-210,VILA BOA DO MONDEGO,-7.437676627211482,40.62597554498635
pt.ine.add.PTCONT.1915032,R DO VALE,78,6360-220,CASAS DO SOEIRO,-7.407847038291049,40.6192903719279
pt.ine.add.PTCONT.1915291,R DO VALE,,6360-011,AÇORES,-7.323784003747657,40.64992543274206
pt.ine.add.PTCONT.1915292,R DA IGREJA,,6360-011,AÇORES,-7.323537302495824,40.64881608258032
pt.ine.add.PTCONT.1915346,LG DO TERREIRO,,6360-050,CORTIÇÔ DA SERRA,-7.434656924270306,40.593628857404546
pt.ine.add.PTCONT.1915347,R DA AMOREIRA,,6360-060,FORNO TELHEIRO,-7.398197118737497,40.673782116631095
pt.ine.add.PTCONT.1915416,R DO COMÉRCIO,,6360-060,FORNO TELHEIRO,-7.3813531921498585,40.6644615205269
pt.ine.add.PTCONT.1915417,R DO EIRÓ,,6360-060,FORNO TELHEIRO,-7.375675050343072,40.65521224721602
pt.ine.add.PTCONT.1915418,R DA COSTA,24,6360-522,LAJEOSA DO MONDEGO,-7.336141537734767,40.627858919678324
pt.ine.add.PTCONT.1915488,R DO MONTE,53,6360-524,LAJEOSA DO MONDEGO,-7.335579545014513,40.62840435001958
pt.ine.add.PTCONT.1915489,R DO COMÉRCIO,,6360-496,LAJEOSA DO MONDEGO,-7.336517377564696,40.62606950073304
pt.ine.add.PTCONT.1915490,R DAS ESCOLAS,28,6360-494,LAJEOSA DO MONDEGO,-7.341004477019339,40.626415542857984
pt.ine.add.PTCONT.1915491,ESTR DE VALE DE AZARES,,6360-505,LAJEOSA DO MONDEGO,-7.339219654288655,40.62543073747995
pt.ine.add.PTCONT.1915492,R NOVA DO CALVÁRIO,22,6360-505,LAJEOSA DO MONDEGO,-7.34210018311456,40.6237035157462
pt.ine.add.PTCONT.1915493,R XIMENES,,6360-083,LINHARES CLB,-7.455594621770835,40.55804794315808
pt.ine.add.PTCONT.1915494,CC ROMANA,,6360-080,LINHARES CLB,-7.465069733423583,40.540822055923776
pt.ine.add.PTCONT.1915558,TV TRÊS DOS PENEDOS,,6360-080,LINHARES CLB,-7.46209692265274,40.540642734434606
pt.ine.add.PTCONT.1915559,CC ROMANA,,6360-080,LINHARES CLB,-7.464261486291383,40.540196017013294
pt.ine.add.PTCONT.1915560,TV DE S PEDRO,,6360-080,LINHARES CLB,-7.461548531421287,40.53882048592187
pt.ine.add.PTCONT.1915561,R DA ESCOLA,,6360-090,MAÇAL DO CHÃO,-7.30075824162277,40.695119953633366
pt.ine.add.PTCONT.1915562,R DO FREIXO,1,6360-101,MESQUITELA CLB,-7.468969247961299,40.595344113079385
pt.ine.add.PTCONT.1915563,R NSA SRA DAS DORES,51,6360-102,MESQUITELA CLB,-7.472483473417988,40.58037062792238
pt.ine.add.PTCONT.1915564,R NSA SRA DAS DORES,31,6360-102,MESQUITELA CLB,-7.473080751706555,40.58088733855579
pt.ine.add.PTCONT.1915641,R DA AMIEIRA,,6360-110,MINHOCAL,-7.346124001879735,40.69064747744789
pt.ine.add.PTCONT.1915642,R DA LIBERDADE,,6360-120,PRADOS,-7.377918636575876,40.559961682169146
pt.ine.add.PTCONT.1915643,R DA CAPELA,3,6360-130,RAPA,-7.3458868598463205,40.584025797084934
pt.ine.add.PTCONT.1915692,R DAS LAGES,17,6360-338,CELORICO DA BEIRA,-7.389956579761859,40.63940208989011
pt.ine.add.PTCONT.1915720,R DIREITA,,6360-080,LINHARES CLB,-7.461648644058469,40.539433425452984
pt.ine.add.PTCONT.1915731,R DE CIMA,3,6360-102,MESQUITELA CLB,-7.473692325585698,40.58115198212445
pt.ine.add.PTCONT.1915737,EN 16,,6360-357,CELORICO DA BEIRA,-7.383186756913722,40.641177350647645
pt.ine.add.PTCONT.1915743,R 25 DE ABRIL,22A,6360-329,CELORICO DA BEIRA,-7.389947966923536,40.63378285935617
pt.ine.add.PTCONT.1915751,EN 16,11,6360-517,LAJEOSA DO MONDEGO,-7.342624738174314,40.630334851970204
pt.ine.add.PTCONT.1915770,R DE STA LUZIA,3,6360-311,CELORICO DA BEIRA,-7.389938268214368,40.6399873024749
pt.ine.add.PTCONT.1915787,R DO ESTÁDIO,1,6360-180,VALE DE AZARES,-7.360731224477992,40.602739645212694
pt.ine.add.PTCONT.1916068,R SEM SAIDA,,6360-050,CORTIÇÔ DA SERRA,-7.434712051549602,40.59400740778953
pt.ine.add.PTCONT.1916069,TV DO TERREIRO,,6360-050,CORTIÇÔ DA SERRA,-7.434493892415783,40.59340274224772
pt.ine.add.PTCONT.1916070,R DA IGREJA,,6360-066,FORNO TELHEIRO,-7.38008590844826,40.664633363331426
pt.ine.add.PTCONT.1916098,SIT DO RAMALHAL,,6360-011,AÇORES,-7.322589643343877,40.64994407046106
pt.ine.add.PTCONT.1916099,R DOS TANQUES,,6360-011,AÇORES,-7.323676843055161,40.64998771692857
pt.ine.add.PTCONT.1916100,R DA ESCOLA,,6360-011,AÇORES,-7.321813636946959,40.64958742403169
pt.ine.add.PTCONT.1916101,R DO CALVÁRIO,,6360-505,LAJEOSA DO MONDEGO,-7.341026923986205,40.62451562292734
pt.ine.add.PTCONT.1916102,EN 16,8,6360-517,LAJEOSA DO MONDEGO,-7.334910887771413,40.62599537267051
pt.ine.add.PTCONT.1916103,R DA VILA TRÊS,,6360-506,LAJEOSA DO MONDEGO,-7.342586082665749,40.62358977663168
pt.ine.add.PTCONT.1916104,R DE STO ANTÓNIO,,6360-150,SALGUEIRAIS,-7.42468171146215,40.570577875611924
pt.ine.add.PTCONT.1916105,R DO ROSSIO,,6360-317,CELORICO DA BEIRA,-7.410493146369462,40.661045547036515
pt.ine.add.PTCONT.1916106,R DE TRÁS,,6360-317,CELORICO DA BEIRA,-7.409705338361823,40.65953676931234
pt.ine.add.PTCONT.1916107,R HOTEL,15,6360-345,CELORICO DA BEIRA,-7.396105500337135,40.63063451682788
pt.ine.add.PTCONT.1916108,R JOSÉ RESENDE,,6360-181,VALE DE AZARES,-7.371584665311219,40.60000211285165
pt.ine.add.PTCONT.1916109,R DA TORRINHA,1,6360-183,VALE DE AZARES,-7.364500341659081,40.59447105635013
pt.ine.add.PTCONT.1916110,R DO FREIXINHO,,6360-190,VELOSA,-7.290337401696232,40.652666827646414
pt.ine.add.PTCONT.1916148,ESTR DIREITA,24,6360-010,AÇORES,-7.306373131694061,40.64572280291559
pt.ine.add.PTCONT.1916149,QTA TAPADA VALE SN,SN,6360-020,BARAÇAL CLB,-7.330172402415281,40.686080164692754
pt.ine.add.PTCONT.1916150,LG DR CÓNEGO MANUEL SIMÃO,,6360-020,BARAÇAL CLB,-7.326563851778279,40.68220087328256
pt.ine.add.PTCONT.1916151,R NSA SRA DA CONCEIÇÃO,,6360-020,BARAÇAL CLB,-7.328906303311014,40.682172189054434
pt.ine.add.PTCONT.1916152,R DAS LAGES,,6360-101,MESQUITELA CLB,-7.471990509037315,40.59564961100214
pt.ine.add.PTCONT.1916153,R DA PONTE,10,6360-100,MESQUITELA CLB,-7.491285564116792,40.587878899729944
pt.ine.add.PTCONT.1916154,R DO PENEDO JOÃO PIRES,10,6360-100,MESQUITELA CLB,-7.490223121878772,40.58780995512793
pt.ine.add.PTCONT.1916155,R DOS EMIGRANTES,,6360-100,MESQUITELA CLB,-7.48918827809583,40.58732691572477
pt.ine.add.PTCONT.1916156,R MAXIMIANO ANTÓNIO DA COSTA,54,6360-348,CELORICO DA BEIRA,-7.388932421738594,40.64007988072048
pt.ine.add.PTCONT.1916157,R SOALHEIRO,,6360-210,VILA BOA DO MONDEGO,-7.437261120974131,40.62615314453379
pt.ine.add.PTCONT.1916158,QTA DA LADEIRA,,6360-210,VILA BOA DO MONDEGO,-7.4531079466947565,40.6263916222429
pt.ine.add.PTCONT.1916159,URB TAPADA DA CRUZ,,6360-220,CASAS DO SOEIRO,-7.400617858156678,40.629807741587335
pt.ine.add.PTCONT.1916160,AV CASAS SOEIRO,48,6360-220,CASAS DO SOEIRO,-7.406023915742817,40.62176432113735
pt.ine.add.PTCONT.1916199,LG DO HOSPITAL,12,6360-304,CELORICO DA BEIRA,-7.389449956904572,40.64137994652709
pt.ine.add.PTCONT.1916188,R CIMO FEIRA,24,6360-040,CARRAPICHANA,-7.483547822395618,40.5635305850249
pt.ine.add.PTCONT.1916189,R DA AMOREIRA,16,6360-040,CARRAPICHANA,-7.487990700908331,40.561979565016856
pt.ine.add.PTCONT.1916190,R GROSSA,,6360-052,CORTIÇÔ DA SERRA,-7.4317836074970165,40.61197295430461
pt.ine.add.PTCONT.1916191,R DA LAGE,,6360-052,CORTIÇÔ DA SERRA,-7.430268176444004,40.61225190655186
pt.ine.add.PTCONT.1916192,R DO CABO DA ALDEIA,,6360-050,CORTIÇÔ DA SERRA,-7.435037839745621,40.59448665104948
pt.ine.add.PTCONT.1916193,R DOS EMIGRANTES,,6360-120,PRADOS,-7.376547718364685,40.56112338848094
pt.ine.add.PTCONT.1916194,R FRANCA,,6360-120,PRADOS,-7.377286153386838,40.55950728578015
pt.ine.add.PTCONT.1916195,R DAS CARVALHAS,,6360-130,RAPA,-7.341292657971727,40.5839853903092
pt.ine.add.PTCONT.1916196,R SACADURA CABRAL,49,6360-130,RAPA,-7.345325701470354,40.58151853782895
pt.ine.add.PTCONT.1916197,R DR ANTÓNIO CARINHAS,,6360-370,CELORICO DA BEIRA,-7.383990047988481,40.64334378321414
pt.ine.add.PTCONT.1916198,EN 16,,6360-357,CELORICO DA BEIRA,-7.38301330334971,40.64188762528414
pt.ine.add.PTCONT.1916200,R DO OUTEIRO,10,6360-368,CELORICO DA BEIRA,-7.388692826019507,40.641429098655465
pt.ine.add.PTCONT.1916201,R DR JOSE ALBERTO REIS,,6360-393,CELORICO DA BEIRA,-7.36494808962291,40.62655927893182
pt.ine.add.PTCONT.1916202,QTA DO CABEÇUDO,,6360-393,CELORICO DA BEIRA,-7.377775976787318,40.635621970253645
pt.ine.add.PTCONT.1916203,LOTEAM DE S FRANCISCO,,6360-220,CASAS DO SOEIRO,-7.4038981240932955,40.61945461323464
pt.ine.add.PTCONT.1916204,AV DA CARREIRA,71,6360-220,CASAS DO SOEIRO,-7.406654781055643,40.618076192327
pt.ine.add.PTCONT.1916703,AV DR MARQUES FERNANDES,1,6360-220,CASAS DO SOEIRO,-7.401059441951067,40.62725309204647
pt.ine.add.PTCONT.1916728,EN 16,7,6360-517,LAJEOSA DO MONDEGO,-7.333889178935952,40.62643856067161
pt.ine.add.PTCONT.1916739,AV PRINCIPAL,48,6360-220,CASAS DO SOEIRO,-7.406023915742817,40.62176432113735
pt.ine.add.PTCONT.1916745,TV FERNÃO PACHECO,5,6360-347,CELORICO DA BEIRA,-7.39182842701267,40.637964302157705
pt.ine.add.PTCONT.1916746,R DA FORJA,,6360-050,CORTIÇÔ DA SERRA,-7.437429116302803,40.59172748597737
pt.ine.add.PTCONT.1916758,R DE S BRÁS,6,6360-180,VALE DE AZARES,-7.36433508823383,40.60477183322376
pt.ine.add.PTCONT.1916763,TV DO OUTEIRO,,6360-020,BARAÇAL CLB,-7.327663839757939,40.682208552634755
pt.ine.add.PTCONT.1916764,R DIREITA,,6360-080,LINHARES CLB,-7.461814336049807,40.539389361955706
pt.ine.add.PTCONT.1916858,QTA DAS COUCELAS,,6360-050,CORTIÇÔ DA SERRA,-7.43484632530963,40.59699793446432
pt.ine.add.PTCONT.1916859,R DIREITA,,6360-050,CORTIÇÔ DA SERRA,-7.435059111091136,40.593577257673616
pt.ine.add.PTCONT.1916909,R DO CHÃO DA NORA,2,6360-526,LAJEOSA DO MONDEGO,-7.333851909383847,40.62758194850118
pt.ine.add.PTCONT.1916910,R DO COMÉRCIO,13,6360-496,LAJEOSA DO MONDEGO,-7.3386568272530734,40.62704778277177
pt.ine.add.PTCONT.1916911,R DO COMÉRCIO,13,6360-496,LAJEOSA DO MONDEGO,-7.3386568272530734,40.62704778277177
pt.ine.add.PTCONT.1916958,R DAS LAGES,,6360-082,LINHARES CLB,-7.460981292662081,40.56132128979056
pt.ine.add.PTCONT.1916959,BR DA CORREDOURA,9,6360-080,LINHARES CLB,-7.4589353676383805,40.54045323004514
pt.ine.add.PTCONT.1916960,R DA CORREDOURA,,6360-080,LINHARES CLB,-7.460697017961349,40.540166322371604
pt.ine.add.PTCONT.1916961,CAM DA FRAGA,,6360-080,LINHARES CLB,-7.439965052962229,40.5554787890366
pt.ine.add.PTCONT.1916962,R DIREITA,,6360-090,MAÇAL DO CHÃO,-7.299721813716396,40.6928432236866
pt.ine.add.PTCONT.1917017,LG DA PRAÇA,1,6360-100,MESQUITELA CLB,-7.491818834729206,40.588935469092554
pt.ine.add.PTCONT.1917018,LG DO FREIXOEIRO,1,6360-100,MESQUITELA CLB,-7.490892937945432,40.58817388883441
pt.ine.add.PTCONT.1917019,TV DA IGREJA,,6360-110,MINHOCAL,-7.346919451453486,40.68940120328288
pt.ine.add.PTCONT.1917020,R DOS EMIGRANTES,,6360-120,PRADOS,-7.376570216458485,40.56122259301632
pt.ine.add.PTCONT.1917076,R SACADURA CABRAL,20,6360-130,RAPA,-7.345053328811709,40.58157971605205
pt.ine.add.PTCONT.1917077,R DO RAMALHAL,,6360-140,RATOEIRA,-7.347427429291132,40.6421012398256
pt.ine.add.PTCONT.1917078,LG DA ESCOLA,4,6360-140,RATOEIRA,-7.3538742897274805,40.6407401329014
pt.ine.add.PTCONT.1917079,R DE STO ANTÓNIO,,6360-150,SALGUEIRAIS,-7.424890239217424,40.569840727718265
pt.ine.add.PTCONT.1917080,CAM DAS VINHAS,,6360-150,SALGUEIRAIS,-7.429585305032361,40.5748222759066
pt.ine.add.PTCONT.1917081,R DA CARREIRA,,6360-317,CELORICO DA BEIRA,-7.410312316314868,40.66026998025118
pt.ine.add.PTCONT.1917082,R D JOÃO DE OLIVEIRA MATOS,15,6360-344,CELORICO DA BEIRA,-7.3907709930328584,40.64164959370347
pt.ine.add.PTCONT.1917132,R D JOÃO DE OLIVEIRA MATOS,15,6360-344,CELORICO DA BEIRA,-7.3907709930328584,40.64164959370347
pt.ine.add.PTCONT.1917133,R D JOÃO DE OLIVEIRA MATOS,15,6360-344,CELORICO DA BEIRA,-7.3907709930328584,40.64164959370347
pt.ine.add.PTCONT.1917134,R D JOÃO DE OLIVEIRA MATOS,15,6360-344,CELORICO DA BEIRA,-7.3907709930328584,40.64164959370347
pt.ine.add.PTCONT.1917135,R D JOÃO DE OLIVEIRA MATOS,15,6360-344,CELORICO DA BEIRA,-7.3907709930328584,40.64164959370347
pt.ine.add.PTCONT.1917136,R D JOÃO DE OLIVEIRA MATOS,15,6360-344,CELORICO DA BEIRA,-7.3907709930328584,40.64164959370347
pt.ine.add.PTCONT.1917137,R FERNÃO PACHECO,111,6360-347,CELORICO DA BEIRA,-7.392056197086189,40.63767760125249
pt.ine.add.PTCONT.1917186,QTA DOS CARREGAIS,,6360-357,CELORICO DA BEIRA,-7.371383899355352,40.64056879815579
pt.ine.add.PTCONT.1917187,R DR FRANCISCO SÁ CARNEIRO,28,6360-353,CELORICO DA BEIRA,-7.3984082879003745,40.62758745526629
pt.ine.add.PTCONT.1917188,R DE STO ANTÓNIO,,6360-319,CELORICO DA BEIRA,-7.381043177916303,40.615183700970746
pt.ine.add.PTCONT.1917189,R DAS LAGES,,6360-319,CELORICO DA BEIRA,-7.380872399060782,40.61565986001247
pt.ine.add.PTCONT.1917241,ESTR DO CASTELO,30,6360-180,VALE DE AZARES,-7.365846566846207,40.60588050968311
pt.ine.add.PTCONT.1917242,R DAS BEIRAS,7,6360-180,VALE DE AZARES,-7.363255272195903,40.60620546115075
pt.ine.add.PTCONT.1917243,R DO CORREIO,3,6360-180,VALE DE AZARES,-7.364589582768357,40.60421520887075
pt.ine.add.PTCONT.1917302,R DO PENEDO,,6360-180,VALE DE AZARES,-7.364944214235819,40.604199557764034
pt.ine.add.PTCONT.1917303,R NSA SRA DE AZARES,19,6360-181,VALE DE AZARES,-7.370682961125058,40.598258172219005
pt.ine.add.PTCONT.1917304,R DO CANTO,,6360-201,VIDE ENTRE VINHAS,-7.418050500691782,40.59223950785809
pt.ine.add.PTCONT.1917305,BR DO AMOR,,6360-210,VILA BOA DO MONDEGO,-7.436198113444423,40.62949663773252
pt.ine.add.PTCONT.1917361,URB CELURBA,,6360-220,CASAS DO SOEIRO,-7.403445962040381,40.62734023619183
pt.ine.add.PTCONT.1917362,EN 17,,6360-220,CASAS DO SOEIRO,-7.396531909969228,40.6197950874821
pt.ine.add.PTCONT.1917363,QTA DOS CEDROS,,6360-220,CASAS DO SOEIRO,-7.404632653863148,40.623637622610524
pt.ine.add.PTCONT.1917364,EN 16,,6360-220,CASAS DO SOEIRO,-7.408231777499651,40.62633478747593
pt.ine.add.PTCONT.1917599,R NOVA DA AMENDOEIRA,,6360-010,AÇORES,-7.303422598330116,40.646268958364686
pt.ine.add.PTCONT.1917600,R DA PROCISSÃO,,6360-010,AÇORES,-7.306535474153072,40.64502157142819
pt.ine.add.PTCONT.1917601,R DA CAPELA,23,6360-010,AÇORES,-7.306463991447606,40.64506608495794
pt.ine.add.PTCONT.1917645,R DA POMBA,,6360-020,BARAÇAL CLB,-7.32693008042209,40.682239451191464
pt.ine.add.PTCONT.1917646,R DO OUTEIRO,,6360-020,BARAÇAL CLB,-7.327666549579645,40.68198344658581
pt.ine.add.PTCONT.1917647,R NSA SRA DA CONCEIÇÃO,,6360-020,BARAÇAL CLB,-7.328573040651171,40.68135941723221
pt.ine.add.PTCONT.1917648,,,6360-030,CADAFAZ CLB,-7.357977377552324,40.589528666163936
pt.ine.add.PTCONT.1917649,LG DA FEIRA,15,6360-040,CARRAPICHANA,-7.486454223470217,40.56213306902206
pt.ine.add.PTCONT.1917650,R DA PROCISSÃO,,6360-040,CARRAPICHANA,-7.489113493794218,40.56186876139963
pt.ine.add.PTCONT.1917717,R DO COMÉRCIO,13,6360-496,LAJEOSA DO MONDEGO,-7.3386568272530734,40.62704778277177
pt.ine.add.PTCONT.1917748,QTA DOS SERRADOS,,6360-180,VALE DE AZARES,-7.360707172239632,40.60585525884738
pt.ine.add.PTCONT.1917979,R DA CAPELA DE STO ANTÓNIO,,6360-066,FORNO TELHEIRO,-7.37939539687751,40.66819485336563
pt.ine.add.PTCONT.1917980,EN 16,52,6360-517,LAJEOSA DO MONDEGO,-7.340064462649661,40.6269493967375
pt.ine.add.PTCONT.1917981,EN 16,,6360-357,CELORICO DA BEIRA,-7.372357966496169,40.63807180752512
pt.ine.add.PTCONT.1917982,R DAS MOITAS,,6360-120,PRADOS,-7.376125802140065,40.56293967472637
pt.ine.add.PTCONT.1917983,R DO POMBAL,13,6360-343,CELORICO DA BEIRA,-7.388302228850483,40.640409005844184
pt.ine.add.PTCONT.1917984,R DR JOSÉ ALBERTO REIS,1,6360-180,VALE DE AZARES,-7.364476083004141,40.6038092227334
pt.ine.add.PTCONT.1917985,R DE S BRÁS,32,6360-180,VALE DE AZARES,-7.364384408721563,40.604592058915195
pt.ine.add.PTCONT.1917986,R SOALHEIRO,,6360-210,VILA BOA DO MONDEGO,-7.437809615777488,40.62568818191475
pt.ine.add.PTCONT.1917988,R DO FREIXO,,6360-508,LAJEOSA DO MONDEGO,-7.3379674610513534,40.62637666192854
pt.ine.add.PTCONT.1917989,R DA ORDEM DE MALTA,,6360-101,MESQUITELA CLB,-7.468670181788064,40.59572061045864
pt.ine.add.PTCONT.1917990,R DO CANTO,,6360-150,SALGUEIRAIS,-7.4240981335812615,40.56992592087253
pt.ine.add.PTCONT.1917991,EM 581,SN,6360-020,BARAÇAL CLB,-7.33421743538143,40.68415414275339
pt.ine.add.PTCONT.1917992,R DA JUNTA DE FREGUESIA,,6360-020,BARAÇAL CLB,-7.32646889880093,40.68320876954005
pt.ine.add.PTCONT.1917993,R DO FREIXO,,6360-508,LAJEOSA DO MONDEGO,-7.338511516202728,40.62634438626715
pt.ine.add.PTCONT.1917994,R DAS LAGES,,6360-338,CELORICO DA BEIRA,-7.411225198682413,40.654566481337305
pt.ine.add.PTCONT.1917995,R DA ESCOLA,,6360-180,VALE DE AZARES,-7.366177130805324,40.60280295062955
pt.ine.add.PTCONT.1917997,R DA CAPELA,,6360-060,FORNO TELHEIRO,-7.375720011817565,40.65646424467798
pt.ine.add.PTCONT.1917998,R DO CALVÁRIO,12,6360-505,LAJEOSA DO MONDEGO,-7.341802300251528,40.623908592170395
pt.ine.add.PTCONT.1917999,R DOS EMIGRANTES,,6360-120,PRADOS,-7.376664568266484,40.56123221606005
pt.ine.add.PTCONT.1918000,R DAS LAMEIRINHAS,,6360-317,CELORICO DA BEIRA,-7.410333115885798,40.65505617945185
pt.ine.add.PTCONT.1918002,R DA ESCOLA NOVA,,6360-150,SALGUEIRAIS,-7.423721676976922,40.568671886620514
pt.ine.add.PTCONT.1918003,ESTR DO SEIXAL,,6360-150,SALGUEIRAIS,-7.426582839207646,40.57508311231616
pt.ine.add.PTCONT.1918004,R DAS LAGES,,6360-082,LINHARES CLB,-7.461298007872242,40.56153025218204
pt.ine.add.PTCONT.1918005,R DA CARREIRA,,6360-317,CELORICO DA BEIRA,-7.409392511609708,40.66112870422467
pt.ine.add.PTCONT.1918011,R DE STO AMARO,,6360-083,LINHARES CLB,-7.459715227461649,40.555694653646675
pt.ine.add.PTCONT.1918012,R DO OUTÃO,,6360-317,CELORICO DA BEIRA,-7.410249890431197,40.66057576142521
pt.ine.add.PTCONT.1918014,R DAS LAGES,,6360-081,LINHARES CLB,-7.440786290588703,40.55713166993051
pt.ine.add.PTCONT.1918015,R DA IGREJA,,6360-190,VELOSA,-7.290459931403355,40.65232553073286
pt.ine.add.PTCONT.1918017,R DAS LAGINHAS,17,6360-130,RAPA,-7.3445509583435395,40.58211659709904
pt.ine.add.PTCONT.1918018,R PADRE MANUEL FRANCISCO CARDOSO,6,6360-302,CELORICO DA BEIRA,-7.390407884040192,40.64241269069366
pt.ine.add.PTCONT.1918019,R PADRE MANUEL FRANCISCO CARDOSO,6,6360-302,CELORICO DA BEIRA,-7.390407884040192,40.64241269069366
pt.ine.add.PTCONT.1918020,R PADRE MANUEL FRANCISCO CARDOSO,6,6360-302,CELORICO DA BEIRA,-7.390407884040192,40.64241269069366
pt.ine.add.PTCONT.1918021,QTA DO CAPITÃO,,6360-319,CELORICO DA BEIRA,-7.385418954016242,40.619111328010426
pt.ine.add.PTCONT.1918022,R NOVA,,6360-220,CASAS DO SOEIRO,-7.404971889969863,40.62069508930025
pt.ine.add.PTCONT.1918024,R PADRE MANUEL FRANCISCO CARDOSO,6,6360-302,CELORICO DA BEIRA,-7.390407884040192,40.64241269069366
pt.ine.add.PTCONT.1918025,R PADRE MANUEL FRANCISCO CARDOSO,6,6360-302,CELORICO DA BEIRA,-7.390407884040192,40.64241269069366
pt.ine.add.PTCONT.1918029,R 5 DE OUTUBRO,,6360-110,MINHOCAL,-7.346403458943407,40.691027591767394
pt.ine.add.PTCONT.1918030,R DAS QUELHAS,,6360-110,MINHOCAL,-7.346606147642209,40.6908938979517
pt.ine.add.PTCONT.1918031,R DE BAIXO,2,6360-310,CELORICO DA BEIRA,-7.391695316577569,40.638242605298494
pt.ine.add.PTCONT.1918033,R DO CIMO DO POVO,,6360-031,CADAFAZ CLB,-7.369636198812148,40.58226711117437
pt.ine.add.PTCONT.1918034,PC DA REPÚBLICA,17,6360-306,CELORICO DA BEIRA,-7.389544232431464,40.63821076431023
pt.ine.add.PTCONT.1918035,PC DA REPÚBLICA,17,6360-306,CELORICO DA BEIRA,-7.389544232431464,40.63821076431023
pt.ine.add.PTCONT.1918036,PC DA REPÚBLICA,17,6360-306,CELORICO DA BEIRA,-7.389544232431464,40.63821076431023
pt.ine.add.PTCONT.1918037,QTA DO LAGAR,,6360-220,CASAS DO SOEIRO,-7.404808585162736,40.60743851175665
pt.ine.add.PTCONT.1918038,R DA FONTE,,6360-201,VIDE ENTRE VINHAS,-7.417740312279329,40.59252575245836
pt.ine.add.PTCONT.1918039,R ANTÓNIO FERNANDES COSTA ALMEIDA,,6360-332,CELORICO DA BEIRA,-7.391904190742208,40.63538933308189
pt.ine.add.PTCONT.1918040,R DA IGREJA,,6360-201,VIDE ENTRE VINHAS,-7.4169142228178195,40.592448591947594
pt.ine.add.PTCONT.1918712,LG AMOREIRA,,6360-103,MESQUITELA CLB,-7.477078214362471,40.57671368543783
pt.ine.add.PTCONT.1918725,R PADRE MANUEL FRANCISCO CARDOSO,6,6360-302,CELORICO DA BEIRA,-7.390407884040192,40.64241269069366
pt.ine.add.PTCONT.1918752,R DA PORTELA,,6360-030,CADAFAZ CLB,-7.3600427818737115,40.58558024018263
pt.ine.add.PTCONT.1918756,TV DE S PEDRO,,6360-080,LINHARES CLB,-7.461366450490688,40.53932372202372
pt.ine.add.PTCONT.1918765,R OUTEIRO,,6360-080,LINHARES CLB,-7.461335738271733,40.54003495893134
pt.ine.add.PTCONT.1919020,QTA DO JARDIM,,6360-060,FORNO TELHEIRO,-7.38287625167226,40.668901906464704
pt.ine.add.PTCONT.1919021,R DO COMÉRCIO,3,6360-496,LAJEOSA DO MONDEGO,-7.339092924774211,40.62714983795694
pt.ine.add.PTCONT.1919022,R DA LAGE,,6360-520,LAJEOSA DO MONDEGO,-7.339226656410827,40.62683557932838
pt.ine.add.PTCONT.1919023,R DA LAGE,,6360-520,LAJEOSA DO MONDEGO,-7.339226656410827,40.62683557932838
pt.ine.add.PTCONT.1919024,R DA LAGE,,6360-520,LAJEOSA DO MONDEGO,-7.339226656410827,40.62683557932838
pt.ine.add.PTCONT.1919025,BR NSA SRA DE FÁTIMA,1,6360-140,RATOEIRA,-7.354386977640884,40.63833023200033
pt.ine.add.PTCONT.1919026,EN 16,,6360-357,CELORICO DA BEIRA,-7.381775739789283,40.64050180277855
pt.ine.add.PTCONT.1919027,R DA PROCISSÃO,,6360-010,AÇORES,-7.3067125700330156,40.64504084907359
pt.ine.add.PTCONT.1919028,R NOVA DO CALVÁRIO,,6360-010,AÇORES,-7.307492812934307,40.642164814281024
pt.ine.add.PTCONT.1919029,R SOALHEIRO,,6360-210,VILA BOA DO MONDEGO,-7.437764117599829,40.62551681070341
pt.ine.add.PTCONT.1919030,EN 16,,6360-210,VILA BOA DO MONDEGO,-7.456154704799705,40.628984986676684
pt.ine.add.PTCONT.1919033,LG DO FREIXO,3,6360-101,MESQUITELA CLB,-7.469134182919377,40.59539008719056
pt.ine.add.PTCONT.1919034,LG PROF LAURINDINHA,,6360-120,PRADOS,-7.377525643724355,40.56130989267939
pt.ine.add.PTCONT.1919035,R LIGA AMIGOS PRADOS,,6360-120,PRADOS,-7.377801685592229,40.559861860377055
pt.ine.add.PTCONT.1919036,LG DO TABULADO,4,6360-305,CELORICO DA BEIRA,-7.3893292235767065,40.64054169637939
pt.ine.add.PTCONT.1919037,R DO CEMITÉRIO,,6360-220,CASAS DO SOEIRO,-7.407234964820971,40.622339261550906
pt.ine.add.PTCONT.1919039,R DO ALAMBIQUE,,6360-020,BARAÇAL CLB,-7.328540073792825,40.68213361740701
pt.ine.add.PTCONT.1919040,R DOS EMIGRANTES,14,6360-100,MESQUITELA CLB,-7.490303906298402,40.588008518956975
pt.ine.add.PTCONT.1919041,R DOS PENEDOS ALTOS,,6360-317,CELORICO DA BEIRA,-7.4091273228529735,40.65940707571349
pt.ine.add.PTCONT.1919042,R PENEDO,27,6360-340,CELORICO DA BEIRA,-7.390086005609216,40.63945695323882
pt.ine.add.PTCONT.1919043,R DA ESCOLA,,6360-190,VELOSA,-7.293386571129041,40.64994250736634
pt.ine.add.PTCONT.1919045,R 31 DE JANEIRO,30,6360-330,CELORICO DA BEIRA,-7.390728500034078,40.6390828719454
pt.ine.add.PTCONT.1919046,R DE MONTE ALTO,12,6360-523,LAJEOSA DO MONDEGO,-7.335638601182735,40.627414198611085
pt.ine.add.PTCONT.1919050,TV TRÊS DOS PENEDOS,,6360-080,LINHARES CLB,-7.462166753885711,40.54074219780558
pt.ine.add.PTCONT.1919051,LG DA IGREJA,,6360-080,LINHARES CLB,-7.461176269065251,40.54063738392062
pt.ine.add.PTCONT.1919052,R DA PORTELA,,6360-060,FORNO TELHEIRO,-7.396983128315363,40.67554837418281
pt.ine.add.PTCONT.1919053,R DE BAIXO,16,6360-310,CELORICO DA BEIRA,-7.3920063274493035,40.63791141348123
pt.ine.add.PTCONT.1919054,R DA PORTELA,,6360-200,VIDE ENTRE VINHAS,-7.401032819428873,40.59721181211466
pt.ine.add.PTCONT.1919055,R DA OLIVEIRA,2,6360-200,VIDE ENTRE VINHAS,-7.400949538721794,40.59726531515332
pt.ine.add.PTCONT.1919060,R DO MEIO,,6360-521,LAJEOSA DO MONDEGO,-7.338549610364507,40.627119085831445
pt.ine.add.PTCONT.1919698,R FREIXO,1,6360-508,LAJEOSA DO MONDEGO,-7.338566550984738,40.62668695823397
pt.ine.add.PTCONT.1919704,CAM DAS VINHAS,,6360-150,SALGUEIRAIS,-7.432815575456266,40.57536420508414
pt.ine.add.PTCONT.1919707,QTA DA VILHAGRA,,6360-220,CASAS DO SOEIRO,-7.405259951032288,40.61375395537798
