id,street,house,postcode,city,lon,lat
pt.ine.add.PTCONT.4395953,R VELHA,19,2140-382,ULME,-8.430174342352398,39.315796137930285
pt.ine.add.PTCONT.4412652,,,2140-671,CARREGUEIRA,-8.431221652542847,39.42310471522297
pt.ine.add.PTCONT.4391320,R 5 DE OUTUBRO,77,2140-515,PARREIRA,-8.41297367349039,39.20685011475986
pt.ine.add.PTCONT.4391321,R SEBASTIÃO GIL,22,2140-617,CARREGUEIRA,-8.397459231545323,39.45621519808091
pt.ine.add.PTCONT.4391322,BC ZAMBUJO,5,2140-602,CARREGUEIRA,-8.397568602407082,39.45441354385172
pt.ine.add.PTCONT.4391323,R BAIRRO NOVO,10,2140-614,CARREGUEIRA,-8.396488975165843,39.45465017652521
pt.ine.add.PTCONT.4391324,ESTR PARTICULAR,,2140-618,CARREGUEIRA,-8.354463874058224,39.388283473147624
pt.ine.add.PTCONT.4391401,TV LAGAR VELHO,7,2140-675,CARREGUEIRA,-8.41219491977195,39.41914376856098
pt.ine.add.PTCONT.4391402,R D BR PINHAL MANSO,12,2140-670,CARREGUEIRA,-8.407269696332156,39.41876817560069
pt.ine.add.PTCONT.4391403,R OUTEIRO,13,2140-678,CARREGUEIRA,-8.414494945316845,39.41643610286652
pt.ine.add.PTCONT.4391404,R RELVÃO,38,2140-671,CARREGUEIRA,-8.41390478992902,39.41695093269114
pt.ine.add.PTCONT.4391405,CSL HERDADE,,2140-665,CARREGUEIRA,-8.398289719036825,39.43011088627102
pt.ine.add.PTCONT.4391406,CSL HERDADE,,2140-665,CARREGUEIRA,-8.398289719036825,39.43011088627102
pt.ine.add.PTCONT.4391517,R DIREITA,4,2140-665,CARREGUEIRA,-8.423408252529358,39.41246909780235
pt.ine.add.PTCONT.4391518,R RAMALHA,20,2140-659,CARREGUEIRA,-8.412120606862869,39.412154447103084
pt.ine.add.PTCONT.4391895,R ARNEIRO DE CIMA,,2140-013,CHAMUSCA,-8.470141705851294,39.36844240873828
pt.ine.add.PTCONT.4391896,R ARNEIRO DE CIMA,,2140-013,CHAMUSCA,-8.473107216797242,39.36498404277311
pt.ine.add.PTCONT.4392134,AV DR CARLOS AMARO,12,2140-054,CHAMUSCA,-8.475505514693296,39.35948264403265
pt.ine.add.PTCONT.4392135,BR 1 DE MAIO,55,2140-057,CHAMUSCA,-8.474403478466625,39.35714401805771
pt.ine.add.PTCONT.4392136,R MALCOZINHADO,25,2140-103,CHAMUSCA,-8.483685004768368,39.352432701143954
pt.ine.add.PTCONT.4392252,R HORTA DAS FREIRAS,13,2140-055,CHAMUSCA,-8.484214024337446,39.358456901913314
pt.ine.add.PTCONT.4392253,R MOUZINHO DE ALBUQUERQUE,21,2140-135,CHAMUSCA,-8.482280485602956,39.35461665890605
pt.ine.add.PTCONT.4392370,R COMBATENTES DA GRANDE GUERRA,27,2140-110,CHAMUSCA,-8.483770761773384,39.35334216718476
pt.ine.add.PTCONT.4392371,AV ALM GAGO COUTINHO,,2140-053,CHAMUSCA,-8.474733647564383,39.358232916487644
pt.ine.add.PTCONT.4392372,R ENG JOSE BELARD DA FONSECA,12,2140-123,CHAMUSCA,-8.48151348883876,39.35903246913177
pt.ine.add.PTCONT.4392373,R SENHORA DO PRANTO,13,2140-140,CHAMUSCA,-8.480348968827606,39.355829398505215
pt.ine.add.PTCONT.4392374,R OUTEIRO DO PRANTO,91,2140-105,CHAMUSCA,-8.48003823041142,39.353992862585756
pt.ine.add.PTCONT.4392481,LG TABERNAS,15,2140-224,CHOUTO,-8.315158374110563,39.25761147663113
pt.ine.add.PTCONT.4392482,LG TABERNAS,27,2140-224,CHOUTO,-8.314811425011118,39.25785521674828
pt.ine.add.PTCONT.4392483,ESTR GAVIÃO,6,2140-224,CHOUTO,-8.307880639522395,39.261567841375296
pt.ine.add.PTCONT.4392484,EM 576,,2140-206,CHOUTO,-8.252638955710173,39.23616481935575
pt.ine.add.PTCONT.4392485,EM 576,,2140-206,CHOUTO,-8.254556571930129,39.233226428236165
pt.ine.add.PTCONT.4392486,LG 25 DE ABRIL,,2140-208,CHOUTO,-8.305532023881673,39.177775462481925
pt.ine.add.PTCONT.4392583,,,2140-201,CHOUTO,-8.35096232568423,39.24373272853102
pt.ine.add.PTCONT.4392584,R GODINHAS,,2140-307,PINHEIRO GRANDE,-8.427310712623276,39.404415957612805
pt.ine.add.PTCONT.4392585,R NOVA,37,2140-307,PINHEIRO GRANDE,-8.42079858351447,39.39339853080022
pt.ine.add.PTCONT.4392687,R JOSE MARQUES MARTINHO,1,2140-365,ULME,-8.433734858401326,39.31595813527434
pt.ine.add.PTCONT.4392808,R GAUDENCIOS,11,2140-429,VALE DE CAVALOS,-8.510521502550828,39.283767790745685
pt.ine.add.PTCONT.4392912,R D AFONSO HENRIQUES,,2140-521,PARREIRA,-8.409537220775615,39.213289607015135
pt.ine.add.PTCONT.4392913,R 5 DE OUTUBRO,8,2140-515,PARREIRA,-8.404378256856825,39.2116083423678
pt.ine.add.PTCONT.4392914,R LUIS CAMOES,22,2140-524,PARREIRA,-8.39477489220209,39.21964689372975
pt.ine.add.PTCONT.4392968,CSL GAVIÃO,12,2140-224,CHOUTO,-8.303853370164884,39.263573444536945
pt.ine.add.PTCONT.4392999,R ISIDRO DOS REIS,48A,2140-307,PINHEIRO GRANDE,-8.436302919195533,39.392377386156895
pt.ine.add.PTCONT.4393034,R CHA DE D BENTO,,2140-054,CHAMUSCA,-8.474921128801306,39.35861066694088
pt.ine.add.PTCONT.4393084,R FLORES,5,2140-613,CARREGUEIRA,-8.397818216752555,39.45589913563621
pt.ine.add.PTCONT.4393102,R AREOLAS,25,2140-301,PINHEIRO GRANDE,-8.445520387393794,39.38469694667464
pt.ine.add.PTCONT.4393251,R BARREIRO,34,2140-099,CHAMUSCA,-8.482371236621763,39.35420205677361
pt.ine.add.PTCONT.4393529,R D JOÃO I,20,2140-108,CHAMUSCA,-8.475419590207503,39.35614123815426
pt.ine.add.PTCONT.4393530,R D JOÃO I,20,2140-108,CHAMUSCA,-8.475419590207503,39.35614123815426
pt.ine.add.PTCONT.4393548,R ANAFE,,2140-222,CHOUTO,-8.342451327193746,39.27979569110115
pt.ine.add.PTCONT.4393549,EM 576,,2140-206,CHOUTO,-8.255517245029791,39.23286512714541
pt.ine.add.PTCONT.4393579,CSL VALE FORMOSO,,2140-108,CHAMUSCA,-8.472716017395864,39.35608610854499
pt.ine.add.PTCONT.4393595,R NORBERTO PEDROSO,14,2140-118,CHAMUSCA,-8.483903791051526,39.349783932475255
pt.ine.add.PTCONT.4393596,R NORBERTO PEDROSO,12,2140-118,CHAMUSCA,-8.483903791051526,39.349783932475255
pt.ine.add.PTCONT.4393597,BC SENHORA DAS DORES,9,2140-061,CHAMUSCA,-8.481919351479245,39.35898621757473
pt.ine.add.PTCONT.4393684,R D MARIA MANUEL CID,11,2140-157,CHAMUSCA,-8.478008037030289,39.361096543610614
pt.ine.add.PTCONT.4393685,R JOSE LUCIANO CASTRO,36,2140-131,CHAMUSCA,-8.484896659375162,39.35576169799732
pt.ine.add.PTCONT.4393686,R OUTEIRO DO PRANTO,79,2140-105,CHAMUSCA,-8.479898387297997,39.353867178965416
pt.ine.add.PTCONT.4393824,R POMARES DA QUINTA,31,2140-308,PINHEIRO GRANDE,-8.432886034920157,39.38871133361545
pt.ine.add.PTCONT.4393807,R NOVA,2,2140-307,PINHEIRO GRANDE,-8.425063571725376,39.3945318112093
pt.ine.add.PTCONT.4393814,R CARVALHAL,17,2140-420,VALE DE CAVALOS,-8.508558847313546,39.283035539207866
pt.ine.add.PTCONT.4393837,R FOROS,6,2140-428,VALE DE CAVALOS,-8.516435442192984,39.2906840674856
pt.ine.add.PTCONT.4393868,HRD PERNA SECA,,2140-426,VALE DE CAVALOS,-8.421334662015566,39.2526322247884
pt.ine.add.PTCONT.4393882,R FONTE,72,2140-410,VALE DE CAVALOS,-8.514319798096963,39.289574112840285
pt.ine.add.PTCONT.4393883,R FONTE,14,2140-658,CARREGUEIRA,-8.413455054987175,39.41773563369921
pt.ine.add.PTCONT.4393898,R GODINHAS,3,2140-307,PINHEIRO GRANDE,-8.430255270046276,39.403372657530774
pt.ine.add.PTCONT.4393899,R DIREITA,22,2140-357,ULME,-8.322637470659142,39.328694073324606
pt.ine.add.PTCONT.4393923,,,2140-404,VALE DE CAVALOS,-8.52362073664512,39.3071344458948
pt.ine.add.PTCONT.4393924,R SEBASTIÃO GIL,,2140-617,CARREGUEIRA,-8.397401683077417,39.456359441294296
pt.ine.add.PTCONT.4393932,R MIRADOURO,S,2140-307,PINHEIRO GRANDE,-8.427658593436204,39.39879464286611
pt.ine.add.PTCONT.4393933,R SEBASTIÃO GIL,50,2140-617,CARREGUEIRA,-8.397746561114795,39.45538589814376
pt.ine.add.PTCONT.4393934,,,2140-671,CARREGUEIRA,-8.40885424826383,39.43483304420997
pt.ine.add.PTCONT.4393968,R CHAFARIZ,25,2140-374,ULME,-8.430989975815024,39.31399260567373
pt.ine.add.PTCONT.4393969,R SENO E TOSCANO,15,2140-405,VALE DE CAVALOS,-8.512968959638155,39.29056031941852
pt.ine.add.PTCONT.4393970,R LUIS DE CAMÕES,16,2140-524,PARREIRA,-8.396079084484171,39.21849101050313
pt.ine.add.PTCONT.4393978,R DIREITA,138,2140-665,CARREGUEIRA,-8.411745237558442,39.42578306207461
pt.ine.add.PTCONT.4393989,R 20 DE ABRIL,52,2140-407,VALE DE CAVALOS,-8.510498066887394,39.290199056583845
pt.ine.add.PTCONT.4393990,LG MANUEL HENRIQUES,6,2140-512,PARREIRA,-8.395254859813884,39.21481784985218
pt.ine.add.PTCONT.4394791,R NOVA,29,2140-214,CHOUTO,-8.353771701831203,39.27156012042388
pt.ine.add.PTCONT.4395051,R DIREITA,44,2140-665,CARREGUEIRA,-8.418805739011798,39.41709212039602
pt.ine.add.PTCONT.4395052,LG BERNARDINO JOSE MONTEIRO,,2140-307,PINHEIRO GRANDE,-8.437420709102106,39.39583320082699
pt.ine.add.PTCONT.4395156,BC SENHORA DAS DORES,9,2140-061,CHAMUSCA,-8.481919351479245,39.35898621757473
pt.ine.add.PTCONT.4395191,R JOSE RODRIGUES,9,2140-502,PARREIRA,-8.46726847500657,39.186449354046445
pt.ine.add.PTCONT.4395287,R VALE DE MOURO,16,2140-672,CARREGUEIRA,-8.410087094476502,39.41470831305375
pt.ine.add.PTCONT.4395336,BR CASAS PRÉ FABRICADAS,5,2140-058,CHAMUSCA,-8.472179649356795,39.357934141898745
pt.ine.add.PTCONT.4395624,R MARQUES DE CARVALHO,28,2140-132,CHAMUSCA,-8.477911806881629,39.35568352271768
pt.ine.add.PTCONT.4395632,CSL GAVIÃO,2,2140-224,CHOUTO,-8.304141772634187,39.26305059581435
pt.ine.add.PTCONT.4395642,R ANAFE,,2140-222,CHOUTO,-8.346307732555964,39.27500581243161
pt.ine.add.PTCONT.4395656,AV DR CARLOS AMARO,18,2140-054,CHAMUSCA,-8.475564143199907,39.35960857181579
pt.ine.add.PTCONT.4395754,R ANSELMO ANDRADE,22,2140-081,CHAMUSCA,-8.481454879273175,39.361248406287054
pt.ine.add.PTCONT.4395774,R ANSELMO ANDRADE,4,2140-081,CHAMUSCA,-8.481281283815099,39.36133899736871
pt.ine.add.PTCONT.4395775,AV ALM GAGO COUTINHO,7,2140-052,CHAMUSCA,-8.476666386823018,39.357236438746426
pt.ine.add.PTCONT.4395888,R CANICEIRA,47,2140-415,VALE DE CAVALOS,-8.51130632933195,39.28315274961994
pt.ine.add.PTCONT.4395895,R QUINTINHA,6,2140-371,ULME,-8.432354160077667,39.31576353334061
pt.ine.add.PTCONT.4395896,R DIREITA,,2140-414,VALE DE CAVALOS,-8.52135466063785,39.291496436275075
pt.ine.add.PTCONT.4395897,R ALPIARÇA,2,2140-663,CARREGUEIRA,-8.416930050352883,39.42131202559612
pt.ine.add.PTCONT.4395914,R ROMEIRA,13,2140-372,ULME,-8.430953486699886,39.31632557417271
pt.ine.add.PTCONT.4395915,R DIREITA,18,2140-414,VALE DE CAVALOS,-8.520775544120186,39.29157943123715
pt.ine.add.PTCONT.4395923,R FORNO,3,2140-375,ULME,-8.42788978578736,39.31573889457515
pt.ine.add.PTCONT.4395937,R 25 DE ABRIL,21,2140-502,PARREIRA,-8.466507607477116,39.18464103936114
pt.ine.add.PTCONT.4395938,R D BR PINHAL MANSO,15,2140-670,CARREGUEIRA,-8.40766522644466,39.41894738443871
pt.ine.add.PTCONT.4395939,R C,,2140-670,CARREGUEIRA,-8.408094746750367,39.41891034159943
pt.ine.add.PTCONT.4395954,R DIREITA,10,2140-665,CARREGUEIRA,-8.422470745454467,39.413201007708196
pt.ine.add.PTCONT.4395978,EN 118,2,2140-307,PINHEIRO GRANDE,-8.430671337664158,39.4056593979509
pt.ine.add.PTCONT.4395989,R LADEIRA DO PINHAL,8,2140-307,PINHEIRO GRANDE,-8.424489910345782,39.40173893924682
pt.ine.add.PTCONT.4395990,R NOVA,9,2140-366,ULME,-8.43367175553126,39.3147603354057
pt.ine.add.PTCONT.4395991,R CABEÇO DE ESPANHA,4,2140-615,CARREGUEIRA,-8.390782537873653,39.45732903946071
pt.ine.add.PTCONT.4395992,R OUTEIRO,3,2140-678,CARREGUEIRA,-8.414625503724167,39.417138339640786
pt.ine.add.PTCONT.4395993,R NOVA,106,2140-671,CARREGUEIRA,-8.420539275580389,39.40941380976319
pt.ine.add.PTCONT.4395994,R BAIXO,2A,2140-664,CARREGUEIRA,-8.419191038928751,39.417604577283555
pt.ine.add.PTCONT.4396001,R CHAFARIZ,,2140-374,ULME,-8.430496534606483,39.31520984474876
pt.ine.add.PTCONT.4396010,R RELVAO,73C,2140-671,CARREGUEIRA,-8.410460647300784,39.41227550854664
pt.ine.add.PTCONT.4396027,,,2140-671,CARREGUEIRA,-8.430923377495763,39.440335983956054
pt.ine.add.PTCONT.4396097,R FOROS,,2140-520,PARREIRA,-8.392616021059219,39.215130009655155
pt.ine.add.PTCONT.4396057,R AREAL,13,2140-361,ULME,-8.292087117542378,39.322641904149364
pt.ine.add.PTCONT.4396069,R VALE,3,2140-426,VALE DE CAVALOS,-8.510139999528855,39.290434405466776
pt.ine.add.PTCONT.4396070,R DIREITA,164,2140-665,CARREGUEIRA,-8.41084502466198,39.4272083320276
pt.ine.add.PTCONT.4396071,R BARCA,35,2140-657,CARREGUEIRA,-8.416590667481325,39.426401849860724
pt.ine.add.PTCONT.4396088,R NOVA,,2140-307,PINHEIRO GRANDE,-8.425865079480316,39.394655896910585
pt.ine.add.PTCONT.4396089,R VALE,14,2140-363,ULME,-8.29289547972533,39.32114559441022
pt.ine.add.PTCONT.4396090,R GRALHAS,1,2140-662,CARREGUEIRA,-8.419748444397381,39.409100512557444
pt.ine.add.PTCONT.4396098,R ANTÓNIO VAZ TECEDEIRO,25,2140-675,CARREGUEIRA,-8.4122792253966,39.419900161100884
pt.ine.add.PTCONT.4396099,R GRALHAS,8,2140-662,CARREGUEIRA,-8.420832719028406,39.40735946624867
pt.ine.add.PTCONT.4397278,R POMARES DA QUINTA,37,2140-308,PINHEIRO GRANDE,-8.433487807034124,39.388286446742136
pt.ine.add.PTCONT.4397287,R NOVA,43,2140-671,CARREGUEIRA,-8.419425219547863,39.40956067036763
pt.ine.add.PTCONT.4397327,R NOVA,70,2140-671,CARREGUEIRA,-8.417079018003328,39.41223252060179
pt.ine.add.PTCONT.4397358,R D CATARINA,,2140-386,ULME,-8.432059790574304,39.31471044261891
pt.ine.add.PTCONT.4397547,BR CASAS PRÉ FABRICADAS,19,2140-058,CHAMUSCA,-8.471867213676175,39.35810618791822
pt.ine.add.PTCONT.4397779,R ALFARROBEIRA,,2140-091,CHAMUSCA,-8.477350606202517,39.35717136673821
pt.ine.add.PTCONT.4397795,R FONTINHA,72,2140-092,CHAMUSCA,-8.480836243458501,39.35348607942999
pt.ine.add.PTCONT.4397805,LG 25 DE ABRIL,,2140-210,CHOUTO,-8.318696244450093,39.180025121391395
pt.ine.add.PTCONT.4397824,R NOVA DO CASALINHO,,2140-137,CHAMUSCA,-8.47920967728536,39.348311801597525
pt.ine.add.PTCONT.4397895,R NORBERTO PEDROSO QTA DA LAMEIRA,70 A,2140-118,CHAMUSCA,-8.480978600858029,39.34709956570004
pt.ine.add.PTCONT.4397896,R JOSE LUCIANO DE CASTRO,21,2140-131,CHAMUSCA,-8.484689404749114,39.35607757514022
pt.ine.add.PTCONT.4397897,R MOUZINHO ALBUQUERQUE,32,2140-135,CHAMUSCA,-8.482501771135167,39.354787131016366
pt.ine.add.PTCONT.4397898,R MOUZINHO DE ALBUQUERQUE,32 36,2140-135,CHAMUSCA,-8.482501771135167,39.354787131016366
pt.ine.add.PTCONT.4397907,R DIREITA DE S PEDRO,68,2140-098,CHAMUSCA,-8.479265587415338,39.36199352587213
pt.ine.add.PTCONT.4397908,BR PAIO DE PELE,6,2140-059,CHAMUSCA,-8.479044375697994,39.36184106194025
pt.ine.add.PTCONT.4397909,R MARQUES DE CARVALHO,37,2140-132,CHAMUSCA,-8.47801551558974,39.35553910070945
pt.ine.add.PTCONT.4397910,R BARREIRO,27,2140-099,CHAMUSCA,-8.481308040433873,39.355042909354246
pt.ine.add.PTCONT.4398024,R D JOÃO I,22,2140-518,PARREIRA,-8.396931948750263,39.21122911740937
pt.ine.add.PTCONT.4398025,R D DINIS,10,2140-518,PARREIRA,-8.400598110728977,39.21318437141799
pt.ine.add.PTCONT.4398026,R DIREITA,92 C,2140-665,CARREGUEIRA,-8.41306656828013,39.42222209529401
pt.ine.add.PTCONT.4398033,BR NOVO,10,2140-216,CHOUTO,-8.354372020223902,39.27083839581286
pt.ine.add.PTCONT.4398034,R PADARIA,12,2140-212,CHOUTO,-8.342762379157376,39.2519444716446
pt.ine.add.PTCONT.4398035,R NOVA,22,2140-307,PINHEIRO GRANDE,-8.42595602651561,39.39419630502103
pt.ine.add.PTCONT.4398036,R 5 DE OUTUBRO,,2140-515,PARREIRA,-8.407531093442723,39.20953826241622
pt.ine.add.PTCONT.4398043,R FONTE,22,2140-410,VALE DE CAVALOS,-8.518049520414994,39.29121017077401
pt.ine.add.PTCONT.4398044,R 5 DE OUTUBRO,37,2140-515,PARREIRA,-8.406351192850016,39.20981125796447
pt.ine.add.PTCONT.4398080,CSL JUNCO,,2140-509,CHOUTO,-8.384709650283854,39.218948475936365
pt.ine.add.PTCONT.4398081,VALE STA MARIA,12,2140-314,PINHEIRO GRANDE,-8.425207235460649,39.39000987566021
pt.ine.add.PTCONT.4398082,LG NSA SRA DOS REMEDIOS,68,2140-409,VALE DE CAVALOS,-8.519925762649372,39.290924727518984
pt.ine.add.PTCONT.4398095,R IGREJA,50,2140-411,VALE DE CAVALOS,-8.52047697799669,39.28998613978351
pt.ine.add.PTCONT.4398096,HRD VALE CARROS,,2140-426,VALE DE CAVALOS,-8.492309418782307,39.269395720920535
pt.ine.add.PTCONT.4398097,HRD PERNA SECA,,2140-426,VALE DE CAVALOS,-8.421228369736411,39.252137084166264
pt.ine.add.PTCONT.4398106,R FONTE,18,2140-658,CARREGUEIRA,-8.412223614800022,39.417603488519305
pt.ine.add.PTCONT.4398126,R 1 DE DEZEMBRO,10,2140-406,VALE DE CAVALOS,-8.51802885561979,39.28955290290073
pt.ine.add.PTCONT.4398127,R 1 DE MAIO,13,2140-513,PARREIRA,-8.410246167766028,39.219854314147675
pt.ine.add.PTCONT.4398128,R CADETE,6,2140-615,CARREGUEIRA,-8.391770008744528,39.457290819367905
pt.ine.add.PTCONT.4398129,R OLIVAL DA COVA,,2140-669,CARREGUEIRA,-8.418629427167721,39.41372390285146
pt.ine.add.PTCONT.4398130,R OLIVAL DA COVA,,2140-669,CARREGUEIRA,-8.41938824174189,39.411875584470856
pt.ine.add.PTCONT.4398138,R VALE DE MOURO,14,2140-672,CARREGUEIRA,-8.410225972239326,39.41459089016403
pt.ine.add.PTCONT.4398139,R OUTEIRO,6,2140-678,CARREGUEIRA,-8.415042381038871,39.416849103375625
pt.ine.add.PTCONT.4398152,R DIREITA,66,2140-362,ULME,-8.293583062254854,39.32263084430018
pt.ine.add.PTCONT.4398153,,,2140-404,VALE DE CAVALOS,-8.527388098463828,39.304941996912554
pt.ine.add.PTCONT.4398166,R AUGUSTO SOUSA MAIA,4A,2140-369,ULME,-8.429881146938131,39.31501325588355
pt.ine.add.PTCONT.4398167,R MANUEL VARELA,16,2140-527,PARREIRA,-8.405552220717473,39.21278557267967
pt.ine.add.PTCONT.4398180,R MIRADOURO,19,2140-307,PINHEIRO GRANDE,-8.429570457638945,39.4006722728478
pt.ine.add.PTCONT.4398196,R CHAFARIZ,27,2140-374,ULME,-8.431082392687232,39.31391130398701
pt.ine.add.PTCONT.4398197,R SENO E TOSCANO,18,2140-405,VALE DE CAVALOS,-8.512632184877212,39.29044432322822
pt.ine.add.PTCONT.4398230,CSL BALSAS,,2140-352,ULME,-8.374531877575764,39.32383318621476
pt.ine.add.PTCONT.4398216,R ESCOLA,39,2140-361,ULME,-8.291322470414304,39.322967206743925
pt.ine.add.PTCONT.4398231,R 1 DE DEZEMBRO,68,2140-512,PARREIRA,-8.40020754627234,39.21400494110744
pt.ine.add.PTCONT.4398238,R CASAL DA AMENDOEIRA,26,2140-674,CARREGUEIRA,-8.411868633019107,39.42177461819733
pt.ine.add.PTCONT.4399081,R ESCOLA,11,2140-219,CHOUTO,-8.353552429814076,39.27184876990194
pt.ine.add.PTCONT.4399082,R ESCOLA,39,2140-219,CHOUTO,-8.352566982144742,39.27170651412735
pt.ine.add.PTCONT.4399395,R CARVALHAL,27,2140-420,VALE DE CAVALOS,-8.507235874435946,39.28271553557595
pt.ine.add.PTCONT.4424698,R DIREITA,88,2140-665,CARREGUEIRA,-8.414212856260766,39.42137266571811
pt.ine.add.PTCONT.4399555,TV IRRA,18,2140-679,CARREGUEIRA,-8.416661611775368,39.418115166722124
pt.ine.add.PTCONT.4399764,CC S FRANCISCO,14,2140-065,CHAMUSCA,-8.480468244415855,39.35648656581643
pt.ine.add.PTCONT.4399780,R FONTINHA,16,2140-092,CHAMUSCA,-8.47917362123679,39.3527614541047
pt.ine.add.PTCONT.4399789,R CHAFARIZ,15,2140-220,CHOUTO,-8.350921403261095,39.27169158907235
pt.ine.add.PTCONT.4399797,R JOSE CONCEIÇÃO RODRIGUES,,2140-185,CHAMUSCA,-8.469714842057918,39.35929237186205
pt.ine.add.PTCONT.4399798,AV ALM GAGO COUTINHO,,2140-051,CHAMUSCA,-8.47290156674182,39.35846345916242
pt.ine.add.PTCONT.4399799,AV ALM GAGO COUTINHO,,2140-051,CHAMUSCA,-8.47290156674182,39.35846345916242
pt.ine.add.PTCONT.4399816,R NORBERTO PEDROSO,11,2140-118,CHAMUSCA,-8.483415741934266,39.349623273269636
pt.ine.add.PTCONT.4399882,AV JESUINO MAGANO,25,2140-056,CHAMUSCA,-8.475899909849836,39.364210241928
pt.ine.add.PTCONT.4399887,BC JESUINO MAGANO,1,2140-064,CHAMUSCA,-8.475717116909088,39.36479624533865
pt.ine.add.PTCONT.4400061,EM 576,,2140-208,CHOUTO,-8.350442408870615,39.19158984796889
pt.ine.add.PTCONT.4400062,R MOINHO,1,2140-377,ULME,-8.428503204691328,39.31546712248496
pt.ine.add.PTCONT.4400063,R JOSE RODRIGUES,,2140-502,PARREIRA,-8.467276125080113,39.18562064824965
pt.ine.add.PTCONT.4400094,R PRINCIPAL,29,2140-670,CARREGUEIRA,-8.40853407129964,39.418413912721626
pt.ine.add.PTCONT.4400095,R PRINCIPAL,19,2140-670,CARREGUEIRA,-8.409139123567932,39.41871871947276
pt.ine.add.PTCONT.4400096,R RELVÃO,8,2140-671,CARREGUEIRA,-8.416048779663052,39.41876516877269
pt.ine.add.PTCONT.4400119,EN 118,13,2140-307,PINHEIRO GRANDE,-8.42777020244968,39.40876522353341
pt.ine.add.PTCONT.4400120,CSL GAVIÃO,6,2140-351,ULME,-8.334057532433526,39.33147616757757
pt.ine.add.PTCONT.4400131,CSL CASCALHEIRA DE BAIXO,,2140-358,ULME,-8.308667386087933,39.33073360127694
pt.ine.add.PTCONT.4400132,R JOSE MARQUES MARTINHO,6,2140-365,ULME,-8.434070044784105,39.315705066535315
pt.ine.add.PTCONT.4400149,LG AROEIRA,2,2140-307,PINHEIRO GRANDE,-8.427182316912445,39.398723790759
pt.ine.add.PTCONT.4400164,R MANUEL VARELA,18,2140-527,PARREIRA,-8.405633757332762,39.212911485599356
pt.ine.add.PTCONT.4400172,R FAVACAL,,2140-307,PINHEIRO GRANDE,-8.426491354502353,39.40005858745335
pt.ine.add.PTCONT.4400173,TV VALE,3,2140-532,PARREIRA,-8.400839053659853,39.21565184567993
pt.ine.add.PTCONT.4400181,R BAIRRO NOVO,1,2140-614,CARREGUEIRA,-8.396687099726712,39.45481185420804
pt.ine.add.PTCONT.4400182,BC ZAMBUJO,8,2140-602,CARREGUEIRA,-8.397428432489896,39.4542157078456
pt.ine.add.PTCONT.4400192,R AREAL,15,2140-361,ULME,-8.292017741571934,39.32273207133063
pt.ine.add.PTCONT.4400193,R BAIRRO NOVO,2,2140-614,CARREGUEIRA,-8.396908054231735,39.45486539542398
pt.ine.add.PTCONT.4400222,TV FONTE N SENHORA DOS REMEDIOS,17,2140-435,VALE DE CAVALOS,-8.520148684660544,39.293518077192395
pt.ine.add.PTCONT.4401318,R BONFIM,,2140-010,CHAMUSCA,-8.470665295942322,39.35909146132784
pt.ine.add.PTCONT.4401359,BR D MARIA VAZ MONTEIRO,15,2140-360,ULME,-8.29608459408852,39.326185229789395
pt.ine.add.PTCONT.4401390,R ANAFE,,2140-222,CHOUTO,-8.340012560367052,39.282051876368314
pt.ine.add.PTCONT.4401401,R CASAL DO ESPARGO,43,2140-089,CHAMUSCA,-8.477655026752423,39.353009153377904
pt.ine.add.PTCONT.4401432,R NOVA DA NORA,62,2140-136,CHAMUSCA,-8.482645727314676,39.35340860166169
pt.ine.add.PTCONT.4401502,R PRINCIPAL,19,2140-670,CARREGUEIRA,-8.409139123567932,39.41871871947276
pt.ine.add.PTCONT.4401540,BR CASAS PRÉ FABRICADAS,7,2140-058,CHAMUSCA,-8.472376496421592,39.35785250372266
pt.ine.add.PTCONT.4401747,TV MOITA,,2140-105,CHAMUSCA,-8.478946299270362,39.35371689011085
pt.ine.add.PTCONT.4401764,R DIREITA DE MARVILA,1,2140-227,CHOUTO,-8.321794287227805,39.25223253519691
pt.ine.add.PTCONT.4401765,EM 576,,2140-208,CHOUTO,-8.264113720073254,39.22809987372031
pt.ine.add.PTCONT.4401766,R ANAFE,,2140-222,CHOUTO,-8.338417281818323,39.28346884662071
pt.ine.add.PTCONT.4401778,R ANTÓNIO ARRENEGA,,2140-082,CHAMUSCA,-8.474971884859622,39.35950222712391
pt.ine.add.PTCONT.4401779,R VIMIOSO,,2140-107,CHAMUSCA,-8.472380722627747,39.35872618650271
pt.ine.add.PTCONT.4401780,R VIMIOSO B,B 11,2140-107,CHAMUSCA,-8.472380722627747,39.35872618650271
pt.ine.add.PTCONT.4401781,R VIMIOSO,,2140-107,CHAMUSCA,-8.472380722627747,39.35872618650271
pt.ine.add.PTCONT.4401782,R VIMIOSO,,2140-107,CHAMUSCA,-8.472380722627747,39.35872618650271
pt.ine.add.PTCONT.4401783,R VIMIOSO,,2140-107,CHAMUSCA,-8.472380722627747,39.35872618650271
pt.ine.add.PTCONT.4401784,R VIMIOSO,,2140-107,CHAMUSCA,-8.472380722627747,39.35872618650271
pt.ine.add.PTCONT.4401785,R VIMIOSO,,2140-107,CHAMUSCA,-8.472380722627747,39.35872618650271
pt.ine.add.PTCONT.4401786,R VIMIOSO,,2140-107,CHAMUSCA,-8.472380722627747,39.35872618650271
pt.ine.add.PTCONT.4401787,BR 1 DE MAIO,16,2140-057,CHAMUSCA,-8.473154635907973,39.35801236170652
pt.ine.add.PTCONT.4401792,LG 25 DE ABRIL,,2140-068,CHAMUSCA,-8.46952883755381,39.33018167980364
pt.ine.add.PTCONT.4401855,R DIREITA DE S PEDRO,8,2140-098,CHAMUSCA,-8.478033373175917,39.36388868763426
pt.ine.add.PTCONT.4401868,R JOSE LUCIANO DE CASTRO,Z8,2140-131,CHAMUSCA,-8.484921399217326,39.3560678669015
pt.ine.add.PTCONT.4401869,AV ALM GAGO COUTINHO,,2140-053,CHAMUSCA,-8.475185743879706,39.35815052402045
pt.ine.add.PTCONT.4401878,AV ALM GAGO COUTINHO,17,2140-053,CHAMUSCA,-8.47824423934206,39.357222763030556
pt.ine.add.PTCONT.4401879,R MARQUES DE CARVALHO,31,2140-132,CHAMUSCA,-8.477910522897556,39.35542231861534
pt.ine.add.PTCONT.4401991,R NOVA,43,2140-307,PINHEIRO GRANDE,-8.420182350485423,39.393156860594345
pt.ine.add.PTCONT.4401992,R D JOÃO I,47,2140-518,PARREIRA,-8.392412157000937,39.21322089435668
pt.ine.add.PTCONT.4401993,R BARCA,15,2140-657,CARREGUEIRA,-8.41749643588603,39.42351737596665
pt.ine.add.PTCONT.4402000,QTA FLORES,,2140-307,PINHEIRO GRANDE,-8.43038522043201,39.392960104662635
pt.ine.add.PTCONT.4402001,R NOVA,42,2140-307,PINHEIRO GRANDE,-8.42355148964548,39.39381502608054
pt.ine.add.PTCONT.4402002,R EIRA,1,2140-385,ULME,-8.437356098279814,39.31675037158778
pt.ine.add.PTCONT.4402012,R CANICEIRA,,2140-415,VALE DE CAVALOS,-8.509608464277866,39.28208638612387
pt.ine.add.PTCONT.4402029,R FOROS,72,2140-428,VALE DE CAVALOS,-8.514051229036218,39.29134942257287
pt.ine.add.PTCONT.4402030,R JOSE RODRIGUES,10,2140-502,PARREIRA,-8.467171234875803,39.185467822639495
pt.ine.add.PTCONT.4402040,R FORNO,27,2140-375,ULME,-8.426680666281191,39.314976334575604
pt.ine.add.PTCONT.4402052,R VELHA,1,2140-382,ULME,-8.430269963284552,39.31647143677386
pt.ine.add.PTCONT.4402053,R MOUTINHO,6,2140-384,ULME,-8.434257462852376,39.31614593652994
pt.ine.add.PTCONT.4402067,R SENO E TOSCANO,,2140-405,VALE DE CAVALOS,-8.513928632517672,39.29011582869062
pt.ine.add.PTCONT.4402068,R CANTO DO PEDREIRO,4,2140-419,VALE DE CAVALOS,-8.515920282471102,39.28973999979812
pt.ine.add.PTCONT.4402069,R BAIRRO NOVO,82,2140-519,PARREIRA,-8.408288063725813,39.21659827963018
pt.ine.add.PTCONT.4402070,HRD VALE DA LAMA ROSA,,2140-510,PARREIRA,-8.386512104057916,39.182401450464425
pt.ine.add.PTCONT.4402088,R CABEÇO DE ESPANHA,10,2140-615,CARREGUEIRA,-8.393269445888114,39.45744960133903
pt.ine.add.PTCONT.4402089,R CABEÇO DE ESPANHA,16,2140-615,CARREGUEIRA,-8.393734839704502,39.457619692823975
pt.ine.add.PTCONT.4402099,R CARVALHOS,20,2140-427,VALE DE CAVALOS,-8.514771026498671,39.2830153428596
pt.ine.add.PTCONT.4402100,R SOCIEDADE,7,2140-612,CARREGUEIRA,-8.39561568355643,39.457237167698075
pt.ine.add.PTCONT.4402117,R MEIRINHO,31,2140-307,PINHEIRO GRANDE,-8.428270612332513,39.39801848026375
pt.ine.add.PTCONT.4402118,EN 118,,2140-307,PINHEIRO GRANDE,-8.432289603425671,39.40125978148054
pt.ine.add.PTCONT.4402119,R CARVALHOS,12,2140-427,VALE DE CAVALOS,-8.513317713857308,39.282173413564344
pt.ine.add.PTCONT.4402120,R 25 DE ABRIL,7,2140-609,CARREGUEIRA,-8.394577696773162,39.456194690884764
pt.ine.add.PTCONT.4402121,R 25 DE ABRIL,17,2140-609,CARREGUEIRA,-8.395959439080425,39.45595739358091
pt.ine.add.PTCONT.4402132,R MIRADOURO,12,2140-307,PINHEIRO GRANDE,-8.427917368464866,39.39959562027257
pt.ine.add.PTCONT.4402133,R 25 DE ABRIL,48,2140-514,PARREIRA,-8.409619153679166,39.213514597592095
pt.ine.add.PTCONT.4402134,R SEBASTIÃO GIL,46,2140-617,CARREGUEIRA,-8.39770056428887,39.4555121011838
pt.ine.add.PTCONT.4402156,R AUGUSTO SOUSA MAIA,56,2140-369,ULME,-8.42955906632034,39.31287936015103
pt.ine.add.PTCONT.4402157,R CEMITÉRIO,1,2140-373,ULME,-8.42700360002181,39.31456118666754
pt.ine.add.PTCONT.4402158,TV VALE,1,2140-532,PARREIRA,-8.400547735217657,39.21516611527801
pt.ine.add.PTCONT.4402159,R BAIRRO DAS COUTADAS,23,2140-651,CARREGUEIRA,-8.423548684168534,39.415531157236295
pt.ine.add.PTCONT.4402172,R BAIRRO NOVO,17,2140-519,PARREIRA,-8.401434232653019,39.213830981532915
pt.ine.add.PTCONT.4402173,BC ZAMBUJO,1,2140-602,CARREGUEIRA,-8.397766728781113,39.454575219695826
pt.ine.add.PTCONT.4402174,R DIREITA,154,2140-665,CARREGUEIRA,-8.411273054095378,39.426783977005485
pt.ine.add.PTCONT.4402175,R RELVÃO,90,2140-671,CARREGUEIRA,-8.410458720275987,39.41178913011259
pt.ine.add.PTCONT.4402176,R RELVÃO,98,2140-671,CARREGUEIRA,-8.408499519084906,39.409632081458724
pt.ine.add.PTCONT.4402204,R MEIRINHO,14,2140-307,PINHEIRO GRANDE,-8.428477485014286,39.39752256408584
pt.ine.add.PTCONT.4403299,CSL BALSAS,,2140-352,ULME,-8.376511802937298,39.3229283396027
pt.ine.add.PTCONT.4403329,CSL GAVIÃO,3,2140-224,CHOUTO,-8.30421138101819,39.263086522912
pt.ine.add.PTCONT.4403342,R DIREITA DE MARVILA,35,2140-227,CHOUTO,-8.324015164477228,39.2509588792616
pt.ine.add.PTCONT.4403343,TV CANTONEIROS,7,2140-533,PARREIRA,-8.394381647908489,39.21664831361219
pt.ine.add.PTCONT.4403424,R VIMIOSO,,2140-107,CHAMUSCA,-8.472380722627747,39.35872618650271
pt.ine.add.PTCONT.4403594,R FONTINHA,94,2140-092,CHAMUSCA,-8.481882577977107,39.353924299908776
pt.ine.add.PTCONT.4403598,BR 1 DE MAIO,58,2140-057,CHAMUSCA,-8.47465837535314,39.35707121293541
pt.ine.add.PTCONT.4403606,R TRABALHADORES,14 A,2140-674,CARREGUEIRA,-8.410618613628843,39.42283143491888
pt.ine.add.PTCONT.4403607,R OLIVAL DA COVA,3,2140-669,CARREGUEIRA,-8.416656576104453,39.41687220144313
pt.ine.add.PTCONT.4403668,BR CASAS PRÉ FABRICADAS,3,2140-058,CHAMUSCA,-8.471946558944204,39.35771864876723
pt.ine.add.PTCONT.4403669,R FÁBRICA DA PARÓQUIA,,2140-108,CHAMUSCA,-8.470739992196659,39.35532624844278
pt.ine.add.PTCONT.4403698,R FONTINHA,4,2140-092,CHAMUSCA,-8.478079542337941,39.352044128254605
pt.ine.add.PTCONT.4403699,LG TABERNAS,25,2140-224,CHOUTO,-8.314880847587448,39.257819079038725
pt.ine.add.PTCONT.4403700,EM 576,,2140-206,CHOUTO,-8.254777188354835,39.23355046393458
pt.ine.add.PTCONT.4403701,EM 576,,2140-208,CHOUTO,-8.352936635916477,39.18966658330586
pt.ine.add.PTCONT.4403702,R 20 DE ABRIL,32,2140-407,VALE DE CAVALOS,-8.510762726266362,39.28983790790159
pt.ine.add.PTCONT.4403703,R 20 DE ABRIL,32,2140-407,VALE DE CAVALOS,-8.510762726266362,39.28983790790159
pt.ine.add.PTCONT.4403704,R 20 DE ABRIL,32,2140-407,VALE DE CAVALOS,-8.510762726266362,39.28983790790159
pt.ine.add.PTCONT.4403705,R CASAL DAS OLIVEIRAS,Z,2140-421,VALE DE CAVALOS,-8.511358481104786,39.28853892786794
pt.ine.add.PTCONT.4403706,R CANICEIRA,,2140-415,VALE DE CAVALOS,-8.507285293515146,39.28111208143214
pt.ine.add.PTCONT.4403707,R 1 DE MAIO,8,2140-513,PARREIRA,-8.40964247315288,39.21945942358191
pt.ine.add.PTCONT.4403708,R 1 DE DEZEMBRO,64,2140-512,PARREIRA,-8.399793542594646,39.214753503841486
pt.ine.add.PTCONT.4403709,R BAIRRO NOVO,39,2140-519,PARREIRA,-8.403637870223347,39.214789676915906
pt.ine.add.PTCONT.4403883,R LAGARAO,8,2140-653,CARREGUEIRA,-8.41775833657415,39.419382486867754
pt.ine.add.PTCONT.4403884,R BAIXO,21,2140-664,CARREGUEIRA,-8.41903361896429,39.4188659558075
pt.ine.add.PTCONT.4403885,R RELVÃO,92,2140-671,CARREGUEIRA,-8.410342143633983,39.41167231575703
pt.ine.add.PTCONT.4403886,R NOVA DA RAMALHA,7,2140-659,CARREGUEIRA,-8.41656527339955,39.411531220268884
pt.ine.add.PTCONT.4404344,R DIREITA DE S PEDRO,100,2140-098,CHAMUSCA,-8.479818477614346,39.361172228498816
pt.ine.add.PTCONT.4404345,R JOSE CONCEIÇÃO RODRIGUES,5,2140-185,CHAMUSCA,-8.470501864393988,39.35888477044431
pt.ine.add.PTCONT.4404346,AV ALM GAGO COUTINHO,,2140-051,CHAMUSCA,-8.473203097888947,39.35843555689603
pt.ine.add.PTCONT.4404347,R ISIDRO DOS REIS,,2140-307,PINHEIRO GRANDE,-8.437587673425908,39.39418446192873
pt.ine.add.PTCONT.4404348,LG BERNARDINO JOSE MONTEIRO,3,2140-307,PINHEIRO GRANDE,-8.437304388202593,39.39577946232018
pt.ine.add.PTCONT.4404349,R NOVA,29,2140-307,PINHEIRO GRANDE,-8.421717192521324,39.393774554879904
pt.ine.add.PTCONT.4404350,R BAIXO,11,2140-306,PINHEIRO GRANDE,-8.430558165092261,39.38174578803233
pt.ine.add.PTCONT.4404351,R D JOÃO I,15,2140-518,PARREIRA,-8.396446101427497,39.21134731292152
pt.ine.add.PTCONT.4404352,R 5 DE OUTUBRO,23,2140-515,PARREIRA,-8.405149725638564,39.210498632610516
pt.ine.add.PTCONT.4404353,R 25 DE ABRIL,,2140-502,PARREIRA,-8.464424074971706,39.18459293770748
pt.ine.add.PTCONT.4404354,HRD MACHUQUEIRA DO GROU,,2140-510,PARREIRA,-8.36426646183004,39.10775740804435
pt.ine.add.PTCONT.4404380,R DIREITA DE S PEDRO,260,2140-098,CHAMUSCA,-8.484172200662101,39.3547370683658
pt.ine.add.PTCONT.4404381,R BARREIRO,28,2140-099,CHAMUSCA,-8.482197794200353,39.35431967035621
pt.ine.add.PTCONT.4404382,R BARREIRO,32,2140-099,CHAMUSCA,-8.482197794200353,39.35431967035621
pt.ine.add.PTCONT.4404383,CSL LARANJEIRA,,2140-353,ULME,-8.351625949152469,39.33059783350065
pt.ine.add.PTCONT.4404384,R SALGUEIRA DE CIMA,3,2140-380,ULME,-8.419681851791808,39.31330941914902
pt.ine.add.PTCONT.4404385,R CHAFARIZ,8,2140-374,ULME,-8.431037654980582,39.314298729873464
pt.ine.add.PTCONT.4404386,R MOINHO,4,2140-377,ULME,-8.428271411499981,39.31549473213546
pt.ine.add.PTCONT.4404425,R DIREITA DE S PEDRO,100,2140-098,CHAMUSCA,-8.479818477614346,39.361172228498816
pt.ine.add.PTCONT.4404426,R DIREITA DE S PEDRO,100,2140-098,CHAMUSCA,-8.479818477614346,39.361172228498816
pt.ine.add.PTCONT.4404427,R DIREITA DE S PEDRO,,2140-098,CHAMUSCA,-8.480810247823687,39.35994429572242
pt.ine.add.PTCONT.4404428,R MARQUES DE CARVALHO,85,2140-132,CHAMUSCA,-8.47938876405493,39.356390703863575
pt.ine.add.PTCONT.4404429,R ALFARROBEIRA,37,2140-091,CHAMUSCA,-8.478183613994883,39.35669151995318
pt.ine.add.PTCONT.4404430,TV BARRAJOLAS,12 C,2140-153,CHAMUSCA,-8.478053997695111,39.35628658165236
pt.ine.add.PTCONT.4404431,CSL PEREIRO,,2140-015,ULME,-8.474667505335054,39.32319513086256
pt.ine.add.PTCONT.4404432,TV FONTE N SENHORA DOS REMEDIOS,5,2140-435,VALE DE CAVALOS,-8.52024953696364,39.29288723390046
pt.ine.add.PTCONT.4404433,R IGREJA,17,2140-411,VALE DE CAVALOS,-8.520674372919872,39.29004853373028
pt.ine.add.PTCONT.4404434,R PEDREIRO,,2140-425,VALE DE CAVALOS,-8.51679309635198,39.29037664254869
pt.ine.add.PTCONT.4404435,R FOROS,45,2140-428,VALE DE CAVALOS,-8.514804367186617,39.29129291247349
pt.ine.add.PTCONT.4405493,R FONTINHA,28,2140-092,CHAMUSCA,-8.479778097920892,39.35300284880973
pt.ine.add.PTCONT.4405535,R D JOÃO I,1,2140-108,CHAMUSCA,-8.474653375440809,39.35604441042955
pt.ine.add.PTCONT.4405551,R BAIRRO NOVO,68,2140-519,PARREIRA,-8.40622482414929,39.21604467646936
pt.ine.add.PTCONT.4405664,R DIREITA S PEDRO,72,2140-098,CHAMUSCA,-8.479392152646522,39.36177697752238
pt.ine.add.PTCONT.4405665,MOUCHÃO DOS COELHOS,,2140-403,VALE DE CAVALOS,-8.553562970923238,39.310137652175364
pt.ine.add.PTCONT.4405694,R MARQUES DE CARVALHO,,2140-132,CHAMUSCA,-8.47514000754053,39.353529980615214
pt.ine.add.PTCONT.4405736,AV ALM GAGO COUTINHO,,2140-051,CHAMUSCA,-8.473203097888947,39.35843555689603
pt.ine.add.PTCONT.4405990,BR 1 DE MAIO,32,2140-057,CHAMUSCA,-8.473919688495997,39.35786600915492
pt.ine.add.PTCONT.4406024,R ANAFE,,2140-222,CHOUTO,-8.342439952124268,39.2798677700063
pt.ine.add.PTCONT.4406016,R ALVARO FERNANDES AMARAL NETTO,74,2140-188,CHAMUSCA,-8.476462461675368,39.3511301782312
pt.ine.add.PTCONT.4406017,R FONTINHA,60,2140-092,CHAMUSCA,-8.480534023014423,39.35336988876828
pt.ine.add.PTCONT.4406018,TV BECO,6,2140-215,CHOUTO,-8.341852616649666,39.253783604930874
pt.ine.add.PTCONT.4406025,R BAIRRO DE S PEDRO,,2140-225,CHOUTO,-8.344503917304625,39.26092164456095
pt.ine.add.PTCONT.4406026,EM 576,,2140-208,CHOUTO,-8.325329189681344,39.20182139659451
pt.ine.add.PTCONT.4406050,CSL S SEBASTIÃO,,2140-013,CHAMUSCA,-8.470164742022936,39.361164559719
pt.ine.add.PTCONT.4406051,BR 1 DE MAIO,70,2140-057,CHAMUSCA,-8.473844692730045,39.35675834718234
pt.ine.add.PTCONT.4406074,LG 25 DE ABRIL,,2140-068,CHAMUSCA,-8.469713580588316,39.33001000872992
pt.ine.add.PTCONT.4406075,,,2140-013,CHAMUSCA,-8.469665049062147,39.36584072109006
pt.ine.add.PTCONT.4406081,R NOVA,32,2140-137,CHAMUSCA,-8.480437523789275,39.3479388494948
pt.ine.add.PTCONT.4406145,R MIGUEL BOMBARDA,13,2140-134,CHAMUSCA,-8.482184810475294,39.35637334376342
pt.ine.add.PTCONT.4406155,R DIREITA DE S PEDRO,50,2140-098,CHAMUSCA,-8.478931100089573,39.36239984245014
pt.ine.add.PTCONT.4406156,R MIGUEL BOMBARDA,71,2140-134,CHAMUSCA,-8.483093416526575,39.354776346157394
pt.ine.add.PTCONT.4406157,CSL OUTEIRO,,2140-213,CHOUTO,-8.319834177042084,39.255757567893696
pt.ine.add.PTCONT.4406285,R NOVA,29A,2140-307,PINHEIRO GRANDE,-8.421798784670411,39.39385541654001
pt.ine.add.PTCONT.4406286,R PARDAIS,6,2140-431,VALE DE CAVALOS,-8.517550243658441,39.29317540287583
pt.ine.add.PTCONT.4406317,R QUINTINHA,22,2140-371,ULME,-8.433039672080634,39.3160860297769
pt.ine.add.PTCONT.4406334,EN 243,24,2140-213,CHOUTO,-8.329355542706699,39.25503033270929
pt.ine.add.PTCONT.4406337,R VALE DA LAMA,1,2140-502,PARREIRA,-8.46741164144226,39.18490867220549
pt.ine.add.PTCONT.4406351,R SALGUEIRA CIMA,,2140-380,ULME,-8.421692557888525,39.31446638656835
pt.ine.add.PTCONT.4406362,R VÁRZEA,,2140-412,VALE DE CAVALOS,-8.520809988565802,39.28941757387477
pt.ine.add.PTCONT.4406380,CHA DE OVELHA,,2140-307,PINHEIRO GRANDE,-8.439192258130728,39.384155322828555
pt.ine.add.PTCONT.4406381,R DIREITA,50 A,2140-665,CARREGUEIRA,-8.418551483599162,39.417389978296164
pt.ine.add.PTCONT.4406382,EN 118,50 1,2140-650,CARREGUEIRA,-8.418551483599162,39.417389978296164
pt.ine.add.PTCONT.4406407,R GODINHAS,18,2140-307,PINHEIRO GRANDE,-8.428259509872325,39.40364795074981
pt.ine.add.PTCONT.4406408,R VIRIATO CABREIRA,39,2140-383,ULME,-8.427817908348816,39.315189634922525
pt.ine.add.PTCONT.4406437,R MIRADOURO,,2140-307,PINHEIRO GRANDE,-8.42828848493499,39.399504608223104
pt.ine.add.PTCONT.4406438,TV SERRACAO,5,2140-528,PARREIRA,-8.40582835087849,39.21532501347995
pt.ine.add.PTCONT.4406439,R FLORES,9,2140-613,CARREGUEIRA,-8.39789978601779,39.455961999141834
pt.ine.add.PTCONT.4406440,R DO RELVÃO,70A,2140-671,CARREGUEIRA,-8.41199113868134,39.41463170749771
pt.ine.add.PTCONT.4406450,R SOMMER DE ANDRADE,17,2140-618,CARREGUEIRA,-8.398647298430163,39.45393371347829
pt.ine.add.PTCONT.4406466,R 16 DE JULHO,12,2140-511,PARREIRA,-8.40379178371945,39.21567204447706
pt.ine.add.PTCONT.4406467,R CASAL DO PINHEIRO,,2140-667,CARREGUEIRA,-8.408361813174526,39.42480934622166
pt.ine.add.PTCONT.4406468,R RELVÃO,88,2140-671,CARREGUEIRA,-8.410528744975661,39.411879034086176
pt.ine.add.PTCONT.4406501,R AREAL,33,2140-361,ULME,-8.291646770908013,39.32278662062159
pt.ine.add.PTCONT.4406517,R 20 DE ABRIL,40,2140-407,VALE DE CAVALOS,-8.51063609570661,39.29000044931332
pt.ine.add.PTCONT.4406529,CSL BALSAS,,2140-352,ULME,-8.376268305145086,39.32293785572261
pt.ine.add.PTCONT.4406530,R ESCOLAS NOVAS,11,2140-661,CARREGUEIRA,-8.413327536357134,39.420690263682665
pt.ine.add.PTCONT.4407638,R RELVÃO,92 A,2140-671,CARREGUEIRA,-8.410375871551576,39.41139301546752
pt.ine.add.PTCONT.4407644,R 21 DE OUTUBRO,4,2140-080,CHAMUSCA,-8.483988599933982,39.35514294465028
pt.ine.add.PTCONT.4407768,R DR JOAO JOAQUIM ISIDRO REIS,37,2140-116,CHAMUSCA,-8.48471382650402,39.35400585256267
pt.ine.add.PTCONT.4407769,R AUGUSTO SOUSA MAIA,,2140-369,ULME,-8.429221712973023,39.31261900864738
pt.ine.add.PTCONT.4407792,ESTR CANADA,2,2140-651,CARREGUEIRA,-8.419574279999143,39.417612641281934
pt.ine.add.PTCONT.4407809,BC JESUINO MAGANO,2,2140-064,CHAMUSCA,-8.475926463136304,39.36489470753871
pt.ine.add.PTCONT.4407848,R AUGUSTO SOUSA MAIA,59,2140-369,ULME,-8.429221712973023,39.31261900864738
pt.ine.add.PTCONT.4407905,ESTR CANADA,2,2140-651,CARREGUEIRA,-8.419574279999143,39.417612641281934
pt.ine.add.PTCONT.4408007,R MOUZINHO ALBUQUERQUE,46,2140-135,CHAMUSCA,-8.482709166541207,39.35449827877731
pt.ine.add.PTCONT.4408008,R COMBATENTES DA GRANDE GUERRA,16,2140-110,CHAMUSCA,-8.483807547646986,39.35373837187573
pt.ine.add.PTCONT.4408009,R COMBATENTES DA GRANDE GUERRA,22,2140-110,CHAMUSCA,-8.483842037199235,39.35367521774644
pt.ine.add.PTCONT.4408121,R ALFARROBEIRA,11,2140-091,CHAMUSCA,-8.477754602119198,39.356746834207094
pt.ine.add.PTCONT.4408122,R ALFARROBEIRA,10,2140-091,CHAMUSCA,-8.478311502976977,39.35674518368997
pt.ine.add.PTCONT.4408123,R JOÃO JOSE SAMOUCO DA FONSECA,,2140-153,CHAMUSCA,-8.475201875694708,39.356700322748715
pt.ine.add.PTCONT.4408124,R BARREIRO,13,2140-099,CHAMUSCA,-8.481053828085523,39.355250834536456
pt.ine.add.PTCONT.4408125,R CASAL DO ESPARGO,16,2140-088,CHAMUSCA,-8.478395984116716,39.3550515853864
pt.ine.add.PTCONT.4408241,TV BECO,19,2140-215,CHOUTO,-8.341877336380659,39.25430598674563
pt.ine.add.PTCONT.4408242,R DIREITA MARVILA,2,2140-227,CHOUTO,-8.322456909715198,39.25307815081988
pt.ine.add.PTCONT.4408243,R DIREITA DE MARVILA,2,2140-227,CHOUTO,-8.322466362928886,39.25228548854443
pt.ine.add.PTCONT.4408244,EM 576,,2140-206,CHOUTO,-8.25687091406105,39.23206203918227
pt.ine.add.PTCONT.4408245,R DIREITA DO MERCADOR,12,2140-222,CHOUTO,-8.354229453480386,39.26972175888872
pt.ine.add.PTCONT.4408246,R BOAVISTA,1,2140-211,CHOUTO,-8.343180135908048,39.25217790997747
pt.ine.add.PTCONT.4408341,CSL JUNCO,,2140-509,CHOUTO,-8.378449149577392,39.22343850354853
pt.ine.add.PTCONT.4408342,R LADEIRA DO PINHAL,4,2140-307,PINHEIRO GRANDE,-8.424228693095179,39.40313569456742
pt.ine.add.PTCONT.4408443,CSL BALSAS,,2140-352,ULME,-8.375329786650022,39.323174000492955
pt.ine.add.PTCONT.4408444,CSL ROMANZEIRA,12,2140-384,ULME,-8.434660944623811,39.31559545053986
pt.ine.add.PTCONT.4408445,R FORNO,6,2140-375,ULME,-8.42723799289984,39.3151550726011
pt.ine.add.PTCONT.4408546,R CHAFARIZ,P,2140-374,ULME,-8.430265657538662,39.31545362978261
pt.ine.add.PTCONT.4408547,TV FUNDA,3,2140-410,VALE DE CAVALOS,-8.518611430844544,39.29221712477018
pt.ine.add.PTCONT.4408548,R PARDAIS,20,2140-431,VALE DE CAVALOS,-8.517026410323632,39.292771804710114
pt.ine.add.PTCONT.4408549,R 5 DE OUTUBRO,27,2140-409,VALE DE CAVALOS,-8.520239369185797,39.291040779613894
pt.ine.add.PTCONT.4408550,LG NSA SRA DOS REMEDIOS,40,2140-409,VALE DE CAVALOS,-8.518986976078173,39.290945857109925
pt.ine.add.PTCONT.4408551,R FONTE,42,2140-410,VALE DE CAVALOS,-8.516538337944294,39.29042251808632
pt.ine.add.PTCONT.4408662,R FONTE,60,2140-410,VALE DE CAVALOS,-8.515388174426082,39.28993990783378
pt.ine.add.PTCONT.4408768,R 1 DE DEZEMBRO,28,2140-512,PARREIRA,-8.39480719883642,39.215872722139125
pt.ine.add.PTCONT.4408769,R BAIRRO NOVO,30,2140-519,PARREIRA,-8.40298945827427,39.214791180863664
pt.ine.add.PTCONT.4408770,R BAIRRO NOVO,21,2140-519,PARREIRA,-8.401991003071453,39.21409091243244
pt.ine.add.PTCONT.4408771,R 25 DE ABRIL,15,2140-609,CARREGUEIRA,-8.395506007745682,39.45587735422876
pt.ine.add.PTCONT.4408866,R 25 DE ABRIL,21,2140-656,CARREGUEIRA,-8.415040020837676,39.41914591530715
pt.ine.add.PTCONT.4408945,R DIREITA,106,2140-665,CARREGUEIRA,-8.412804472904563,39.423474709320736
pt.ine.add.PTCONT.4408946,R BAIXO,49,2140-664,CARREGUEIRA,-8.418229333482488,39.42097558648073
pt.ine.add.PTCONT.4408947,R DIREITA,8S,2140-665,CARREGUEIRA,-8.41562591846498,39.42045052054805
pt.ine.add.PTCONT.4408948,R NOVA,,2140-671,CARREGUEIRA,-8.414854458101908,39.41343587244037
pt.ine.add.PTCONT.4408949,R RELVÃO,84,2140-671,CARREGUEIRA,-8.410901879485007,39.4122744557981
pt.ine.add.PTCONT.4408950,R NOVA DA RAMALHA,40,2140-659,CARREGUEIRA,-8.415100879196384,39.40831023878609
pt.ine.add.PTCONT.4409370,R ENG JOSE BELARD DA FONSECA,,2140-123,CHAMUSCA,-8.48352701710039,39.36028742644797
pt.ine.add.PTCONT.4409371,AV JESUINO MAGANO,20,2140-056,CHAMUSCA,-8.476134135603191,39.364650902396335
pt.ine.add.PTCONT.4409372,AV JESUINO MAGANO,14,2140-056,CHAMUSCA,-8.475901186745528,39.36447144568991
pt.ine.add.PTCONT.4409373,BR PAIO DE PELE,11,2140-059,CHAMUSCA,-8.479332626091294,39.3614709112065
pt.ine.add.PTCONT.4409478,BR 1 DE MAIO,4,2140-057,CHAMUSCA,-8.473932384990343,39.35809115112779
pt.ine.add.PTCONT.4409479,LG 25 DE ABRIL,,2140-068,CHAMUSCA,-8.472108402044636,39.33118300326386
pt.ine.add.PTCONT.4409586,R NOVA DA NORA,5,2140-136,CHAMUSCA,-8.481158522663652,39.35062984193456
pt.ine.add.PTCONT.4409587,R NOVA DA NORA,,2140-136,CHAMUSCA,-8.482079712718148,39.35157283688917
pt.ine.add.PTCONT.4409588,R NORBERTO PEDROSO,129,2140-118,CHAMUSCA,-8.47839633002916,39.34569312734583
pt.ine.add.PTCONT.4409589,R INF D HENRIQUE,21,2140-130,CHAMUSCA,-8.483994907837035,39.35640392910968
pt.ine.add.PTCONT.4409618,R MANUEL PEDRO,17A,2140-525,PARREIRA,-8.412033134489558,39.22078681772672
pt.ine.add.PTCONT.4409641,R MIGUEL BOMBARDA,63,2140-134,CHAMUSCA,-8.482885932067678,39.3550471849959
pt.ine.add.PTCONT.4409676,R BONFIM,,2140-010,CHAMUSCA,-8.469384227457669,39.35809537457316
pt.ine.add.PTCONT.4409689,TV PEREIRA,20,2140-307,PINHEIRO GRANDE,-8.438042479523189,39.39199454115885
pt.ine.add.PTCONT.4409718,CSL ROMANZEIRA,12,2140-384,ULME,-8.434660944623811,39.31559545053986
pt.ine.add.PTCONT.4409793,EM 576,,2140-208,CHOUTO,-8.291432463163579,39.21732011740613
pt.ine.add.PTCONT.4409832,R OUTEIRO DO PRANTO,,2140-105,CHAMUSCA,-8.476845962392728,39.35126415385853
pt.ine.add.PTCONT.4409861,R OUTEIRO DO PRANTO,24,2140-105,CHAMUSCA,-8.478339691556474,39.35304315315392
pt.ine.add.PTCONT.4410190,R ALFARROBEIRA,19,2140-091,CHAMUSCA,-8.477928323686621,39.35668326945341
pt.ine.add.PTCONT.4410213,R S DOMINGOS,,2140-206,CHOUTO,-8.225890318938275,39.25887875412445
pt.ine.add.PTCONT.4410229,R ANAFE,,2140-222,CHOUTO,-8.342405344316962,39.27992187605694
pt.ine.add.PTCONT.4410247,R FONTINHA,27,2140-092,CHAMUSCA,-8.478519727398906,39.351907715069075
pt.ine.add.PTCONT.4410326,R JOSE LUCIANO DE CASTRO,26,2140-131,CHAMUSCA,-8.48488686430696,39.35612201429511
pt.ine.add.PTCONT.4410337,R MQ CARVALHO,45,2140-132,CHAMUSCA,-8.47848021251561,39.35566382298183
pt.ine.add.PTCONT.4410455,R DIREITA DO MERCADOR,,2140-222,CHOUTO,-8.356280961947125,39.269861962505345
pt.ine.add.PTCONT.4410456,R MEIRINHO,,2140-307,PINHEIRO GRANDE,-8.427191354242364,39.39811128432604
pt.ine.add.PTCONT.4410457,TV CORDEIROS,18,2140-518,PARREIRA,-8.393616125098832,39.213164163887946
pt.ine.add.PTCONT.4410488,R ROMEIRA,11,2140-372,ULME,-8.43090683749277,39.316262642848436
pt.ine.add.PTCONT.4410489,R CANICEIRA,110,2140-415,VALE DE CAVALOS,-8.505819899310254,39.28015300224869
pt.ine.add.PTCONT.4410519,R IGREJA,9,2140-411,VALE DE CAVALOS,-8.520778344559094,39.289985136767726
pt.ine.add.PTCONT.4410520,R C BR PINHAL MANSO,10,2140-670,CARREGUEIRA,-8.407931111011196,39.41864051579555
pt.ine.add.PTCONT.4410554,R GODINHAS,5A,2140-307,PINHEIRO GRANDE,-8.429572804071938,39.40396886737232
pt.ine.add.PTCONT.4410555,CSL CASCALHEIRA DE BAIXO,,2140-358,ULME,-8.304651455142857,39.32949659069017
pt.ine.add.PTCONT.4410570,CSL RIBEIRA,,2140-357,ULME,-8.320182088672299,39.329941043376756
pt.ine.add.PTCONT.4410571,R 4 DE JUNHO,11,2140-408,VALE DE CAVALOS,-8.513345718782567,39.28949623256144
pt.ine.add.PTCONT.4410572,R VALE DE MOURO,10 A,2140-672,CARREGUEIRA,-8.410411153759377,39.414437328386846
pt.ine.add.PTCONT.4410590,R RELVAO,75,2140-671,CARREGUEIRA,-8.410250323194958,39.41194274733405
pt.ine.add.PTCONT.4410593,R MIRADOURO,20,2140-307,PINHEIRO GRANDE,-8.428116319283273,39.39997341458025
pt.ine.add.PTCONT.4410594,R DIREITA,86,2140-362,ULME,-8.293315209681515,39.32213581470852
pt.ine.add.PTCONT.4410595,R DIREITA,,2140-414,VALE DE CAVALOS,-8.513757528739593,39.29490825025611
pt.ine.add.PTCONT.4410596,R MANUEL VARELA,10,2140-527,PARREIRA,-8.404739473261868,39.21220198936005
pt.ine.add.PTCONT.4410621,R LADEIRA DO PINHAL,13,2140-307,PINHEIRO GRANDE,-8.42533042126186,39.40006150909421
pt.ine.add.PTCONT.4410622,R CHAFARIZ,1,2140-374,ULME,-8.430183118889753,39.315129579805976
pt.ine.add.PTCONT.4410645,R VALE,19,2140-363,ULME,-8.292140225893649,39.32048909949372
pt.ine.add.PTCONT.4410646,R 20 DE ABRIL,15,2140-407,VALE DE CAVALOS,-8.51102839963075,39.289665907865825
pt.ine.add.PTCONT.4410655,LG MANUEL HENRIQUES,4,2140-512,PARREIRA,-8.395209281360582,39.21501611521888
pt.ine.add.PTCONT.4410656,EN 118,,2140-620,CARREGUEIRA,-8.347996943393794,39.459631692484884
pt.ine.add.PTCONT.4410657,R BARCA,8,2140-657,CARREGUEIRA,-8.417389977419699,39.4230402612205
pt.ine.add.PTCONT.4410673,QTA MESQUITAS,,2140-352,ULME,-8.426549945934694,39.31976851433954
pt.ine.add.PTCONT.4410674,CSL LARANJEIRA,,2140-353,ULME,-8.351590903167104,39.33051683424018
pt.ine.add.PTCONT.4410675,R TRABALHADORES,6,2140-674,CARREGUEIRA,-8.411521892970775,39.42218977413685
pt.ine.add.PTCONT.4410676,R TRABALHADORES,1,2140-674,CARREGUEIRA,-8.411951789947494,39.42224278692613
pt.ine.add.PTCONT.4411562,R ESCOLA,5,2140-219,CHOUTO,-8.353772436348049,39.27179430930607
pt.ine.add.PTCONT.4411806,LG OLEIRO,14,2140-607,CARREGUEIRA,-8.394733560956107,39.45748234508203
pt.ine.add.PTCONT.4411894,R PARDAIS,37,2140-431,VALE DE CAVALOS,-8.516825323784492,39.29203387234941
pt.ine.add.PTCONT.4411902,R RONE,,2140-107,CHAMUSCA,-8.474246845973337,39.363107219059735
pt.ine.add.PTCONT.4411931,MOUCHÃO DOS COELHOS,,2140-416,VALE DE CAVALOS,-8.535707905174313,39.3183252818971
pt.ine.add.PTCONT.4412246,R COMBATENTES DA GRANDE GUERRA,7,2140-110,CHAMUSCA,-8.48350689593036,39.35393743520144
pt.ine.add.PTCONT.4412247,BC S PEDRO,,2140-062,CHAMUSCA,-8.478943345616093,39.35782416779473
pt.ine.add.PTCONT.4412258,TV BECO,23,2140-215,CHOUTO,-8.341843007691997,39.25445016581976
pt.ine.add.PTCONT.4412267,R CHAFARIZ,,2140-220,CHOUTO,-8.351593797911708,39.27178040264208
pt.ine.add.PTCONT.4412276,BR 1 DE MAIO,19,2140-057,CHAMUSCA,-8.473071978990198,39.35771536669427
pt.ine.add.PTCONT.4412302,R NOVA DO CASALINHO,,2140-137,CHAMUSCA,-8.479163096766866,39.348275911383645
pt.ine.add.PTCONT.4412385,R OUTEIRO DE S PEDRO,13,2140-104,CHAMUSCA,-8.479053186100483,39.358922715423546
pt.ine.add.PTCONT.4412386,LG MARIA MARQUES DE CARVALHO,6,2140-077,CHAMUSCA,-8.479971137678392,39.35684833513901
pt.ine.add.PTCONT.4412553,R ISIDRO DOS REIS,47,2140-307,PINHEIRO GRANDE,-8.435264713550792,39.39120015410093
pt.ine.add.PTCONT.4412554,R ROMEIRA,15,2140-372,ULME,-8.431011769676706,39.31639748294515
pt.ine.add.PTCONT.4412555,R LAGARAO,12,2140-653,CARREGUEIRA,-8.417955346586961,39.419282926753716
pt.ine.add.PTCONT.4412564,R FOROS,88,2140-428,VALE DE CAVALOS,-8.514317388358805,39.29126748610455
pt.ine.add.PTCONT.4412565,R CANICEIRA,91,2140-415,VALE DE CAVALOS,-8.50886575874066,39.28190863968841
pt.ine.add.PTCONT.4412566,R JOSE RODRIGUES,4,2140-502,PARREIRA,-8.46707698125161,39.18511680288451
pt.ine.add.PTCONT.4412575,CSL JUNCO,,2140-509,CHOUTO,-8.378587892697533,39.22337515952759
pt.ine.add.PTCONT.4412576,R CANICEIRA,105A,2140-415,VALE DE CAVALOS,-8.505392521007819,39.28042458783191
pt.ine.add.PTCONT.4412577,R A BR PINHAL MANSO,4,2140-670,CARREGUEIRA,-8.409651992957896,39.41920388387281
pt.ine.add.PTCONT.4412578,R COUTADAS,10,2140-651,CARREGUEIRA,-8.423933523533089,39.415926507568095
pt.ine.add.PTCONT.4412588,R PRINCIPAL,27,2140-670,CARREGUEIRA,-8.408638831059104,39.4184767142325
pt.ine.add.PTCONT.4412621,R OLIVAL DA COVA,28 A,2140-669,CARREGUEIRA,-8.41966105330023,39.41328001900169
pt.ine.add.PTCONT.4412631,R S JOSE,9,2140-519,PARREIRA,-8.406838648581282,39.21906071301854
pt.ine.add.PTCONT.4412632,TV RELVÃO,2,2140-671,CARREGUEIRA,-8.411022355783183,39.413373033259376
pt.ine.add.PTCONT.4412640,R DIREITA,50,2140-362,ULME,-8.294116837548875,39.32277422317376
pt.ine.add.PTCONT.4412641,R 25 DE ABRIL,7,2140-609,CARREGUEIRA,-8.394461375236288,39.456158924229385
pt.ine.add.PTCONT.4412650,R MIRADOURO,7A,2140-307,PINHEIRO GRANDE,-8.428297208944613,39.39882004570705
pt.ine.add.PTCONT.4412651,,,2140-404,VALE DE CAVALOS,-8.531948954039567,39.29961218967008
pt.ine.add.PTCONT.4412653,ESTR SEM NOME,,2140-665,CARREGUEIRA,-8.41473722636953,39.4362420641935
pt.ine.add.PTCONT.4412658,R BAIRRO NOVO,20,2140-519,PARREIRA,-8.402026941620125,39.214406088499025
pt.ine.add.PTCONT.4412659,ESTR ALPIARCA,5,2140-510,PARREIRA,-8.39382126787664,39.2185411223693
pt.ine.add.PTCONT.4412672,R NOVA,,2140-307,PINHEIRO GRANDE,-8.430675753778702,39.395769582608665
pt.ine.add.PTCONT.4412673,R FOROS,123,2140-428,VALE DE CAVALOS,-8.508541582203458,39.2949972441276
pt.ine.add.PTCONT.4412674,BC ZAMBUJO,3,2140-602,CARREGUEIRA,-8.397522469599595,39.454503719034705
pt.ine.add.PTCONT.4412681,ESTR COVAS FUNDAS,14,2140-367,ULME,-8.420849994234656,39.31258595815923
pt.ine.add.PTCONT.4412682,R AUGUSTO SOUSA MAIA,57,2140-369,ULME,-8.429221864834343,39.31265503723748
pt.ine.add.PTCONT.4412683,R BAIRRO NOVO,19,2140-519,PARREIRA,-8.40187535371362,39.21412720890485
pt.ine.add.PTCONT.4412684,R SOMMER DE ANDRADE,,2140-618,CARREGUEIRA,-8.398341770697265,39.45302470054056
pt.ine.add.PTCONT.4412685,R RAMALHA,36,2140-659,CARREGUEIRA,-8.41334084581018,39.40951243550542
pt.ine.add.PTCONT.4435652,R RONE,,2140-107,CHAMUSCA,-8.472466559320717,39.35968069568031
pt.ine.add.PTCONT.4435654,R RONE,,2140-107,CHAMUSCA,-8.472466559320717,39.35968069568031
pt.ine.add.PTCONT.4435655,R RONE,,2140-107,CHAMUSCA,-8.472466559320717,39.35968069568031
pt.ine.add.PTCONT.4413696,R HORTA DAS FREIRAS,46,2140-055,CHAMUSCA,-8.484161242083893,39.3595018920139
pt.ine.add.PTCONT.4413705,R CABEÇO DOS LOUROS,22,2140-363,ULME,-8.293646279813586,39.319847517591654
pt.ine.add.PTCONT.4413706,R MANUEL ROSA,,2140-526,PARREIRA,-8.394612376925222,39.219539169939125
pt.ine.add.PTCONT.4413787,TV BOTAS,1,2140-159,CHAMUSCA,-8.476782271768107,39.3548401897339
pt.ine.add.PTCONT.4413788,R TERRA FRIA,8 A,2140-660,CARREGUEIRA,-8.41125645414904,39.419686441096204
pt.ine.add.PTCONT.4413828,R 20 DE ABRIL,19,2140-407,VALE DE CAVALOS,-8.51097083197608,39.289738152818614
pt.ine.add.PTCONT.4413939,R COMBATENTES DA GRANDE GUERRA,25,2140-110,CHAMUSCA,-8.483840010695644,39.35326990114583
pt.ine.add.PTCONT.4414056,AV JESUINO MAGANO,1,2140-056,CHAMUSCA,-8.475364002133057,39.363770468576575
pt.ine.add.PTCONT.4414057,URB QUINTA DO NICHO III,,2140-186,CHAMUSCA,-8.475885444660761,39.36362481935465
pt.ine.add.PTCONT.4414058,URB QUINTA DO NICHO III,,2140-186,CHAMUSCA,-8.475885444660761,39.36362481935465
pt.ine.add.PTCONT.4414165,URB QUINTA DO NICHO III,,2140-186,CHAMUSCA,-8.475885444660761,39.36362481935465
pt.ine.add.PTCONT.4414166,R DIREITA DE S PEDRO,45,2140-098,CHAMUSCA,-8.480311245669151,39.3599277711889
pt.ine.add.PTCONT.4414167,R ANTÓNIO BENTO,,2140-083,CHAMUSCA,-8.47359950297863,39.35883071308198
pt.ine.add.PTCONT.4414168,R ANTÓNIO BENTO,,2140-083,CHAMUSCA,-8.47359950297863,39.35883071308198
pt.ine.add.PTCONT.4414169,R ANTÓNIO BENTO,,2140-083,CHAMUSCA,-8.47359950297863,39.35883071308198
pt.ine.add.PTCONT.4414170,R ANTÓNIO BENTO,,2140-083,CHAMUSCA,-8.47359950297863,39.35883071308198
pt.ine.add.PTCONT.4414171,R ANTÓNIO BENTO,,2140-083,CHAMUSCA,-8.47359950297863,39.35883071308198
pt.ine.add.PTCONT.4414172,R ANTÓNIO BENTO,,2140-083,CHAMUSCA,-8.47359950297863,39.35883071308198
pt.ine.add.PTCONT.4414173,R ANTÓNIO BENTO,,2140-083,CHAMUSCA,-8.47359950297863,39.35883071308198
pt.ine.add.PTCONT.4414174,R ANTÓNIO BENTO,,2140-083,CHAMUSCA,-8.47359950297863,39.35883071308198
pt.ine.add.PTCONT.4414175,R ANTÓNIO BENTO,,2140-083,CHAMUSCA,-8.47359950297863,39.35883071308198
pt.ine.add.PTCONT.4414282,R ANTÓNIO BENTO,,2140-083,CHAMUSCA,-8.47359950297863,39.35883071308198
pt.ine.add.PTCONT.4414283,R CABECA ALTA,,2140-085,CHAMUSCA,-8.47384926592772,39.35053437732467
pt.ine.add.PTCONT.4414284,R NOVA DA NORA,,2140-136,CHAMUSCA,-8.482105334818627,39.35205914746596
pt.ine.add.PTCONT.4414386,R JOAO JOSE SAMOUCO FONSECA,10,2140-153,CHAMUSCA,-8.476314222551707,39.35639981122975
pt.ine.add.PTCONT.4414387,R OUTEIRO DO PRANTO,,2140-105,CHAMUSCA,-8.47703268542378,39.35148878162825
pt.ine.add.PTCONT.4414388,LG TABERNAS,33,2140-224,CHOUTO,-8.315170961784686,39.25799877274644
pt.ine.add.PTCONT.4414389,,,2140-206,CHOUTO,-8.216094907792034,39.2250544423445
pt.ine.add.PTCONT.4414390,,,2140-206,CHOUTO,-8.214543879209277,39.22572208469123
pt.ine.add.PTCONT.4414505,R ESCOLA,6,2140-219,CHOUTO,-8.35309981355649,39.271633450203474
pt.ine.add.PTCONT.4414506,R LAGAR,2,2140-221,CHOUTO,-8.342937200263346,39.2522954434562
pt.ine.add.PTCONT.4414507,BR RATO,1,2140-307,PINHEIRO GRANDE,-8.42708701998307,39.40920829953438
pt.ine.add.PTCONT.4414508,EN 118,3,2140-307,PINHEIRO GRANDE,-8.429666891377709,39.40699501328104
pt.ine.add.PTCONT.4414509,R LADEIRA DO PINHAL,,2140-307,PINHEIRO GRANDE,-8.424896459274713,39.40457515832061
pt.ine.add.PTCONT.4414620,R VALE DA MUA CASAL NOVO DO TRINCAO,2,2140-308,PINHEIRO GRANDE,-8.434245855117561,39.391815279725904
pt.ine.add.PTCONT.4414621,CSL CASCALHEIRA DE BAIXO,,2140-358,ULME,-8.314385456933682,39.33083292359669
pt.ine.add.PTCONT.4414622,R VELHA,4,2140-382,ULME,-8.43027122075593,39.316768672410134
pt.ine.add.PTCONT.4414623,R NOVA,12,2140-366,ULME,-8.434020615128269,39.31499362242358
pt.ine.add.PTCONT.4414624,R AUGUSTO SOUSA MAIA,41,2140-369,ULME,-8.42946824492331,39.313338960798845
pt.ine.add.PTCONT.4414721,R 1 DEZEMBRO,20,2140-406,VALE DE CAVALOS,-8.517980371714089,39.28916575084285
pt.ine.add.PTCONT.4414839,R CASAIS CAMPINOS,39,2140-506,PARREIRA,-8.419800775551305,39.21448980739752
pt.ine.add.PTCONT.4414840,R BAIRRO NOVO,33,2140-519,PARREIRA,-8.403185469457187,39.214574549015616
pt.ine.add.PTCONT.4414841,R 2S DE ABRIL,45,2140-502,PARREIRA,-8.468195966288622,39.1843389508752
pt.ine.add.PTCONT.4414940,R 25 DE ABRIL,29,2140-502,PARREIRA,-8.46687788288879,39.18462196443656
pt.ine.add.PTCONT.4414941,R BARCA,,2140-657,CARREGUEIRA,-8.417402163344399,39.42603958664541
pt.ine.add.PTCONT.4414942,R DIREITA,871,2140-665,CARREGUEIRA,-8.415440659929127,39.420586076501465
pt.ine.add.PTCONT.4415051,R RAMALHA,8,2140-659,CARREGUEIRA,-8.412486490041625,39.41363973912305
pt.ine.add.PTCONT.4415776,URB QUINTA DO NICHO III,,2140-186,CHAMUSCA,-8.475885444660761,39.36362481935465
pt.ine.add.PTCONT.4415796,R FLORES,1,2140-613,CARREGUEIRA,-8.397644107758083,39.455944566918156
pt.ine.add.PTCONT.4415827,R LADEIRA DO PINHAL,15,2140-307,PINHEIRO GRANDE,-8.42557376588536,39.399952812332096
pt.ine.add.PTCONT.4415851,R 20 DE ABRIL,44,2140-407,VALE DE CAVALOS,-8.510578479018815,39.29006368696408
pt.ine.add.PTCONT.4415855,R ANTÓNIO BENTO,,2140-083,CHAMUSCA,-8.47359950297863,39.35883071308198
pt.ine.add.PTCONT.4415950,URB QUINTA DO NICHO III,,2140-186,CHAMUSCA,-8.475885444660761,39.36362481935465
pt.ine.add.PTCONT.4415951,R ANTÓNIO BENTO,,2140-083,CHAMUSCA,-8.47359950297863,39.35883071308198
pt.ine.add.PTCONT.4436778,R MOTA,8,2140-378,ULME,-8.428529429922152,39.313431419379675
pt.ine.add.PTCONT.4417419,R ARNEIRO DE CIMA,,2140-013,CHAMUSCA,-8.471453309557587,39.36610575027428
pt.ine.add.PTCONT.4417420,R DIREITA DE S PEDRO,72,2140-098,CHAMUSCA,-8.47931146570342,39.36188530349178
pt.ine.add.PTCONT.4417461,R PEDRO ÁLVARES CABRAL,9,2140-138,CHAMUSCA,-8.480063652131234,39.361477741255186
pt.ine.add.PTCONT.4417462,R PEDRO ÁLVARES CABRAL,27,2140-138,CHAMUSCA,-8.48044730558645,39.36162971854747
pt.ine.add.PTCONT.4417463,,,2140-184,CHAMUSCA,-8.472573228371381,39.34096346814162
pt.ine.add.PTCONT.4417464,R MARQUES DE CARVALHO,63,2140-132,CHAMUSCA,-8.47891192583566,39.356157935304275
pt.ine.add.PTCONT.4417465,R CASAL DO ESPARGO,27,2140-087,CHAMUSCA,-8.478160801957017,39.35441277379717
pt.ine.add.PTCONT.4417466,TV BOTAS RETIROS DOS GATINHOS,19,2140-159,CHAMUSCA,-8.477313302142331,39.35429819015754
pt.ine.add.PTCONT.4417467,R PATACOS,6,2140-224,CHOUTO,-8.314410162898834,39.25950418582584
pt.ine.add.PTCONT.4417468,BR RATO,16,2140-307,PINHEIRO GRANDE,-8.428539592114431,39.40949284698906
pt.ine.add.PTCONT.4417469,EN 118,10,2140-307,PINHEIRO GRANDE,-8.436116182462674,39.3975119284797
pt.ine.add.PTCONT.4417470,R POMARES DA QUINTA,17,2140-308,PINHEIRO GRANDE,-8.438925354610511,39.392145345037804
pt.ine.add.PTCONT.4417471,R ISIDRO DOS REIS,34,2140-307,PINHEIRO GRANDE,-8.43707182520235,39.39301488542987
pt.ine.add.PTCONT.4417472,R ISIDRO DOS REIS,52,2140-307,PINHEIRO GRANDE,-8.435895703154266,39.392162275700606
pt.ine.add.PTCONT.4417473,R AREOLAS,3,2140-301,PINHEIRO GRANDE,-8.44563199902976,39.38629991584708
pt.ine.add.PTCONT.4417474,R AREOLAS,23,2140-301,PINHEIRO GRANDE,-8.445556010937734,39.38487699361801
pt.ine.add.PTCONT.4417475,R OLIVAL DA COVA,13 E,2140-669,CARREGUEIRA,-8.418188406233881,39.41377902693731
pt.ine.add.PTCONT.4417476,R NOVA,49,2140-671,CARREGUEIRA,-8.42045596610811,39.4089186252775
pt.ine.add.PTCONT.4417477,R GRALHAS,2,2140-662,CARREGUEIRA,-8.42037199262359,39.408261314576286
pt.ine.add.PTCONT.4417511,R DIREITA DE S PEDRO,229,2140-098,CHAMUSCA,-8.484333284125542,39.35215152420823
pt.ine.add.PTCONT.4417512,R DIREITA DE S PEDRO,229,2140-098,CHAMUSCA,-8.484333284125542,39.35215152420823
pt.ine.add.PTCONT.4417513,R DIREITA DE S PEDRO,229,2140-098,CHAMUSCA,-8.484333284125542,39.35215152420823
pt.ine.add.PTCONT.4417514,R DIREITA DE S PEDRO,229,2140-098,CHAMUSCA,-8.484333284125542,39.35215152420823
pt.ine.add.PTCONT.4417515,R DIREITA DE S PEDRO,229,2140-098,CHAMUSCA,-8.484333284125542,39.35215152420823
pt.ine.add.PTCONT.4417516,ESTR MEIO,,2140-070,CHAMUSCA,-8.49112588868015,39.34872611530507
pt.ine.add.PTCONT.4417517,R ENG JOSE BELARD DA FONSECA,63,2140-124,CHAMUSCA,-8.483770358135109,39.360223643359575
pt.ine.add.PTCONT.4417518,R MIGUEL BOMBARDA,37,2140-134,CHAMUSCA,-8.482472259332015,39.3558500655155
pt.ine.add.PTCONT.4417519,EM 576,,2140-208,CHOUTO,-8.336192550709997,39.19529059264072
pt.ine.add.PTCONT.4417520,,,2140-207,CHOUTO,-8.37949418334743,39.21430279766561
pt.ine.add.PTCONT.4417521,R DIREITA,68,2140-362,ULME,-8.293606111415214,39.32256776180453
pt.ine.add.PTCONT.4417522,CSL CASCALHEIRA DE BAIXO,,2140-358,ULME,-8.314269337778436,39.3307790609885
pt.ine.add.PTCONT.4417523,,,2140-374,ULME,-8.490823252486827,39.316661406510605
pt.ine.add.PTCONT.4417524,R DIREITA,11,2140-414,VALE DE CAVALOS,-8.520744892275562,39.29232713577861
pt.ine.add.PTCONT.4417525,ESCNH QUINTA,3,2140-604,CARREGUEIRA,-8.398780234897638,39.4552844642169
pt.ine.add.PTCONT.4417526,R IGREJA,10,2140-611,CARREGUEIRA,-8.39743013550767,39.45466605543974
pt.ine.add.PTCONT.4417527,R TRABALHADORES,12,2140-674,CARREGUEIRA,-8.411081957890007,39.42253309513499
pt.ine.add.PTCONT.4417528,R TRABALHADORES,2,2140-674,CARREGUEIRA,-8.41178777280921,39.42188289686653
pt.ine.add.PTCONT.4417529,R ANTÓNIO VAZ TECEDEIRO,,2140-675,CARREGUEIRA,-8.414542276633771,39.419543432101165
pt.ine.add.PTCONT.4417530,R D BR PINHAL MANSO,21,2140-670,CARREGUEIRA,-8.40788703061496,39.41924409446922
pt.ine.add.PTCONT.4417531,R RELVÃO,97,2140-671,CARREGUEIRA,-8.413711247291964,39.41791515770231
pt.ine.add.PTCONT.4417532,TV FONTE,4,2140-658,CARREGUEIRA,-8.410492710280916,39.41743649394746
pt.ine.add.PTCONT.4417533,R 1 DE MAIO,3,2140-655,CARREGUEIRA,-8.410806454899895,39.417489787942316
pt.ine.add.PTCONT.4417567,R DIREITA,71,2140-665,CARREGUEIRA,-8.416111831708772,39.41999898548198
pt.ine.add.PTCONT.4417568,R DIREITA,56,2140-665,CARREGUEIRA,-8.418216307091535,39.41777810480765
pt.ine.add.PTCONT.4417569,R NOVA,46,2140-671,CARREGUEIRA,-8.415772462475532,39.41360478028738
pt.ine.add.PTCONT.4417570,R BAIRRO DAS COUTADAS,17,2140-651,CARREGUEIRA,-8.423257191875585,39.41524365785708
pt.ine.add.PTCONT.4417817,R DIREITA DE S PEDRO,101,2140-098,CHAMUSCA,-8.482584889296694,39.35749803884172
pt.ine.add.PTCONT.4417820,R BAIRRO NOVO,2,2140-519,PARREIRA,-8.407348721762693,39.216231191468296
pt.ine.add.PTCONT.4417825,R MIRADOURO,4,2140-307,PINHEIRO GRANDE,-8.427672323987556,39.399299006296715
pt.ine.add.PTCONT.4417842,R DR JOAQUIM DUARTE IMAGINARIO,5,2140-117,CHAMUSCA,-8.484049357926432,39.35569219871777
pt.ine.add.PTCONT.4417843,R NOVA,11,2140-214,CHOUTO,-8.354768312351386,39.27156723498643
pt.ine.add.PTCONT.4417851,R DIREITA,160,2140-665,CARREGUEIRA,-8.410808896118931,39.4268841637689
pt.ine.add.PTCONT.4417917,R NOVA,,2140-307,PINHEIRO GRANDE,-8.427999135615984,39.394200151860744
pt.ine.add.PTCONT.4418042,R DIREITA DE S PEDRO,229,2140-098,CHAMUSCA,-8.484333284125542,39.35215152420823
pt.ine.add.PTCONT.4418046,R FONTINHA,96,2140-092,CHAMUSCA,-8.481940765286362,39.35396015420368
pt.ine.add.PTCONT.4418311,,,2140-208,CHOUTO,-8.317336144265235,39.20874300491337
pt.ine.add.PTCONT.4418347,R BARREIRO,63,2140-099,CHAMUSCA,-8.482450968100467,39.35390458084246
pt.ine.add.PTCONT.4418391,BC COVA DAS PEREIRAS,,2140-123,CHAMUSCA,-8.482832563016874,39.360631787506804
pt.ine.add.PTCONT.4418400,R ARNEIRO DE CIMA,,2140-013,CHAMUSCA,-8.471141009506496,39.36631382237828
pt.ine.add.PTCONT.4418401,R RUI GOMES DA SILVA,22,2140-139,CHAMUSCA,-8.481708142235833,39.35617661483425
pt.ine.add.PTCONT.4418526,R VALE DO JUNCO,141,2140-307,PINHEIRO GRANDE,-8.424662287460583,39.39294756445041
pt.ine.add.PTCONT.4418527,R JOGO DA BOLA,20,2140-376,ULME,-8.43177450587846,39.31579204363086
pt.ine.add.PTCONT.4418528,R DIREITA,1,2140-414,VALE DE CAVALOS,-8.52172358976127,39.29113491510755
pt.ine.add.PTCONT.4418548,R LAGAR,14,2140-221,CHOUTO,-8.34081884549469,39.25287571104295
pt.ine.add.PTCONT.4418549,TV PEREIRA,12,2140-307,PINHEIRO GRANDE,-8.437753376695781,39.3922474978195
pt.ine.add.PTCONT.4418550,R ROMEIRA,5,2140-372,ULME,-8.430743966662066,39.316136958038236
pt.ine.add.PTCONT.4418551,LG CASAL DOS PINHEIROS,9,2140-514,PARREIRA,-8.414836494673379,39.20655738782945
pt.ine.add.PTCONT.4418561,EM 576,,2140-208,CHOUTO,-8.350604792370167,39.19169763427611
pt.ine.add.PTCONT.4418562,R BAIXO AS,AS,2140-664,CARREGUEIRA,-8.419171790370184,39.4185773895173
pt.ine.add.PTCONT.4418576,R MOINHOS,6,2140-430,VALE DE CAVALOS,-8.518970935877196,39.290135256736676
pt.ine.add.PTCONT.4418577,R MOINHOS,6,2140-430,VALE DE CAVALOS,-8.518970935877196,39.290135256736676
pt.ine.add.PTCONT.4418585,R VELHA,25,2140-382,ULME,-8.430092565329561,39.31565223075357
pt.ine.add.PTCONT.4418586,R CERRADO,8,2140-384,ULME,-8.43503598352063,39.31652222395604
pt.ine.add.PTCONT.4418587,HRD CARVAHAL,,2140-426,VALE DE CAVALOS,-8.508761516739991,39.2884302408885
pt.ine.add.PTCONT.4418588,MOINHO DE VALE FLORES,,2140-537,PARREIRA,-8.446518628624657,39.17924701587449
pt.ine.add.PTCONT.4418597,HRD PERNA MOLHADA,,2140-426,VALE DE CAVALOS,-8.404242870092093,39.23962161764787
pt.ine.add.PTCONT.4418601,R CHAFARIZ,10,2140-374,ULME,-8.431037425778486,39.31424468701241
pt.ine.add.PTCONT.4418602,R 1 DE DEZEMBRO,2,2140-406,VALE DE CAVALOS,-8.518076698948207,39.28982296261508
pt.ine.add.PTCONT.4418617,R DIREITA,37,2140-357,ULME,-8.322438781103912,39.32812694092837
pt.ine.add.PTCONT.4418625,R 5 DE OUTUBRO,14,2140-515,PARREIRA,-8.404967220016779,39.21121064366725
pt.ine.add.PTCONT.4418626,R 25 DE ABRIL,11,2140-609,CARREGUEIRA,-8.394996003050307,39.45620275673485
pt.ine.add.PTCONT.4418671,R DIREITA,31,2140-362,ULME,-8.294070946420605,39.32299046052092
pt.ine.add.PTCONT.4418653,R AUGUSTO SOUSA MAIA,4D,2140-369,ULME,-8.42984696993779,39.31515745884824
pt.ine.add.PTCONT.4418654,R AUGUSTO SOUSA MAIA,34,2140-369,ULME,-8.429969760037709,39.31403124067577
pt.ine.add.PTCONT.4418655,R PARDAIS,11,2140-431,VALE DE CAVALOS,-8.51719149606366,39.293284673952186
pt.ine.add.PTCONT.4418656,R CASAL DA RAMALHA,1,2140-659,CARREGUEIRA,-8.413920872043116,39.4122762148919
pt.ine.add.PTCONT.4418662,TV GAMEIRO,A,2140-307,PINHEIRO GRANDE,-8.43361792712868,39.39426683953381
pt.ine.add.PTCONT.4418688,R ISIDRO REIS,8,2140-307,PINHEIRO GRANDE,-8.437992475813168,39.39384113146653
pt.ine.add.PTCONT.4418689,R QUINTAS,3,2140-609,CARREGUEIRA,-8.39789690320258,39.45213401802619
pt.ine.add.PTCONT.4418690,ESTR PARTICULAR,,2140-618,CARREGUEIRA,-8.358913468891373,39.385897038585895
pt.ine.add.PTCONT.4418702,R VALE,21,2140-426,VALE DE CAVALOS,-8.508931105586505,39.28979879802201
pt.ine.add.PTCONT.4418703,ESTR MUNICIPAL,,2140-620,CARREGUEIRA,-8.320162332244541,39.41821127513774
pt.ine.add.PTCONT.4418704,R CASAL GRALHAS,N 3,2140-659,CARREGUEIRA,-8.418221792698963,39.41057242046869
pt.ine.add.PTCONT.4418722,R 1 DE DEZEMBRO,131,2140-512,PARREIRA,-8.39422805010707,39.215819977320635
pt.ine.add.PTCONT.4418723,R TRABALHADORES,13,2140-674,CARREGUEIRA,-8.411268662164288,39.42275782576177
pt.ine.add.PTCONT.4419574,ESTR ANAFES,1,2140-222,CHOUTO,-8.352416981450014,39.271913965035985
pt.ine.add.PTCONT.4419846,R REGUENGO,12,2140-213,CHOUTO,-8.341851441524327,39.25338728373958
pt.ine.add.PTCONT.4419830,,,2140-207,CHOUTO,-8.347961712469225,39.25877157039446
pt.ine.add.PTCONT.4419900,R 5 DE OUTUBRO,96,2140-515,PARREIRA,-8.411564422937689,39.20766415846301
pt.ine.add.PTCONT.4419909,R ROMEIRA,7,2140-372,ULME,-8.430802172921746,39.31619085263791
pt.ine.add.PTCONT.4419914,R DIREITA,33,2140-362,ULME,-8.294070946420605,39.32299046052092
pt.ine.add.PTCONT.4419963,R OUTEIRO DE S PEDRO,53,2140-104,CHAMUSCA,-8.478583586244683,39.357807221967725
pt.ine.add.PTCONT.4419964,TV CORDEIROS,16,2140-518,PARREIRA,-8.393569278570498,39.21302015017692
pt.ine.add.PTCONT.4420044,R SOUSA GIRÃO,5,2140-141,CHAMUSCA,-8.481209276344616,39.358519971133234
pt.ine.add.PTCONT.4420048,R OLIVAL DA COVA,6,2140-669,CARREGUEIRA,-8.417581409760507,39.41585214296517
pt.ine.add.PTCONT.4420336,R JOÃO JOSE SAMOUCO DA FONSECA,,2140-153,CHAMUSCA,-8.475028283305774,39.356790904559965
pt.ine.add.PTCONT.4420342,R REGUENGO,21,2140-213,CHOUTO,-8.34142425566925,39.253883452731216
pt.ine.add.PTCONT.4420348,R CHAFARIZ,39,2140-220,CHOUTO,-8.350154026345582,39.2708643485012
pt.ine.add.PTCONT.4420349,R VICENTE PRATAS,,2140-218,CHOUTO,-8.348178636762038,39.27288565291852
pt.ine.add.PTCONT.4420356,R BONFIM,,2140-010,CHAMUSCA,-8.468380614182164,39.35688230247696
pt.ine.add.PTCONT.4420376,R CERRADAS,,2140-096,CHAMUSCA,-8.47252328128707,39.35461850200844
pt.ine.add.PTCONT.4420377,ESTR 16 DE SETEMBRO,,2140-189,CHAMUSCA,-8.489467326982966,39.34651543927409
pt.ine.add.PTCONT.4420378,R DIREITA S PEDRO,346,2140-098,CHAMUSCA,-8.48458833294992,39.35211472555088
pt.ine.add.PTCONT.4420379,R CABECA ALTA,1 A,2140-085,CHAMUSCA,-8.475990402865808,39.349492263583215
pt.ine.add.PTCONT.4420380,R FONTINHA,49,2140-092,CHAMUSCA,-8.481835007270034,39.3536902560079
pt.ine.add.PTCONT.4420381,R BARREIRO,61,2140-099,CHAMUSCA,-8.482381492885414,39.35393181087514
pt.ine.add.PTCONT.4420393,LG CUSTÓDIO MARQUES MONTARGIL,6,2140-070,CHAMUSCA,-8.484376261883181,39.351466849297054
pt.ine.add.PTCONT.4420454,R NOVA DA NORA,31,2140-136,CHAMUSCA,-8.481776961322739,39.35134856490141
pt.ine.add.PTCONT.4420463,R 21 DE OUTUBRO,15,2140-080,CHAMUSCA,-8.484430055863553,39.35525870606023
pt.ine.add.PTCONT.4420464,AV ALM GAGO COUTINHO,,2140-053,CHAMUSCA,-8.4776884851744,39.35745859616409
pt.ine.add.PTCONT.4420470,R CHA DE D BENTO,10,2140-054,CHAMUSCA,-8.475860484057584,39.358517832565695
pt.ine.add.PTCONT.4420471,R ALFARROBEIRA,9,2140-091,CHAMUSCA,-8.478358221722107,39.35680809527641
pt.ine.add.PTCONT.4420584,R NOVA,55,2140-307,PINHEIRO GRANDE,-8.419157445598419,39.3923307296121
pt.ine.add.PTCONT.4420599,R TERRA FRIA,7,2140-660,CARREGUEIRA,-8.411131256046788,39.42032624310342
pt.ine.add.PTCONT.4420607,R ISIDRO DOS REIS,60,2140-307,PINHEIRO GRANDE,-8.435695915920192,39.39159534685398
pt.ine.add.PTCONT.4420624,R FONTE,71,2140-410,VALE DE CAVALOS,-8.514599447338211,39.289843414832156
pt.ine.add.PTCONT.4420625,R 25 DE ABRIL,2,2140-656,CARREGUEIRA,-8.415855625617498,39.41981946687978
pt.ine.add.PTCONT.4420631,,,2140-201,CHOUTO,-8.34566603959043,39.25823534257907
pt.ine.add.PTCONT.4420639,MOINHO DE VALE FLORES,,2140-537,PARREIRA,-8.442667377464504,39.17983378734184
pt.ine.add.PTCONT.4420652,R FONTE,50,2140-410,VALE DE CAVALOS,-8.516294335774344,39.290315234209736
pt.ine.add.PTCONT.4420670,TV CASAL GARCIA,16,2140-530,PARREIRA,-8.412322290910504,39.217777656344715
pt.ine.add.PTCONT.4420671,R OLIVAL DA COVA,18,2140-669,CARREGUEIRA,-8.41825994720285,39.414238213137736
pt.ine.add.PTCONT.4420683,R GODINHAS,94,2140-307,PINHEIRO GRANDE,-8.428081528928985,39.402738684617184
pt.ine.add.PTCONT.4420684,R COUTO,3,2140-422,VALE DE CAVALOS,-8.511824673859666,39.28255658473736
pt.ine.add.PTCONT.4420714,R VIRIATO CABREIRA,36,2140-383,ULME,-8.42855951447448,39.3150706610228
pt.ine.add.PTCONT.4420715,TV MARMELEIROS,5,2140-527,PARREIRA,-8.40593950953454,39.21113631146803
pt.ine.add.PTCONT.4420750,BR D MARIA VAZ MONTEIRO,16,2140-360,ULME,-8.295214491127131,39.32605133613439
pt.ine.add.PTCONT.4420751,ESCNH ALTO DO PINA,8,2140-605,CARREGUEIRA,-8.398349734172507,39.455123320306434
pt.ine.add.PTCONT.4420761,R DIREITA,29,2140-362,ULME,-8.294198633947861,39.32304432736274
pt.ine.add.PTCONT.4420762,R 25 DE ABRIL,37,2140-609,CARREGUEIRA,-8.398032552531133,39.45420532629142
pt.ine.add.PTCONT.4420774,R RAMALHA,3,2140-659,CARREGUEIRA,-8.412112441794042,39.41301914751771
pt.ine.add.PTCONT.4420784,R NOVA,45,2140-671,CARREGUEIRA,-8.420282062621737,39.40898210434546
pt.ine.add.PTCONT.4420796,CSL BALSAS,,2140-352,ULME,-8.375063466910124,39.32329164840649
pt.ine.add.PTCONT.4420797,R 1 DEZEMBRO,13,2140-512,PARREIRA,-8.394238995134229,39.2156488121979
pt.ine.add.PTCONT.4421845,R RELVÃO,25,2140-671,CARREGUEIRA,-8.413322848392772,39.41661907371921
pt.ine.add.PTCONT.4421858,ESTR COVAS FUNDAS,18,2140-367,ULME,-8.421595135788282,39.3133317153653
pt.ine.add.PTCONT.4421859,R RAMALHA,3,2140-659,CARREGUEIRA,-8.412112441794042,39.41301914751771
pt.ine.add.PTCONT.4421865,R NOVA DA NORA,19,2140-136,CHAMUSCA,-8.481497101096032,39.35106117336644
pt.ine.add.PTCONT.4421900,LG FEIRA,26,2140-217,CHOUTO,-8.35214921839522,39.271518146994055
pt.ine.add.PTCONT.4421960,CSL FREIXO,,2140-015,ULME,-8.49490456935324,39.309839326977915
pt.ine.add.PTCONT.4421967,TV BAIRRO,,2140-157,CHAMUSCA,-8.478796496035297,39.36098611831462
pt.ine.add.PTCONT.4421976,LG SACADURA CABRAL,6,2140-078,CHAMUSCA,-8.481482320410542,39.35742928717859
pt.ine.add.PTCONT.4421993,R ALGAZ,8,2140-666,CARREGUEIRA,-8.41495545610795,39.42698227577118
pt.ine.add.PTCONT.4422067,R FONTINHA,49,2140-092,CHAMUSCA,-8.481835007270034,39.3536902560079
pt.ine.add.PTCONT.4422146,R NOVA,11,2140-671,CARREGUEIRA,-8.415561347780196,39.418838409925485
pt.ine.add.PTCONT.4422147,R BARCA,4,2140-657,CARREGUEIRA,-8.417700968337313,39.42240900553147
pt.ine.add.PTCONT.4422384,R S DOMINGOS,,2140-224,CHOUTO,-8.224820062830595,39.25555588905428
pt.ine.add.PTCONT.4422394,R DIREITA DE MARVILA,13,2140-227,CHOUTO,-8.323728763635714,39.25214831893479
pt.ine.add.PTCONT.4422395,ESTR ANAFES,,2140-222,CHOUTO,-8.35139021264296,39.27339309419657
pt.ine.add.PTCONT.4422414,BR 1 DE MAIO,3,2140-057,CHAMUSCA,-8.47402511605872,39.35807286519171
pt.ine.add.PTCONT.4422415,BR 1 DE MAIO,10,2140-057,CHAMUSCA,-8.473503404808472,39.35815545678726
pt.ine.add.PTCONT.4422483,R ENG SALDANHA PIMENTEL ROLIM,,2140-125,CHAMUSCA,-8.474436720477907,39.35920656153145
pt.ine.add.PTCONT.4422484,R ENG SALDANHA PIMENTEL ROLIM,,2140-125,CHAMUSCA,-8.474682917508133,39.359728254696044
pt.ine.add.PTCONT.4422499,R MIGUEL BOMBARDA,41,2140-134,CHAMUSCA,-8.482541153093178,39.355705743996864
pt.ine.add.PTCONT.4422512,CSL OUTEIRO,,2140-213,CHOUTO,-8.321281316015911,39.25535891544014
pt.ine.add.PTCONT.4422677,R BAIXO,12,2140-664,CARREGUEIRA,-8.418088145838954,39.420525578516965
pt.ine.add.PTCONT.4422678,R CASAL DO FREIXO,25,2140-668,CARREGUEIRA,-8.41738236671476,39.42116680791426
pt.ine.add.PTCONT.4422699,LG 25 DE ABRIL,,2140-228,CHOUTO,-8.36165791525184,39.234218466361106
pt.ine.add.PTCONT.4422700,BR ZABUMBA,1,2140-307,PINHEIRO GRANDE,-8.435983115434844,39.39090105127194
pt.ine.add.PTCONT.4422701,,,2140-371,ULME,-8.434143245485176,39.3165515576306
pt.ine.add.PTCONT.4422702,R MOINHOS,,2140-430,VALE DE CAVALOS,-8.518946765192952,39.2899551915911
pt.ine.add.PTCONT.4422703,R FITAS,7,2140-502,PARREIRA,-8.46779942952739,39.18614157742243
pt.ine.add.PTCONT.4422714,R CIMA,27,2140-413,VALE DE CAVALOS,-8.518011492194255,39.290615817261134
pt.ine.add.PTCONT.4422725,R PACO DA RAINHA,1,2140-379,ULME,-8.431061227297086,39.31438874195655
pt.ine.add.PTCONT.4422737,R DIREITA,4,2140-357,ULME,-8.316177716822214,39.32874944799413
pt.ine.add.PTCONT.4422738,R CRASTO,,2140-364,ULME,-8.432438133850978,39.313700659417854
pt.ine.add.PTCONT.4422749,R SEBASTIÃO GIL,35,2140-617,CARREGUEIRA,-8.397447033762507,39.45606210635204
pt.ine.add.PTCONT.4422760,R MEIRINHO,19,2140-307,PINHEIRO GRANDE,-8.429091805593238,39.39729582509838
pt.ine.add.PTCONT.4422761,R MEIRINHO,13,2140-307,PINHEIRO GRANDE,-8.429404063906656,39.39701580980797
pt.ine.add.PTCONT.4422762,R 25 DE ABRIL,15,2140-609,CARREGUEIRA,-8.395331728324011,39.45587774729861
pt.ine.add.PTCONT.4422776,R PARDAIS,47,2140-431,VALE DE CAVALOS,-8.516789369940277,39.291817816598964
pt.ine.add.PTCONT.4422777,R FOROS,69,2140-428,VALE DE CAVALOS,-8.51393648743655,39.29156597219137
pt.ine.add.PTCONT.4422783,R MANUEL ROSA,5,2140-526,PARREIRA,-8.39620719751344,39.218688883915945
pt.ine.add.PTCONT.4422784,R DIREITA,99,2140-665,CARREGUEIRA,-8.414318856140037,39.42174169971694
pt.ine.add.PTCONT.4422792,R VENDA NOVA,2,2140-307,PINHEIRO GRANDE,-8.441571741749325,39.39208431659384
pt.ine.add.PTCONT.4422793,R DIREITA,144,2140-665,CARREGUEIRA,-8.411328544247388,39.426135335215925
pt.ine.add.PTCONT.4422816,R VALE DA MUA,1,2140-307,PINHEIRO GRANDE,-8.434518922499603,39.39322869044606
pt.ine.add.PTCONT.4422817,CSL FIGUEIRAS,,2140-354,ULME,-8.405801344187644,39.31300949215618
pt.ine.add.PTCONT.4422818,R TRABALHADORES,31,2140-674,CARREGUEIRA,-8.410040773378812,39.42354437095215
pt.ine.add.PTCONT.4422819,TV ARNEIRO DOS OUTEIRINHOS,3,2140-673,CARREGUEIRA,-8.418425641277587,39.423551128926285
pt.ine.add.PTCONT.4422820,R GRALHAS,5,2140-662,CARREGUEIRA,-8.419746637447183,39.40865916927668
pt.ine.add.PTCONT.4422833,R NOVA,15,2140-307,PINHEIRO GRANDE,-8.428349056770964,39.39459557764403
pt.ine.add.PTCONT.4422834,R NOVA,15,2140-307,PINHEIRO GRANDE,-8.428349056770964,39.39459557764403
pt.ine.add.PTCONT.4422835,R TRABALHADORES,,2140-674,CARREGUEIRA,-8.411696769528591,39.42236048993479
pt.ine.add.PTCONT.4423848,R OLIVAL TRINCAO,,2140-307,PINHEIRO GRANDE,-8.42751757285954,39.40391103658386
pt.ine.add.PTCONT.4423865,R DR JOÃO JOAQUIM ISIDRO DOS REIS,26,2140-116,CHAMUSCA,-8.484730439676865,39.35500559818749
pt.ine.add.PTCONT.4423868,R NOVA,7,2140-307,PINHEIRO GRANDE,-8.429383044584457,39.39479110588738
pt.ine.add.PTCONT.4423914,R BAIRRO NOVO,37,2140-519,PARREIRA,-8.40347552543302,39.21472700200528
pt.ine.add.PTCONT.4423927,HRD VALE LAMA DIATELA,,2140-436,VALE DE CAVALOS,-8.484067049414673,39.217574597183834
pt.ine.add.PTCONT.4423930,R PARDAIS,55,2140-431,VALE DE CAVALOS,-8.51679796270296,39.29126834539995
pt.ine.add.PTCONT.4423946,TV OLIVEIRAS,4,2140-515,PARREIRA,-8.407658941549787,39.20966406489066
pt.ine.add.PTCONT.4423976,R DIREITA,152,2140-665,CARREGUEIRA,-8.411365462843488,39.426657657013216
pt.ine.add.PTCONT.4424118,TV CASAL DO PINHEIRO,14,2140-667,CARREGUEIRA,-8.408875006070978,39.425366569310306
pt.ine.add.PTCONT.4424399,R OUTEIRO DO PRANTO,42,2140-105,CHAMUSCA,-8.479072317690106,39.35339225737982
pt.ine.add.PTCONT.4424400,R CASAL DO ESPARGO,16 D,2140-088,CHAMUSCA,-8.478381411876606,39.3544481482062
pt.ine.add.PTCONT.4424417,,,2140-208,CHOUTO,-8.318274163831356,39.208822584594486
pt.ine.add.PTCONT.4424477,R NOVA DAS HORTAS,15,2140-055,CHAMUSCA,-8.484011310238717,39.35968248741773
pt.ine.add.PTCONT.4424556,AV JESUINO MAGANO,24,2140-056,CHAMUSCA,-8.47627377325169,39.36473155511531
pt.ine.add.PTCONT.4424557,R INF D HENRIQUE,9,2140-130,CHAMUSCA,-8.483869312312756,39.35680963019864
pt.ine.add.PTCONT.4424558,R DIREITA DE S PEDRO,238,2140-098,CHAMUSCA,-8.483505552491534,39.35599107378707
pt.ine.add.PTCONT.4424559,AV ALM GAGO COUTINHO,,2140-053,CHAMUSCA,-8.47622836785637,39.35782319678186
pt.ine.add.PTCONT.4424570,R MALCOZINHADO,36,2140-102,CHAMUSCA,-8.48379193863381,39.352936780645955
pt.ine.add.PTCONT.4424571,R CASAL ESPARGO,47,2140-089,CHAMUSCA,-8.477689388775243,39.35291897991416
pt.ine.add.PTCONT.4424699,R DIREITA,112,2140-665,CARREGUEIRA,-8.412538303787148,39.42370953293026
pt.ine.add.PTCONT.4424709,R CASAL DA AMENDOEIRA,6,2140-674,CARREGUEIRA,-8.412026188412469,39.420513249515494
pt.ine.add.PTCONT.4424726,R CANICEIRA,130,2140-415,VALE DE CAVALOS,-8.50480728793536,39.27933657645911
pt.ine.add.PTCONT.4424740,R FOROS,32,2140-428,VALE DE CAVALOS,-8.515486487039928,39.29096641291635
pt.ine.add.PTCONT.4424741,R B BR PINHAL MANSO,10,2140-670,CARREGUEIRA,-8.406351468462763,39.41855416596824
pt.ine.add.PTCONT.4424742,R A BR PINHAL MANSO,1,2140-670,CARREGUEIRA,-8.409084257916332,39.419529487053495
pt.ine.add.PTCONT.4424746,HRD VALE LAMA ATELA,,2140-436,VALE DE CAVALOS,-8.485733906602341,39.21746147496009
pt.ine.add.PTCONT.4424763,HRD PERNA SECA,,2140-426,VALE DE CAVALOS,-8.418130021139913,39.25086566549192
pt.ine.add.PTCONT.4424764,HRD VALE FLORES,52,2140-537,PARREIRA,-8.425290381719345,39.17845547797342
pt.ine.add.PTCONT.4424776,CSL CASCALHEIRA DE BAIXO,,2140-358,ULME,-8.310779057559085,39.33106366484818
pt.ine.add.PTCONT.4424777,R MANUEL PEDRO,8,2140-525,PARREIRA,-8.4110646970245,39.21893361006096
pt.ine.add.PTCONT.4424796,R DIREITA,16,2140-357,ULME,-8.318160317034975,39.32852113222405
pt.ine.add.PTCONT.4424797,TV PACO,4,2140-364,ULME,-8.433171776213989,39.31443736453754
pt.ine.add.PTCONT.4424798,R RELVÃO,35,2140-671,CARREGUEIRA,-8.412357643273062,39.41627011825698
pt.ine.add.PTCONT.4424807,R GODINHAS,,2140-307,PINHEIRO GRANDE,-8.426603103393987,39.40456185845615
pt.ine.add.PTCONT.4424808,R FAVACAL,4,2140-307,PINHEIRO GRANDE,-8.429763992091262,39.40250922922777
pt.ine.add.PTCONT.4424809,R CARVALHOS,9,2140-427,VALE DE CAVALOS,-8.511795722774549,39.28148481303579
pt.ine.add.PTCONT.4424810,R BAIRRO NOVO,66,2140-519,PARREIRA,-8.406050720833239,39.215936995747064
pt.ine.add.PTCONT.4424830,R MANUEL ROSA,6,2140-526,PARREIRA,-8.394785936761307,39.21950275062612
pt.ine.add.PTCONT.4424831,R FLORES,2,2140-613,CARREGUEIRA,-8.397655999126577,39.456016596085185
pt.ine.add.PTCONT.4424832,R ALGAZ,2,2140-666,CARREGUEIRA,-8.414052761659946,39.42777708147025
pt.ine.add.PTCONT.4424833,R RAMALHA,,2140-659,CARREGUEIRA,-8.412025383390704,39.4115692143842
pt.ine.add.PTCONT.4424846,R DIREITA,126,2140-665,CARREGUEIRA,-8.412553765884756,39.42467325270207
pt.ine.add.PTCONT.4424856,R LUIS DE CAMÕES,,2140-524,PARREIRA,-8.396173030684267,39.218842086782445
pt.ine.add.PTCONT.4424857,R BAIRRO NOVO,21,2140-614,CARREGUEIRA,-8.395687303936322,39.45465198921298
pt.ine.add.PTCONT.4424877,R POMARES DA QUINTA,15,2140-308,PINHEIRO GRANDE,-8.439204064838552,39.39217163351381
pt.ine.add.PTCONT.4424878,R POMARES DA QUINTA,15,2140-308,PINHEIRO GRANDE,-8.439204064838552,39.39217163351381
pt.ine.add.PTCONT.4424903,CSL PAIRES,,2140-356,ULME,-8.387672946703512,39.31794147898206
pt.ine.add.PTCONT.4424904,CSL CASCALHEIRA DE CIMA,,2140-359,ULME,-8.290488064740785,39.3283906969556
pt.ine.add.PTCONT.4424905,R TRABALHADORES,4,2140-417,VALE DE CAVALOS,-8.521733597388975,39.29294534067579
pt.ine.add.PTCONT.4424906,R CANICEIRA,5,2140-415,VALE DE CAVALOS,-8.513175172102859,39.28582182439433
pt.ine.add.PTCONT.4424907,R D JOÃO I,51,2140-518,PARREIRA,-8.392111412839578,39.213302630005614
pt.ine.add.PTCONT.4424908,R CASAL DA AMENDOEIRA,14,2140-674,CARREGUEIRA,-8.412144111466686,39.42096332068938
pt.ine.add.PTCONT.4445292,R NOVA,24,2140-214,CHOUTO,-8.354756270162069,39.271423140813475
pt.ine.add.PTCONT.4426268,R BAIXO,7,2140-664,CARREGUEIRA,-8.419412703314132,39.41785623028485
pt.ine.add.PTCONT.4426291,R CASAL DO ESPARGO,,2140-087,CHAMUSCA,-8.478418123609258,39.354835347619186
pt.ine.add.PTCONT.4426294,R C BR PINHAL MANSO,14,2140-670,CARREGUEIRA,-8.408059626236856,39.41883836794909
pt.ine.add.PTCONT.4426566,R SENHORA DO PRANTO,32,2140-140,CHAMUSCA,-8.479904576857445,39.355119157214666
pt.ine.add.PTCONT.4426567,BC LARGUINHO,15,2140-063,CHAMUSCA,-8.47954487563885,39.35511122132772
pt.ine.add.PTCONT.4426593,R OUTEIRO DO PRANTO,74,2140-105,CHAMUSCA,-8.480143714631875,39.35420872020142
pt.ine.add.PTCONT.4426605,BR 1 DE MAIO,71,2140-057,CHAMUSCA,-8.47371873161968,39.35710098827654
pt.ine.add.PTCONT.4426612,R NOVA DA NORA,58,2140-136,CHAMUSCA,-8.482506463928802,39.35340001265932
pt.ine.add.PTCONT.4426623,R NOVA DO CASALINHO,,2140-137,CHAMUSCA,-8.479026330775454,39.34877171284002
pt.ine.add.PTCONT.4426693,R MOUZINHO ALBUQUERQUE,16,2140-135,CHAMUSCA,-8.482446139678213,39.35526467797963
pt.ine.add.PTCONT.4426694,R PIMENTA AVELAR MACHADO,1-5,2140-166,CHAMUSCA,-8.482446139678213,39.35526467797963
pt.ine.add.PTCONT.4426713,TV MISERICÓRDIA,7 A,2140-151,CHAMUSCA,-8.482982610223825,39.35582151088089
pt.ine.add.PTCONT.4426714,R DIREITA DE S PEDRO,164,2140-098,CHAMUSCA,-8.4813747511175,39.359131963182975
pt.ine.add.PTCONT.4426715,R GEN HUMBERTO DELGADO,6,2140-127,CHAMUSCA,-8.481935881669653,39.357644100570205
pt.ine.add.PTCONT.4426716,TV TERREIRO,2,2140-106,CHAMUSCA,-8.478080568434702,39.35697104762495
pt.ine.add.PTCONT.4426717,TV BARRAJOLAS,,2140-153,CHAMUSCA,-8.478124185796258,39.35640346678194
pt.ine.add.PTCONT.4426832,R GAUDENCIOS,19,2140-429,VALE DE CAVALOS,-8.510557964621892,39.28408292712671
pt.ine.add.PTCONT.4426833,R BAIXO,31,2140-664,CARREGUEIRA,-8.418792956070808,39.41965016308513
pt.ine.add.PTCONT.4426848,R EIRA,,2140-385,ULME,-8.437077844318818,39.31676010571191
pt.ine.add.PTCONT.4426849,R 5 DE OUTUBRO,,2140-515,PARREIRA,-8.403961266433178,39.211564275569565
pt.ine.add.PTCONT.4426857,R 25 DE ABRIL,6,2140-502,PARREIRA,-8.464331400312217,39.1845751863104
pt.ine.add.PTCONT.4426879,VALE STA MARIA,02,2140-314,PINHEIRO GRANDE,-8.427331022246273,39.38990544632679
pt.ine.add.PTCONT.4426880,ESTR COVAS FUNDAS,11,2140-367,ULME,-8.418066677213703,39.312457695582516
pt.ine.add.PTCONT.4426881,R FONTE,63,2140-410,VALE DE CAVALOS,-8.514843592017984,39.28997772359877
pt.ine.add.PTCONT.4426882,R C BR PINHAL MANSO,20,2140-670,CARREGUEIRA,-8.408246558775677,39.4191261526297
pt.ine.add.PTCONT.4426883,R RELVÃO,30,2140-671,CARREGUEIRA,-8.414777875682772,39.417489247101194
pt.ine.add.PTCONT.4426909,R SOCIEDADE,6,2140-612,CARREGUEIRA,-8.39487217807537,39.457265864573316
pt.ine.add.PTCONT.4426920,R FAVACAL,18,2140-307,PINHEIRO GRANDE,-8.426141830869302,39.39976223368147
pt.ine.add.PTCONT.4426921,R OLIVAL DA COVA,,2140-669,CARREGUEIRA,-8.41735712474994,39.414951982508185
pt.ine.add.PTCONT.4426930,R RAMALHA,16,2140-659,CARREGUEIRA,-8.41284105053067,39.4122878234199
pt.ine.add.PTCONT.4426938,R LADEIRA DO PINHAL,9,2140-307,PINHEIRO GRANDE,-8.424959673297046,39.400242581875474
pt.ine.add.PTCONT.4426939,R BAIRRO NOVO,26,2140-519,PARREIRA,-8.402131768819341,39.214567979674506
pt.ine.add.PTCONT.4426946,R DIREITA,11,2140-362,ULME,-8.296032813420647,39.32386143393215
pt.ine.add.PTCONT.4426947,R NOVA,78,2140-671,CARREGUEIRA,-8.417634606030617,39.41179882270949
pt.ine.add.PTCONT.4426975,BR VENDA NOVA,8,2140-307,PINHEIRO GRANDE,-8.441779772830069,39.39187660115577
pt.ine.add.PTCONT.4426976,R AREAL,25,2140-361,ULME,-8.291913595809824,39.32283129315273
pt.ine.add.PTCONT.4426977,R RELVÃO,,2140-671,CARREGUEIRA,-8.408430455629317,39.409785365569824
pt.ine.add.PTCONT.4427014,QTA MESQUITAS,,2140-356,ULME,-8.425132344207858,39.319078522073
pt.ine.add.PTCONT.4427015,BC ALTO DAS OBRAS,12,2140-417,VALE DE CAVALOS,-8.520019392392209,39.29319424566486
pt.ine.add.PTCONT.4427016,R TRABALHADORES,5,2140-417,VALE DE CAVALOS,-8.522288743189952,39.292718304960346
pt.ine.add.PTCONT.4427017,R CANICEIRA,11,2140-415,VALE DE CAVALOS,-8.512975606074768,39.285354097571755
pt.ine.add.PTCONT.4427018,R 1 DE DEZEMBRO,1,2140-512,PARREIRA,-8.393211261562891,39.216407732906326
pt.ine.add.PTCONT.4427019,R FOROS,20,2140-520,PARREIRA,-8.393055120622629,39.214885830865775
pt.ine.add.PTCONT.4428075,R CASAL DO ESPARGO,,2140-088,CHAMUSCA,-8.478359494041792,39.35470942117542
pt.ine.add.PTCONT.4428295,BR CASAS PRÉ FABRICADAS,8,2140-058,CHAMUSCA,-8.472492475748421,39.35784315839863
pt.ine.add.PTCONT.4429885,LG FEIRA,8,2140-217,CHOUTO,-8.351243303290577,39.270862313170554
pt.ine.add.PTCONT.4429800,TV BARCA,,2140-148,CHAMUSCA,-8.481438652715395,39.362653571601776
pt.ine.add.PTCONT.4429801,URB QUINTA DO NICHO III,,2140-186,CHAMUSCA,-8.476253883522546,39.36303826832196
pt.ine.add.PTCONT.4429841,URB QUINTA DO NICHO III,,2140-186,CHAMUSCA,-8.476253883522546,39.36303826832196
pt.ine.add.PTCONT.4429842,URB QUINTA DO NICHO III,,2140-186,CHAMUSCA,-8.476253883522546,39.36303826832196
pt.ine.add.PTCONT.4429843,URB QUINTA DO NICHO III,,2140-186,CHAMUSCA,-8.477079208852977,39.36334207520276
pt.ine.add.PTCONT.4429844,R VIMIOSO,,2140-107,CHAMUSCA,-8.47155095407764,39.35989052673431
pt.ine.add.PTCONT.4429845,BR 1 DE MAIO,18,2140-057,CHAMUSCA,-8.4730840178465,39.35780540319308
pt.ine.add.PTCONT.4429846,LG 25 DE ABRIL,,2140-068,CHAMUSCA,-8.462621368258858,39.348513070081665
pt.ine.add.PTCONT.4429847,R NOVA DA NORA,7,2140-136,CHAMUSCA,-8.481205150459317,39.35067473836625
pt.ine.add.PTCONT.4429848,R QUINTINHA,,2140-095,CHAMUSCA,-8.479805386917706,39.35852416181473
pt.ine.add.PTCONT.4429849,R OUTEIRO PRANTO,75,2140-105,CHAMUSCA,-8.479793304978362,39.35373238446106
pt.ine.add.PTCONT.4429850,ESTR GAVIÃO,1,2140-224,CHOUTO,-8.312532990439589,39.25942602694604
pt.ine.add.PTCONT.4429851,EN 118,8,2140-307,PINHEIRO GRANDE,-8.436393430964714,39.39719595719793
pt.ine.add.PTCONT.4429852,TV PEREIRA,6,2140-307,PINHEIRO GRANDE,-8.437754199266244,39.3924366451716
pt.ine.add.PTCONT.4429853,R VALE DA VINHA,8,2140-313,PINHEIRO GRANDE,-8.440187389701316,39.39140343729836
pt.ine.add.PTCONT.4429854,R AREOLAS,6,2140-301,PINHEIRO GRANDE,-8.446221220602276,39.38568584708713
pt.ine.add.PTCONT.4429855,CSL CONVENTO ARREZIMA,,2140-302,PINHEIRO GRANDE,-8.451091508857203,39.376980755079295
pt.ine.add.PTCONT.4429856,R MANUEL PEDRO,17,2140-525,PARREIRA,-8.412103147866405,39.22092176089944
pt.ine.add.PTCONT.4429857,R CASAIS CAMPINOS,49,2140-506,PARREIRA,-8.420394336766655,39.215235959092546
pt.ine.add.PTCONT.4429858,R 1 DE DEZEMBRO,62,2140-512,PARREIRA,-8.399712286741163,39.214699645424076
pt.ine.add.PTCONT.4429859,R CASAL DO PELEIRO,7,2140-505,PARREIRA,-8.403873413996429,39.212807501471815
pt.ine.add.PTCONT.4429860,R CABEÇO DE ESPANHA,5,2140-615,CARREGUEIRA,-8.392547536592645,39.4570368907891
pt.ine.add.PTCONT.4429886,R CHAFARIZ,12,2140-220,CHOUTO,-8.351662739535685,39.27159111958449
pt.ine.add.PTCONT.4429882,LG CONDE FERREIRA,7,2140-069,CHAMUSCA,-8.48436842832157,39.35685316067035
pt.ine.add.PTCONT.4429883,R ANTÓNIO JOSE TASSO,Z9,2140-084,CHAMUSCA,-8.481069987385663,39.3561695173957
pt.ine.add.PTCONT.4429884,LG 25 DE ABRIL,,2140-210,CHOUTO,-8.318545722534594,39.179998338635286
pt.ine.add.PTCONT.4429887,R CHAFARIZ,24,2140-220,CHOUTO,-8.351233865470581,39.271555894432375
pt.ine.add.PTCONT.4429888,BR NOVO,6,2140-216,CHOUTO,-8.35473122126027,39.2708287054361
pt.ine.add.PTCONT.4429889,,,2140-374,ULME,-8.490590884850974,39.316572048030444
pt.ine.add.PTCONT.4429890,R FORNO,31,2140-375,ULME,-8.426611019469158,39.31495849570672
pt.ine.add.PTCONT.4429891,R VIRIATO CABREIRA,4,2140-383,ULME,-8.428177892063847,39.3153148244122
pt.ine.add.PTCONT.4429892,R VIRIATO CABREIRA,29,2140-383,ULME,-8.428177892063847,39.3153148244122
pt.ine.add.PTCONT.4429893,R VIRIATO CABREIRA,29,2140-383,ULME,-8.428177892063847,39.3153148244122
pt.ine.add.PTCONT.4429894,BC ALTO DAS OBRAS,13,2140-417,VALE DE CAVALOS,-8.519890894210844,39.29301452745683
pt.ine.add.PTCONT.4429895,TV VALE DE MOURO,4,2140-680,CARREGUEIRA,-8.412734374108181,39.41755722652609
pt.ine.add.PTCONT.4429896,R FONTE,35,2140-658,CARREGUEIRA,-8.41090974953094,39.417183300438786
pt.ine.add.PTCONT.4429933,R CIMA,37,2140-413,VALE DE CAVALOS,-8.518346450450295,39.29039853520479
pt.ine.add.PTCONT.4429934,R CIMA,37,2140-413,VALE DE CAVALOS,-8.518346450450295,39.29039853520479
pt.ine.add.PTCONT.4429935,QTA COMENDA,,2140-403,VALE DE CAVALOS,-8.53918771915825,39.29041778618526
pt.ine.add.PTCONT.4429936,R CASAL DAS OLIVEIRAS,19,2140-421,VALE DE CAVALOS,-8.510353754590712,39.28922673967209
pt.ine.add.PTCONT.4429937,R CASAL DAS OLIVEIRAS,8,2140-421,VALE DE CAVALOS,-8.511289130113072,39.28857518220422
pt.ine.add.PTCONT.4429938,R CANICEIRA,36,2140-415,VALE DE CAVALOS,-8.510189254911452,39.28232770320019
pt.ine.add.PTCONT.4429939,TV PANCAS,5,2140-415,VALE DE CAVALOS,-8.502220323744893,39.27885841233831
pt.ine.add.PTCONT.4429940,R ALPIARÇA,10,2140-663,CARREGUEIRA,-8.416640786987678,39.42157393622924
pt.ine.add.PTCONT.4429941,R DIREITA,11,2140-651,CARREGUEIRA,-8.421561044550973,39.41504971991314
pt.ine.add.PTCONT.4430167,,,2140-206,CHOUTO,-8.216141070952805,39.22491929841621
pt.ine.add.PTCONT.4430174,HRD VALE LAMA ATELA,,2140-436,VALE DE CAVALOS,-8.49077585474098,39.21843691561726
pt.ine.add.PTCONT.4430194,URB QUINTA DO NICHO III,,2140-186,CHAMUSCA,-8.476253883522546,39.36303826832196
pt.ine.add.PTCONT.4430195,URB QUINTA DO NICHO III,,2140-186,CHAMUSCA,-8.476253883522546,39.36303826832196
pt.ine.add.PTCONT.4430271,CSL AGUA DA PRATA,,2140-358,ULME,-8.34593478938674,39.331734281501085
pt.ine.add.PTCONT.4430337,URB QUINTA DO NICHO III,,2140-186,CHAMUSCA,-8.476253883522546,39.36303826832196
pt.ine.add.PTCONT.4430473,EN 118,1,2140-011,CHAMUSCA,-8.476716821922356,39.36516259124504
pt.ine.add.PTCONT.4430474,EN 118,1,2140-011,CHAMUSCA,-8.476716821922356,39.36516259124504
pt.ine.add.PTCONT.4430475,EN 118,1,2140-011,CHAMUSCA,-8.476716821922356,39.36516259124504
pt.ine.add.PTCONT.4430476,R PORTO CARVAO,1,2140-011,CHAMUSCA,-8.476716821922356,39.36516259124504
pt.ine.add.PTCONT.4430477,R PORTO CARVAO,PORTA 1,2140-011,CHAMUSCA,-8.476716821922356,39.36516259124504
pt.ine.add.PTCONT.4430478,R DIREITA S PEDRO,1,2140-098,CHAMUSCA,-8.476716821922356,39.36516259124504
pt.ine.add.PTCONT.4430479,EN 118,1,2140-011,CHAMUSCA,-8.476716821922356,39.36516259124504
pt.ine.add.PTCONT.4430480,R PORTO CARVAO,1,2140-011,CHAMUSCA,-8.476716821922356,39.36516259124504
pt.ine.add.PTCONT.4430576,R JOSE DA CONCEIÇÃO RODRIGUES,,2140-185,CHAMUSCA,-8.470629188080308,39.35882135109467
pt.ine.add.PTCONT.4430692,R DIREITA S PEDRO,288,2140-098,CHAMUSCA,-8.484479718365526,39.353592229741885
pt.ine.add.PTCONT.4430693,R NOVA DA NORA,33,2140-136,CHAMUSCA,-8.481893331601048,39.351420273618636
pt.ine.add.PTCONT.4430694,R NOVA DAS HORTAS,,2140-055,CHAMUSCA,-8.486281696222195,39.358937032373
pt.ine.add.PTCONT.4430695,LG SENHORA DAS DORES,4,2140-072,CHAMUSCA,-8.482245879536478,39.3593185034725
pt.ine.add.PTCONT.4430806,R CHA DE D BENTO,,2140-054,CHAMUSCA,-8.478077073127876,39.35861936930626
pt.ine.add.PTCONT.4430807,R MARQUES DE CARVALHO,22,2140-132,CHAMUSCA,-8.477609449021655,39.35554030341132
pt.ine.add.PTCONT.4430808,TV BOTAS,11,2140-159,CHAMUSCA,-8.476826913525924,39.35447977106886
pt.ine.add.PTCONT.4430809,R DIREITA DE MARVILA,30,2140-227,CHOUTO,-8.325120411859428,39.25267746663765
pt.ine.add.PTCONT.4430897,R NOVA,39,2140-307,PINHEIRO GRANDE,-8.420693813588354,39.393326732841125
pt.ine.add.PTCONT.4430895,EN 243,2,2140-204,CHOUTO,-8.340079226275371,39.25349853481403
pt.ine.add.PTCONT.4430896,TV PEREIRA,11,2140-307,PINHEIRO GRANDE,-8.438067695203364,39.392453838164094
pt.ine.add.PTCONT.4430997,R ISIDRO DOS REIS,54,2140-307,PINHEIRO GRANDE,-8.435802449861868,39.3920724471375
pt.ine.add.PTCONT.4430998,R AREAL,10,2140-361,ULME,-8.292214170316289,39.3224165494198
pt.ine.add.PTCONT.4430999,R FORNO,25,2140-375,ULME,-8.426750388431628,39.31501218769439
pt.ine.add.PTCONT.4431000,R JOGO DA BOLA,9,2140-376,ULME,-8.431042200949555,39.315370579846906
pt.ine.add.PTCONT.4431083,R FONTE,,2140-410,VALE DE CAVALOS,-8.51816612332374,39.29133588686061
pt.ine.add.PTCONT.4431084,R FOROS,75,2140-428,VALE DE CAVALOS,-8.513612662502378,39.29170213981858
pt.ine.add.PTCONT.4431085,R CANICEIRA,12,2140-415,VALE DE CAVALOS,-8.510979924430384,39.282802525611366
pt.ine.add.PTCONT.4431172,R BAIRRO NOVO,74,2140-519,PARREIRA,-8.407211174478277,39.21659181104475
pt.ine.add.PTCONT.4431173,R CASAIS CAMPINOS,19,2140-506,PARREIRA,-8.418730971782296,39.21336651041042
pt.ine.add.PTCONT.4431174,TV CORCITINHOS,,2140-527,PARREIRA,-8.405733958170595,39.21187539982074
pt.ine.add.PTCONT.4431175,R D DINIS,14,2140-518,PARREIRA,-8.40084084925731,39.21307572498413
pt.ine.add.PTCONT.4431176,R 1 DEZEMBRO,61,2140-512,PARREIRA,-8.400113620694452,39.213662875160345
pt.ine.add.PTCONT.4431177,R 25 DE ABRIL,20,2140-502,PARREIRA,-8.465906366094538,39.18476886223333
pt.ine.add.PTCONT.4431178,R 25 DE ABRIL,56,2140-502,PARREIRA,-8.468682619194544,39.18445464701669
pt.ine.add.PTCONT.4431179,R 2S DE ABRIL,63,2140-502,PARREIRA,-8.469188818148625,39.183813660145546
pt.ine.add.PTCONT.4431325,R 25 DE ABRIL,4,2140-609,CARREGUEIRA,-8.394486128336457,39.45656418480499
pt.ine.add.PTCONT.4431326,R SOCIEDADE,21,2140-612,CARREGUEIRA,-8.396067463324536,39.45687586608545
pt.ine.add.PTCONT.4431327,R IGREJA,41,2140-611,CARREGUEIRA,-8.3949115683999,39.45537430029646
pt.ine.add.PTCONT.4431328,TV OUTEIRINHOS,5,2140-673,CARREGUEIRA,-8.419961930924586,39.421529765857926
pt.ine.add.PTCONT.4431329,TV OUTEIRINHOS,9,2140-673,CARREGUEIRA,-8.420415832428382,39.421771836786554
pt.ine.add.PTCONT.4431330,R BAIXO,43,2140-664,CARREGUEIRA,-8.418402056856078,39.420614879881825
pt.ine.add.PTCONT.4431418,TV IRRA,28,2140-679,CARREGUEIRA,-8.416139785119451,39.41829657912217
pt.ine.add.PTCONT.4431419,TV IRRA,36,2140-679,CARREGUEIRA,-8.415652902025732,39.41850492556142
pt.ine.add.PTCONT.4431420,R NOVA DA RAMALHA,5,2140-659,CARREGUEIRA,-8.416704900235487,39.411602936728215
pt.ine.add.PTCONT.4432091,R VIMIOSO,12,2140-107,CHAMUSCA,-8.471958308103419,39.360150549125855
pt.ine.add.PTCONT.4432301,R BAIRRO NOVO,36,2140-519,PARREIRA,-8.403453369578031,39.21498826800658
pt.ine.add.PTCONT.4432329,R SENHORA DO PRANTO,18,2140-140,CHAMUSCA,-8.479844297053672,39.35465997115866
pt.ine.add.PTCONT.4432679,R CHAFARIZ,,2140-220,CHOUTO,-8.352147346578514,39.1852273974613
pt.ine.add.PTCONT.4432689,R JOSE MOREIRA PINTO,,2140-075,CHAMUSCA,-8.470112877114937,39.36002980740386
pt.ine.add.PTCONT.4432774,R JOSE LUCIANO DE CASTRO,8,2140-131,CHAMUSCA,-8.484598439424808,39.35644714374484
pt.ine.add.PTCONT.4432775,R JOSE LUCIANO DE CASTRO,27,2140-131,CHAMUSCA,-8.484781633549892,39.35596020331323
pt.ine.add.PTCONT.4432776,AV ALM GAGO COUTINHO,,2140-053,CHAMUSCA,-8.475626280783775,39.358077170984146
pt.ine.add.PTCONT.4432777,AV ALM GAGO COUTINHO,,2140-053,CHAMUSCA,-8.476147460251783,39.357886485452774
pt.ine.add.PTCONT.4432781,R ANSELMO DE ANDRADE,12,2140-081,CHAMUSCA,-8.481027540239207,39.36164599965176
pt.ine.add.PTCONT.4432782,R ANTÓNIO JOSE TASSO,77,2140-084,CHAMUSCA,-8.480805150495655,39.356575631445416
pt.ine.add.PTCONT.4432783,LG TABERNAS,,2140-224,CHOUTO,-8.315220172010827,39.2591065989774
pt.ine.add.PTCONT.4432900,LG FEIRA,1,2140-217,CHOUTO,-8.352982242820506,39.27109323312345
pt.ine.add.PTCONT.4432901,CSL PINHAO,,2140-359,ULME,-8.443966684416699,39.324848420398304
pt.ine.add.PTCONT.4432917,R DIREITA,1,2140-414,VALE DE CAVALOS,-8.520663901382415,39.29235442716729
pt.ine.add.PTCONT.4432918,R 5 DE OUTUBRO,64,2140-515,PARREIRA,-8.407611893408834,39.2094750202104
pt.ine.add.PTCONT.4432926,R ISIDRO DOS REIS,ASS,2140-307,PINHEIRO GRANDE,-8.435135435056482,39.39083119775472
pt.ine.add.PTCONT.4432927,R 5 DE OUTUBRO,31,2140-515,PARREIRA,-8.405923958237976,39.21010950364679
pt.ine.add.PTCONT.4432944,R VALE DA VINHA,22,2140-313,PINHEIRO GRANDE,-8.43945573857817,39.391324301875144
pt.ine.add.PTCONT.4432945,R FOROS,48,2140-428,VALE DE CAVALOS,-8.514988848618493,39.29111216232729
pt.ine.add.PTCONT.4432946,R FONTE,15,2140-658,CARREGUEIRA,-8.41363201893853,39.41842875251749
pt.ine.add.PTCONT.4432953,R D BR PINHAL MANSO,20,2140-670,CARREGUEIRA,-8.407503675787328,39.4192089710003
pt.ine.add.PTCONT.4433013,R 25 DE ABRIL,3,2140-609,CARREGUEIRA,-8.394448241044588,39.455753637512224
pt.ine.add.PTCONT.4433029,R AUGUSTO SOUSA MAIA,30,2140-369,ULME,-8.430016483051595,39.31411218669775
pt.ine.add.PTCONT.4433030,R D AFONSO HENRIQUES,,2140-521,PARREIRA,-8.409432590346425,39.21318176642607
pt.ine.add.PTCONT.4433031,R DIREITA,,2140-665,CARREGUEIRA,-8.410960137336536,39.42987414909886
pt.ine.add.PTCONT.4433040,R DIREITA,1,2140-665,CARREGUEIRA,-8.42414310302662,39.41326889277178
pt.ine.add.PTCONT.4433074,R ISIDRO DOS REIS,22,2140-307,PINHEIRO GRANDE,-8.437398731501137,39.393446372613255
pt.ine.add.PTCONT.4433075,ESTR COVAS FUNDAS,10,2140-367,ULME,-8.420722118797125,39.31250520894199
pt.ine.add.PTCONT.4433076,R BAIRRO NOVO,,2140-519,PARREIRA,-8.405239775611172,39.21583080415489
pt.ine.add.PTCONT.4433095,TV ARNEIRO DOS OUTEIRINHOS,9,2140-673,CARREGUEIRA,-8.417567140500767,39.423769401167256
pt.ine.add.PTCONT.4434177,R AREOLAS,27,2140-301,PINHEIRO GRANDE,-8.445415163764388,39.38452609367138
pt.ine.add.PTCONT.4434174,R JOSE LUCIANO DE CASTRO,2,2140-131,CHAMUSCA,-8.484460613553285,39.35672678207646
pt.ine.add.PTCONT.4434175,R INF D HENRIQUE,10,2140-130,CHAMUSCA,-8.484306809902488,39.356132773308616
pt.ine.add.PTCONT.4434176,TV FOROS,5,2140-307,PINHEIRO GRANDE,-8.423917404685598,39.39527326522995
pt.ine.add.PTCONT.4434217,R VALE DA VINHA,22,2140-313,PINHEIRO GRANDE,-8.43945573857817,39.391324301875144
pt.ine.add.PTCONT.4434245,,,2140-403,VALE DE CAVALOS,-8.540523587804334,39.280910455653846
pt.ine.add.PTCONT.4434514,R VALE DA VINHA,42,2140-313,PINHEIRO GRANDE,-8.436910841317188,39.390691468861924
pt.ine.add.PTCONT.4434515,QTA AGUA PRATA,,2140-352,ULME,-8.423606262768669,39.320190230120815
