id,street,house,postcode,city,lon,lat
pt.ine.add.PTCONT.4406355,,,2100-407,SÃO JOSÉ DA LAMAROSA,-8.479835445153624,39.07506172038928
pt.ine.add.PTCONT.4434239,URB DO CHAPÉU,,2100-042,CORUCHE,-8.539725573535014,38.95732704779183
pt.ine.add.PTCONT.4400029,R CONVENTO,,2100-623,ERRA,-8.44871335305649,38.99936860631577
pt.ine.add.PTCONT.4402043,R VALE,,2100-607,BRANCA CCH,-8.596783027497606,38.86106381840211
pt.ine.add.PTCONT.4402206,R FAIAL,,2100-376,COUÇO,-8.294018412211418,39.000333056955114
pt.ine.add.PTCONT.4406356,R ESCOLA,,2100-505,FAJARDA,-8.602997437630169,38.975384181893546
pt.ine.add.PTCONT.4410637,,,2100-675,SANTANA DO MATO,-8.435684941358458,38.859250209847396
pt.ine.add.PTCONT.4412693,,,2100-627,ERRA,-8.454861124511043,38.99826188013269
pt.ine.add.PTCONT.4391325,R ENG ALEIXO PAIS,8 B,2100-353,COUÇO,-8.283353203247179,38.990042407932236
pt.ine.add.PTCONT.4391326,R DR MIGUEL BOMBARDA,50,2100-333,COUÇO,-8.28653151006674,38.98664234520886
pt.ine.add.PTCONT.4391407,R SACADURA CABRAL,106,2100-345,COUÇO,-8.287670701845085,38.9850644824704
pt.ine.add.PTCONT.4391408,R LUIS DE CAMÕES,20,2100-339,COUÇO,-8.28934073369708,38.9834858987046
pt.ine.add.PTCONT.4391409,R SEM NOME,,2100-372,COUÇO,-8.278663848395482,38.98283312994353
pt.ine.add.PTCONT.4391410,R SACADURA CABRAL,75,2100-345,COUÇO,-8.28741751554281,38.98539810499889
pt.ine.add.PTCONT.4391411,R SACADURA CABRAL,61,2100-345,COUÇO,-8.287384259895122,38.98602869272755
pt.ine.add.PTCONT.4391412,R SACADURA CABRAL,59,2100-345,COUÇO,-8.287384259895122,38.98602869272755
pt.ine.add.PTCONT.4391413,R SACADURA CABRAL,59,2100-345,COUÇO,-8.287384259895122,38.98602869272755
pt.ine.add.PTCONT.4391414,,,2100-377,COUÇO,-8.246015555985185,38.96910538949039
pt.ine.add.PTCONT.4391521,,,2100-407,SÃO JOSÉ DA LAMAROSA,-8.504916134888516,39.09787270913496
pt.ine.add.PTCONT.4391522,,,2100-407,SÃO JOSÉ DA LAMAROSA,-8.508336661367553,39.08238674048485
pt.ine.add.PTCONT.4391634,,,2100-407,SÃO JOSÉ DA LAMAROSA,-8.454022759557892,39.07836934353988
pt.ine.add.PTCONT.4391635,R VALE QUEIMADO,,2100-403,SÃO JOSÉ DA LAMAROSA,-8.435652667720072,39.057845045465854
pt.ine.add.PTCONT.4391636,,,2100-400,SÃO JOSÉ DA LAMAROSA,-8.468725983801846,39.05954707773584
pt.ine.add.PTCONT.4391637,,,2100-407,SÃO JOSÉ DA LAMAROSA,-8.4951030756443,39.048334755200216
pt.ine.add.PTCONT.4391638,R PEDRO ALVES CABRAL,,2100-402,SÃO JOSÉ DA LAMAROSA,-8.452210130531672,39.02998527754063
pt.ine.add.PTCONT.4391724,R FELICIDADE PASCOA,52 A,2100-519,FAJARDA,-8.598763867884866,38.96504225583941
pt.ine.add.PTCONT.4391725,R PADEIRO,59,2100-516,FAJARDA,-8.586442492662776,38.96343334267095
pt.ine.add.PTCONT.4391726,R PADEIRO,45,2100-516,FAJARDA,-8.586723980614266,38.9623423111107
pt.ine.add.PTCONT.4391727,R MINDURICO,48,2100-509,FAJARDA,-8.591000045361989,38.96345158118533
pt.ine.add.PTCONT.4391822,R BELA VISTA,,2100-050,CORUCHE,-8.50421799419955,38.98661246755293
pt.ine.add.PTCONT.4391823,TV S PEDRO,18,2100-528,FAJARDA,-8.60215565886337,38.966731136290036
pt.ine.add.PTCONT.4391824,R NOVA,21,2100-525,FAJARDA,-8.609334038650621,38.96351332409475
pt.ine.add.PTCONT.4391825,R MOAGEM,1,2100-507,FAJARDA,-8.605832053759755,38.960870276536156
pt.ine.add.PTCONT.4391826,R S BRÁS,,2100-607,BRANCA CCH,-8.591280471363373,38.88152443649056
pt.ine.add.PTCONT.4391897,ESTR LAMAROSA,,2100-050,CORUCHE,-8.510795133891397,38.997175440014544
pt.ine.add.PTCONT.4391898,R MOINHO DE VENTO,,2100-027,CORUCHE,-8.540635325572328,38.96307983723157
pt.ine.add.PTCONT.4391899,R ESCOLA NOVA,,2100-607,BRANCA CCH,-8.586738561631426,38.8468797609165
pt.ine.add.PTCONT.4391900,R PRINCIPAL,,2100-607,BRANCA CCH,-8.569269248718618,38.83637097520097
pt.ine.add.PTCONT.4391901,R CENTRAL,,2100-607,BRANCA CCH,-8.57576247240409,38.83782385396249
pt.ine.add.PTCONT.4391902,R BAIRRO NOVO,,2100-607,BRANCA CCH,-8.575271690556797,38.83854634830169
pt.ine.add.PTCONT.4391903,R PRINCIPAL,,2100-608,BRANCA CCH,-8.576326034611764,38.83769560581772
pt.ine.add.PTCONT.4391904,TV PALMEIRA,,2100-606,BRANCA CCH,-8.583754445345864,38.7700171369769
pt.ine.add.PTCONT.4392003,R PRINCIPAL,88,2100-016,CORUCHE,-8.475239835262093,38.9680099421186
pt.ine.add.PTCONT.4392004,ESTR LAMAROSA,,2100-039,CORUCHE,-8.519139341911584,38.979880317851936
pt.ine.add.PTCONT.4392005,R JERONIMO A TANGANHO,10,2100-039,CORUCHE,-8.519778550674427,38.97433843844732
pt.ine.add.PTCONT.4392006,R CONVENTO,12,2100-623,ERRA,-8.448582974141496,38.99860330224176
pt.ine.add.PTCONT.4392007,R PALMA,02,2100-623,ERRA,-8.448333088685695,38.99691953258307
pt.ine.add.PTCONT.4392008,R VALE,,2100-625,ERRA,-8.393197522876232,39.05233568742395
pt.ine.add.PTCONT.4392009,R LAGOA DO MARCO,,2100-626,ERRA,-8.470198417001857,39.02173769386395
pt.ine.add.PTCONT.4392010,R BUNHEIRA,,2100-621,ERRA,-8.478285600647162,39.02494780287506
pt.ine.add.PTCONT.4433000,,,2100-407,SÃO JOSÉ DA LAMAROSA,-8.543731620282232,39.07360217392608
pt.ine.add.PTCONT.4392137,R ESCOLA,,2100-040,CORUCHE,-8.493227162042498,38.9084592346022
pt.ine.add.PTCONT.4392138,R AMOREIRAS,,2100-052,CORUCHE,-8.495642944414879,38.902884900697224
pt.ine.add.PTCONT.4392139,ZN ZONA INDUSTRIAL MONTE BARCA,33,2100-051,CORUCHE,-8.462521031769628,38.91495449427617
pt.ine.add.PTCONT.4392140,EM 515,22,2100-651,BISCAÍNHO,-8.632620420406628,38.908054166367634
pt.ine.add.PTCONT.4392141,R STO ANTONIO,27,2100-651,BISCAÍNHO,-8.648749876648042,38.916109089832865
pt.ine.add.PTCONT.4392142,R STO ANTONIO,7,2100-651,BISCAÍNHO,-8.648749876648042,38.916109089832865
pt.ine.add.PTCONT.4392143,EM 515,139,2100-651,BISCAÍNHO,-8.655922398944737,38.914644949117545
pt.ine.add.PTCONT.4417655,,,2100-675,SANTANA DO MATO,-8.411556269551582,38.867165150621425
pt.ine.add.PTCONT.4392254,R ALTO DO MARAU,59,2100-039,CORUCHE,-8.527214758458543,38.97518731338001
pt.ine.add.PTCONT.4392255,R ALTO DO MIRAU,13,2100-039,CORUCHE,-8.529190022263538,38.97139737138333
pt.ine.add.PTCONT.4392256,ESTR LAMAROSA,126,2100-018,CORUCHE,-8.522350951113394,38.969952119118105
pt.ine.add.PTCONT.4392257,ESTR LAMAROSA,35,2100-018,CORUCHE,-8.52357925930855,38.96879502300317
pt.ine.add.PTCONT.4392258,R MONTEMOR,,2100-651,BISCAÍNHO,-8.651272500935935,38.8999108744933
pt.ine.add.PTCONT.4392259,AV LIBERDADE,154,2100-675,SANTANA DO MATO,-8.42154318666778,38.883553345405545
pt.ine.add.PTCONT.4392260,R COMISS DE MORADORES,,2100-675,SANTANA DO MATO,-8.414004428433495,38.87732923791791
pt.ine.add.PTCONT.4392375,R LIMOEIRO,10,2100-048,CORUCHE,-8.52568244958218,38.967274663741385
pt.ine.add.PTCONT.4392376,R JOAQUIM DO LEÃO,23,2100-042,CORUCHE,-8.532019384547077,38.96563177848383
pt.ine.add.PTCONT.4392377,R 17 DE AGOSTO,17,2100-042,CORUCHE,-8.530306855844392,38.96269208127796
pt.ine.add.PTCONT.4392378,R QUINTA NOVA,35,2100-027,CORUCHE,-8.536183316999024,38.96132076878011
pt.ine.add.PTCONT.4392379,MTE MARCO,,2100-675,SANTANA DO MATO,-8.365857043139787,38.863067461779536
pt.ine.add.PTCONT.4392380,AV 25 DE ABRIL,45,2100-675,SANTANA DO MATO,-8.41507037671895,38.87586738602709
pt.ine.add.PTCONT.4392381,,,2100-675,SANTANA DO MATO,-8.403266809941023,38.86281576896226
pt.ine.add.PTCONT.4392487,R 25 DE ABRIL,1,2100-126,CORUCHE,-8.526331086821415,38.961462472873535
pt.ine.add.PTCONT.4392488,R 25 DE ABRIL,1,2100-126,CORUCHE,-8.526331086821415,38.961462472873535
pt.ine.add.PTCONT.4392489,R S TOME,28,2100-165,CORUCHE,-8.521626449911134,38.964063458336156
pt.ine.add.PTCONT.4392490,R TIMOR,6,2100-166,CORUCHE,-8.521607090156557,38.96263128804832
pt.ine.add.PTCONT.4392688,LG JOÃO FELICIO,25,2100-116,CORUCHE,-8.524915081704473,38.957837103676475
pt.ine.add.PTCONT.4392689,LG JOÃO FELICIO,28,2100-116,CORUCHE,-8.524558286178832,38.95799143306531
pt.ine.add.PTCONT.4392690,R D JOANA ISABEL MATOS LIMA DIAS,18,2100-176,CORUCHE,-8.528937483386715,38.95712092458072
pt.ine.add.PTCONT.4392691,R GRAÇA,12,2100-154,CORUCHE,-8.53382681342989,38.95671690568731
pt.ine.add.PTCONT.4392692,R CAMPINOS DO SORRAIA,3,2100-182,CORUCHE,-8.531770436461837,38.95621050482576
pt.ine.add.PTCONT.4392693,R CAMPINOS DO SORRAIA,3,2100-182,CORUCHE,-8.531770436461837,38.95621050482576
pt.ine.add.PTCONT.4392694,R CAMPINOS DO SORRAIA,3,2100-182,CORUCHE,-8.531770436461837,38.95621050482576
pt.ine.add.PTCONT.4392809,R SALVATERRA DE MAGOS,31,2100-198,CORUCHE,-8.532253703542755,38.955983658737374
pt.ine.add.PTCONT.4392810,PTO FERREIRA,,2100-052,CORUCHE,-8.50388422251075,38.884906322702165
pt.ine.add.PTCONT.4392811,R DIREITA,24,2100-053,CORUCHE,-8.53338737685183,38.888808417654
pt.ine.add.PTCONT.4392812,R CABINE,,2100-374,COUÇO,-8.298659955553656,38.990814377649166
pt.ine.add.PTCONT.4392915,R BAIRRO NOVO,8,2100-373,COUÇO,-8.304336280752622,38.984987171126434
pt.ine.add.PTCONT.4392916,SIT FOROS DOS LAGOICOS,C,2100-373,COUÇO,-8.308349733100778,38.98379218744906
pt.ine.add.PTCONT.4392917,MTE VALE SOBREIRAS,,2100-371,COUÇO,-8.355744416101617,39.08528204354217
pt.ine.add.PTCONT.4392918,R CABINDA,,2100-376,COUÇO,-8.291893964266036,39.00016482032207
pt.ine.add.PTCONT.4392919,R S TOMÉ,10,2100-324,COUÇO,-8.287701405756403,38.988568462852946
pt.ine.add.PTCONT.4392953,R CANAS,,2100-608,BRANCA CCH,-8.576554091094197,38.83361413952565
pt.ine.add.PTCONT.4392954,R SPORTING CLUBE SANTANENSE,46,2100-675,SANTANA DO MATO,-8.411936315353566,38.87596499011752
pt.ine.add.PTCONT.4392963,R 25 DE ABRIL,1,2100-126,CORUCHE,-8.526331086821415,38.961462472873535
pt.ine.add.PTCONT.4392974,MTE PERAIS,,2100-300,COUÇO,-8.18528379011477,38.87049408556138
pt.ine.add.PTCONT.4392980,ESTR LAMAROSA,,2100-039,CORUCHE,-8.517885189793853,38.97844322125813
pt.ine.add.PTCONT.4392994,HRD AMOREIRA,,2100-651,BISCAÍNHO,-8.568381839367515,38.925056879253326
pt.ine.add.PTCONT.4393012,AV 25 DE ABRIL,46,2100-675,SANTANA DO MATO,-8.415049002324086,38.87629080992274
pt.ine.add.PTCONT.4393050,R CENTRO SOCIAL,,2100-016,CORUCHE,-8.478683286757912,38.96427958710896
pt.ine.add.PTCONT.4393057,ESTR LAMAROSA,49,2100-018,CORUCHE,-8.522914717073817,38.96965298144543
pt.ine.add.PTCONT.4393061,R MOAGEM,55,2100-507,FAJARDA,-8.603592333430278,38.96762612713597
pt.ine.add.PTCONT.4393096,R COMBATENTES,,2100-050,CORUCHE,-8.50815877701628,38.98320395149803
pt.ine.add.PTCONT.4393103,R CAMPINOS DO SORRAIA,3,2100-182,CORUCHE,-8.531770436461837,38.95621050482576
pt.ine.add.PTCONT.4393188,R SANTO ANTÓNIO,80,2100-510,FAJARDA,-8.607317012976058,38.98286113154845
pt.ine.add.PTCONT.4393225,R NSA SRA DO CASTELO,16,2100-150,CORUCHE,-8.52658796830136,38.964100882336716
pt.ine.add.PTCONT.4393227,LG JOÃO FELICIO,12,2100-116,CORUCHE,-8.525767704535102,38.957636067234155
pt.ine.add.PTCONT.4393270,R COMÉRCIO,65,2100-040,CORUCHE,-8.489672416027116,38.903083443796675
pt.ine.add.PTCONT.4393784,R CUMEADA,,2100-625,ERRA,-8.407467037654245,39.06191414817584
pt.ine.add.PTCONT.4393785,R CAPADOURA,,2100-623,ERRA,-8.449115494038404,38.99894415475984
pt.ine.add.PTCONT.4393786,R BISCAINHO,,2100-651,BISCAÍNHO,-8.65707904581803,38.91984627239421
pt.ine.add.PTCONT.4393787,R BAIXA,,2100-651,BISCAÍNHO,-8.654488126918066,38.91402081684661
pt.ine.add.PTCONT.4393788,AV LIBERDADE,,2100-675,SANTANA DO MATO,-8.411852606872705,38.87813609869537
pt.ine.add.PTCONT.4393808,AZ BRUXAS,S N,2100-055,CORUCHE,-8.51454127517925,38.9660505227939
pt.ine.add.PTCONT.4393809,R GOA,47,2100-146,CORUCHE,-8.523174511382626,38.964080843640055
pt.ine.add.PTCONT.4393810,R BARBOSA DU BOCAGE,9,2100-128,CORUCHE,-8.524470022868837,38.96291897895266
pt.ine.add.PTCONT.4393811,R ANGOLA,,2100-320,COUÇO,-8.287102240544552,38.989037658811846
pt.ine.add.PTCONT.4393812,ESTR ERRA,,2100-627,ERRA,-8.478898436264497,38.98479862136924
pt.ine.add.PTCONT.4393816,R PRINCIPAL,30,2100-016,CORUCHE,-8.480712000143658,38.96623725646987
pt.ine.add.PTCONT.4393817,R CAMPO DE FUTEBOL,,2100-052,CORUCHE,-8.496375608287032,38.9109266407997
pt.ine.add.PTCONT.4393818,R POVO UNIDO,140,2100-373,COUÇO,-8.307184298727057,38.98388400952947
pt.ine.add.PTCONT.4393819,EN 251,,2100-608,BRANCA CCH,-8.560746169204757,38.83054731575249
pt.ine.add.PTCONT.4393820,EN 251,,2100-608,BRANCA CCH,-8.564718587936854,38.82661424292417
pt.ine.add.PTCONT.4393821,AV 25 DE ABRIL,5,2100-675,SANTANA DO MATO,-8.412778646984789,38.87330563845707
pt.ine.add.PTCONT.4393825,R ESCOLA,9,2100-037,CORUCHE,-8.531934057968654,38.97099168470792
pt.ine.add.PTCONT.4393826,R REBOCHO,,2100-052,CORUCHE,-8.495027660182972,38.90885001286257
pt.ine.add.PTCONT.4393827,R VITÓRIA,,2100-037,CORUCHE,-8.530255927507232,38.97216841535014
pt.ine.add.PTCONT.4393828,R POVO UNIDO,122,2100-373,COUÇO,-8.305591291608422,38.98375125853519
pt.ine.add.PTCONT.4393829,R DR MIGUEL BOMBARDA,107,2100-333,COUÇO,-8.286124334536117,38.98514759040915
pt.ine.add.PTCONT.4393830,R DR MIGUEL BOMBARDA,107,2100-333,COUÇO,-8.286124334536117,38.98514759040915
pt.ine.add.PTCONT.4393831,R ARCO,38,2100-652,BISCAÍNHO,-8.578688871674961,38.924702719914606
pt.ine.add.PTCONT.4393839,R FRANCISCO GERMANO DE OLIVEIRA,,2100-042,CORUCHE,-8.530120697590027,38.96241347398632
pt.ine.add.PTCONT.4393840,R BICA,,2100-040,CORUCHE,-8.4993957839235,38.908584170645845
pt.ine.add.PTCONT.4393841,R ESCOLA,17,2100-505,FAJARDA,-8.604530019456446,38.9767922135533
pt.ine.add.PTCONT.4393849,R SACADURA CABRAL,9,2100-345,COUÇO,-8.287064746152577,38.987713567001634
pt.ine.add.PTCONT.4393850,R SACADURA CABRAL,35,2100-345,COUÇO,-8.28725923730045,38.98692062686649
pt.ine.add.PTCONT.4393851,R AMÉRICO DURÃO,163,2100-315,COUÇO,-8.286189450755613,38.98322884990561
pt.ine.add.PTCONT.4393852,R ESCOLA,11,2100-505,FAJARDA,-8.603876283611504,38.9756598793057
pt.ine.add.PTCONT.4393853,R CONVENTO,6,2100-623,ERRA,-8.448628387757504,38.99843203264286
pt.ine.add.PTCONT.4393854,PC PELOURINHO,19,2100-623,ERRA,-8.447968697705583,38.99804648247305
pt.ine.add.PTCONT.4393855,EM 515,98,2100-651,BISCAÍNHO,-8.646957438775353,38.91218058067026
pt.ine.add.PTCONT.4393869,R CENTRAL ELEVATORIA,,2100-039,CORUCHE,-8.52634398007614,38.970055833275666
pt.ine.add.PTCONT.4393870,R CENTRAL ELEVATORIA,21,2100-039,CORUCHE,-8.52379723594121,38.97276671284834
pt.ine.add.PTCONT.4393871,R MARIA EMILIA JORDAO,7,2100-042,CORUCHE,-8.53114133514481,38.96336482053172
pt.ine.add.PTCONT.4393872,R ESCOLA,14,2100-505,FAJARDA,-8.603476990028435,38.97635508432773
pt.ine.add.PTCONT.4393873,R MATALOBOS,5,2100-651,BISCAÍNHO,-8.642477635136784,38.911290422599585
pt.ine.add.PTCONT.4393884,R BELA VISTA,,2100-050,CORUCHE,-8.504001950782742,38.98723468804622
pt.ine.add.PTCONT.4393885,R COMBATENTES,,2100-050,CORUCHE,-8.508577149847538,38.98375207804592
pt.ine.add.PTCONT.4393886,R 5 DE OUTUBRO,,2100-127,CORUCHE,-8.522281057888556,38.95928716021019
pt.ine.add.PTCONT.4393887,R 5 DE OUTUBRO,,2100-127,CORUCHE,-8.522281057888556,38.95928716021019
pt.ine.add.PTCONT.4393888,R GRAÇA,59,2100-153,CORUCHE,-8.535196215921287,38.95814443163429
pt.ine.add.PTCONT.4393889,R GRAÇA,59,2100-153,CORUCHE,-8.535196215921287,38.95814443163429
pt.ine.add.PTCONT.4393900,R 1 MAIO,3,2100-302,COUÇO,-8.389778727435901,38.97267002766349
pt.ine.add.PTCONT.4393901,R 1 MAIO,23,2100-302,COUÇO,-8.390999538010028,38.97201877631576
pt.ine.add.PTCONT.4393902,,,2100-407,SÃO JOSÉ DA LAMAROSA,-8.498861705535363,39.060375238374334
pt.ine.add.PTCONT.4393903,R MOAGEM,19,2100-507,FAJARDA,-8.604800097121792,38.96357677588914
pt.ine.add.PTCONT.4393904,EM 515,,2100-651,BISCAÍNHO,-8.635632083297217,38.90842857878979
pt.ine.add.PTCONT.4393909,R ESCOLA,208,2100-039,CORUCHE,-8.518006380803417,38.983775403118
pt.ine.add.PTCONT.4393910,EN 114,,2100-051,CORUCHE,-8.444000735796319,38.92216652251779
pt.ine.add.PTCONT.4393911,R CORUCHE,,2100-053,CORUCHE,-8.534413756641893,38.888912989332
pt.ine.add.PTCONT.4393912,R 25 DE ABRIL,10,2100-302,COUÇO,-8.390110599161964,38.97190363626732
pt.ine.add.PTCONT.4393913,R ANTÓNIO FERREIRA ROQUETE,73,2100-503,FAJARDA,-8.59842056326205,38.96547599683471
pt.ine.add.PTCONT.4393958,R MONTE,16,2100-515,FAJARDA,-8.606026815231328,38.988424124842965
pt.ine.add.PTCONT.4393925,R DR ANTÓNIO HENRIQUES SILVA,79,2100-045,CORUCHE,-8.484187549828805,38.95038216521743
pt.ine.add.PTCONT.4393926,TV BAIRRO ALTO,,2100-376,COUÇO,-8.293308829162951,39.00305437168653
pt.ine.add.PTCONT.4393927,R CAP SALGUEIRO MAIA,,2100-407,SÃO JOSÉ DA LAMAROSA,-8.548180387039608,39.07948639199265
pt.ine.add.PTCONT.4393928,,,2100-407,SÃO JOSÉ DA LAMAROSA,-8.542493098682801,39.05124063744412
pt.ine.add.PTCONT.4393929,R MOAGEM,,2100-608,BRANCA CCH,-8.584149179897341,38.83448585635407
pt.ine.add.PTCONT.4393930,R OLHEIROS,,2100-626,ERRA,-8.462698820870266,39.025551358852795
pt.ine.add.PTCONT.4393936,R GUARITA,,2100-049,CORUCHE,-8.53018298570625,38.985968520412314
pt.ine.add.PTCONT.4393937,HRD HERDADE FORNO VIDRO NOVO,,2100-036,CORUCHE,-8.514035605787347,38.86505626159864
pt.ine.add.PTCONT.4393938,R MUSICA,30,2100-138,CORUCHE,-8.528608279868477,38.958085872314975
pt.ine.add.PTCONT.4393939,AV LIBERDADE,,2100-054,CORUCHE,-8.516048109932658,38.845007027723575
pt.ine.add.PTCONT.4393940,MTE FIGUEIRA,,2100-052,CORUCHE,-8.525952633191627,38.85938683471082
pt.ine.add.PTCONT.4393941,R DIREITA,,2100-377,COUÇO,-8.243964305710307,38.970809829376314
pt.ine.add.PTCONT.4393942,,,2100-377,COUÇO,-8.236635491440632,38.96978066447812
pt.ine.add.PTCONT.4393943,R ANTÓNIO FERREIRA ROQUETE,56,2100-503,FAJARDA,-8.595998427476822,38.963837211687036
pt.ine.add.PTCONT.4393944,R GUARITA,,2100-608,BRANCA CCH,-8.590578425643558,38.83492026090276
pt.ine.add.PTCONT.4393945,R PESTANA,,2100-606,BRANCA CCH,-8.57313960247111,38.77657040066575
pt.ine.add.PTCONT.4393946,R REPUBLICA POPULAR DE ANGOLA,,2100-675,SANTANA DO MATO,-8.420165936205272,38.88497998846992
pt.ine.add.PTCONT.4393947,R PRINCIPAL,,2100-673,SANTANA DO MATO,-8.469097455955652,38.83020728922534
pt.ine.add.PTCONT.4393954,R AGOLADA DE CIMA,,2100-049,CORUCHE,-8.533632923455524,38.98989310541494
pt.ine.add.PTCONT.4393955,R BECO,26,2100-327,COUÇO,-8.284697642214205,38.987230246808764
pt.ine.add.PTCONT.4393956,R CABO VERDE,,2100-406,SÃO JOSÉ DA LAMAROSA,-8.45729020610598,39.03727649088356
pt.ine.add.PTCONT.4393957,,,2100-402,SÃO JOSÉ DA LAMAROSA,-8.448017296771065,39.02983453368819
pt.ine.add.PTCONT.4393971,R 15 DE AGOSTO,2,2100-125,CORUCHE,-8.529484118978402,38.95791175338457
pt.ine.add.PTCONT.4393972,,,2100-371,COUÇO,-8.356558056817388,39.01341735979677
pt.ine.add.PTCONT.4393973,MTE COURELAS,,2100-371,COUÇO,-8.338955972533688,38.999397685807445
pt.ine.add.PTCONT.4393974,R MOÇAMBIQUE,13,2100-376,COUÇO,-8.29105010483484,38.999643516437196
pt.ine.add.PTCONT.4393979,R AGOLADA DE CIMA,,2100-049,CORUCHE,-8.535882577254222,38.987669461717914
pt.ine.add.PTCONT.4393980,TV BARREIRAS,17,2100-205,CORUCHE,-8.5281456597361,38.95788026032329
pt.ine.add.PTCONT.4393981,R SALVATERRA DE MAGOS,65,2100-198,CORUCHE,-8.531378298435307,38.95622985916859
pt.ine.add.PTCONT.4393982,,,2100-621,ERRA,-8.480755966866493,39.01533827285927
pt.ine.add.PTCONT.4393992,R COURELAS,,2100-371,COUÇO,-8.34864536683921,38.996984129496674
pt.ine.add.PTCONT.4393993,R RITA QUERIOL ROQUETE,132,2100-524,FAJARDA,-8.607903803239923,38.9860474753189
pt.ine.add.PTCONT.4393994,R GLÓRIA DO RIBATEJO,12,2100-521,FAJARDA,-8.60943967172426,38.9878968034519
pt.ine.add.PTCONT.4393995,,,2100-627,ERRA,-8.451682405401453,39.005035400963024
pt.ine.add.PTCONT.4393996,R BISCAINHO,13,2100-651,BISCAÍNHO,-8.657126163643182,38.91841382108977
pt.ine.add.PTCONT.4393999,R BELA VISTA,3,2100-129,CORUCHE,-8.522739054661518,38.96496953324399
pt.ine.add.PTCONT.4394000,R BELA VISTA,3,2100-129,CORUCHE,-8.522739054661518,38.96496953324399
pt.ine.add.PTCONT.4396063,,,2100-675,SANTANA DO MATO,-8.421148565748176,38.86859216421058
pt.ine.add.PTCONT.4395033,MTE VALE BOI SN,SN,2100-052,CORUCHE,-8.537185401467198,38.87359902862929
pt.ine.add.PTCONT.4395047,R VALE MANSOS,,2100-037,CORUCHE,-8.535736580780375,38.97615808179487
pt.ine.add.PTCONT.4395048,R ABRUNHEIRA,,2100-607,BRANCA CCH,-8.570413847031304,38.83896999270978
pt.ine.add.PTCONT.4395064,ESTR ALEMAES,,2100-608,BRANCA CCH,-8.577823384115726,38.83770793087695
pt.ine.add.PTCONT.4395083,R PADERIA,,2100-404,SÃO JOSÉ DA LAMAROSA,-8.461961027417596,39.06817763690977
pt.ine.add.PTCONT.4395136,R ESCOLA NOVA,,2100-607,BRANCA CCH,-8.583163571005022,38.846227003212285
pt.ine.add.PTCONT.4395148,EM 515,122,2100-651,BISCAÍNHO,-8.64802163227563,38.91266231374415
pt.ine.add.PTCONT.4395170,R DOS OLHOS DE ÁGUA,,2100-651,BISCAÍNHO,-8.648543052118704,38.913020325279376
pt.ine.add.PTCONT.4395192,R ESCOLA NOVA,,2100-607,BRANCA CCH,-8.59514720446033,38.85397206799644
pt.ine.add.PTCONT.4395193,R BAIRRO ALTO,68,2100-376,COUÇO,-8.292846571989434,39.0028388197003
pt.ine.add.PTCONT.4395194,R LUANDA,20,2100-376,COUÇO,-8.29280699817343,39.00064098466518
pt.ine.add.PTCONT.4395195,R CASTANHAS,11,2100-376,COUÇO,-8.291328357845298,39.00018360417984
pt.ine.add.PTCONT.4395222,EN 114,,2100-019,CORUCHE,-8.540484778061721,38.9508928485777
pt.ine.add.PTCONT.4395223,R SANTO ANTÓNIO,4,2100-510,FAJARDA,-8.608865431452488,38.972802211517106
pt.ine.add.PTCONT.4395224,R SANTO ANTÓNIO,18,2100-155,CORUCHE,-8.529476190443633,38.95648855212843
pt.ine.add.PTCONT.4395225,R SANTO ANTÓNIO,18,2100-155,CORUCHE,-8.529476190443633,38.95648855212843
pt.ine.add.PTCONT.4395226,R SANTO ANTÓNIO,18,2100-155,CORUCHE,-8.529476190443633,38.95648855212843
pt.ine.add.PTCONT.4395227,R SANTO ANTÓNIO,18,2100-155,CORUCHE,-8.529476190443633,38.95648855212843
pt.ine.add.PTCONT.4395228,R SANTO ANTÓNIO,18,2100-155,CORUCHE,-8.529476190443633,38.95648855212843
pt.ine.add.PTCONT.4395246,R SANTO ANTÓNIO,18,2100-155,CORUCHE,-8.529476190443633,38.95648855212843
pt.ine.add.PTCONT.4395272,R BARRANCOSAS,,2100-625,ERRA,-8.385881817701511,39.0514690219712
pt.ine.add.PTCONT.4395293,R SANTARÉM,116,2100-228,CORUCHE,-8.52501883715333,38.959917550589694
pt.ine.add.PTCONT.4395890,,,2100-323,COUÇO,-8.279583678393518,39.02034923296276
pt.ine.add.PTCONT.4395889,R JOSE AFONSO,1,2100-191,CORUCHE,-8.524965045227919,38.962719147058664
pt.ine.add.PTCONT.4395891,R LAGAR,,2100-608,BRANCA CCH,-8.566903339865462,38.835569069372326
pt.ine.add.PTCONT.4395892,R S TORCATO,,2100-607,BRANCA CCH,-8.55935236110935,38.834353767955086
pt.ine.add.PTCONT.4395898,R OLIVAL,,2100-049,CORUCHE,-8.530120906568762,38.97485318368842
pt.ine.add.PTCONT.4395899,R JOAQUIM DO LEÃO,35,2100-042,CORUCHE,-8.531594447932553,38.96598453282533
pt.ine.add.PTCONT.4395900,R JOAQUIM DO LEÃO,35,2100-042,CORUCHE,-8.531594447932553,38.96598453282533
pt.ine.add.PTCONT.4395901,R JOAQUIM INÁCIO DE ALMEIDA ROSADO,36,2100-190,CORUCHE,-8.521159289972301,38.96302911957302
pt.ine.add.PTCONT.4395902,R BENTO GONSALVES,7,2100-373,COUÇO,-8.305927145144683,38.98422817336706
pt.ine.add.PTCONT.4395903,HRD AMIEIRA,,2100-542,FAJARDA,-8.61618038722817,38.94717214360428
pt.ine.add.PTCONT.4395904,R POÇO,21,2100-651,BISCAÍNHO,-8.644389663372047,38.90942645505517
pt.ine.add.PTCONT.4395917,R GAGO COUTINHO,6,2100-335,COUÇO,-8.287641952995948,38.98776685059733
pt.ine.add.PTCONT.4395918,,,2100-407,SÃO JOSÉ DA LAMAROSA,-8.475335390431729,39.06689610447923
pt.ine.add.PTCONT.4395926,R AMOREIRAS,,2100-052,CORUCHE,-8.495629982503829,38.907136651436424
pt.ine.add.PTCONT.4395927,R SORRAIA,10,2100-045,CORUCHE,-8.493819214607656,38.95480264379434
pt.ine.add.PTCONT.4395928,R PADEIRO,,2100-516,FAJARDA,-8.584583225209457,38.96135075164759
pt.ine.add.PTCONT.4395929,R S PEDRO,127,2100-651,BISCAÍNHO,-8.653403218683117,38.9059726722876
pt.ine.add.PTCONT.4395940,R MARIA EMILIA BORDAO,39,2100-042,CORUCHE,-8.530260383133106,38.96470097060964
pt.ine.add.PTCONT.4395941,R SACADURA CABRAL,,2100-345,COUÇO,-8.287306654647074,38.98749706121675
pt.ine.add.PTCONT.4395942,,,2100-407,SÃO JOSÉ DA LAMAROSA,-8.480626258844103,39.07372624109008
pt.ine.add.PTCONT.4395943,,,2100-407,SÃO JOSÉ DA LAMAROSA,-8.479534465006887,39.07495452369135
pt.ine.add.PTCONT.4395944,R CORUCHE,17,2100-405,SÃO JOSÉ DA LAMAROSA,-8.465319934353206,39.06495239700887
pt.ine.add.PTCONT.4395945,AV 25 DE ABRIL,63,2100-675,SANTANA DO MATO,-8.41624119171315,38.87761208977861
pt.ine.add.PTCONT.4395946,AV 25 DE ABRIL,31,2100-675,SANTANA DO MATO,-8.41512486182683,38.875074557327764
pt.ine.add.PTCONT.4395957,HRD AGOLADA DE CIMA,,2100-049,CORUCHE,-8.55685335766841,39.004989071729135
pt.ine.add.PTCONT.4395958,R AGOLADA CIMA,,2100-049,CORUCHE,-8.53638371544913,38.97428223647716
pt.ine.add.PTCONT.4395959,R ANTÓNIO TELES,,2100-037,CORUCHE,-8.534473209856802,38.96904631265639
pt.ine.add.PTCONT.4395960,R SALVATERRA,34,2100-501,FAJARDA,-8.60388008161338,38.96054487995675
pt.ine.add.PTCONT.4395961,R GUARITA,,2100-608,BRANCA CCH,-8.57944739860286,38.82849561009692
pt.ine.add.PTCONT.4395980,R BELA VISTA,,2100-050,CORUCHE,-8.508312809336035,38.99926423106064
pt.ine.add.PTCONT.4395981,R JOAQUIM RIBEIRO,,2100-050,CORUCHE,-8.510511260306215,38.980674199637
pt.ine.add.PTCONT.4395982,R COMÉRCIO,,2100-052,CORUCHE,-8.490694609500764,38.90002665057546
pt.ine.add.PTCONT.4395983,R GAGO COUTINHO,19,2100-188,CORUCHE,-8.524116569191717,38.96158701420347
pt.ine.add.PTCONT.4395984,MTE TEXUGUEIRA,,2100-371,COUÇO,-8.368946869966708,39.03078684705583
pt.ine.add.PTCONT.4395985,R SALVATERRA DE MAGOS,74,2100-501,FAJARDA,-8.610151147434662,38.96148324439452
pt.ine.add.PTCONT.4395986,R CASCAVEL,24,2100-512,FAJARDA,-8.61168954416279,38.965494399278974
pt.ine.add.PTCONT.4395987,R S FRANCISCO,10,2100-623,ERRA,-8.448703909841095,38.99724280838571
pt.ine.add.PTCONT.4395996,R APEADEIRO,,2100-052,CORUCHE,-8.498643576989414,38.89454326518826
pt.ine.add.PTCONT.4395997,AV NSA SRA DO CASTELO,37,2100-100,CORUCHE,-8.532098507762322,38.95711016110255
pt.ine.add.PTCONT.4395998,R MINDURICO,85 A,2100-509,FAJARDA,-8.591664514451953,38.96808796077225
pt.ine.add.PTCONT.4395999,R MILAGRES,11,2100-518,FAJARDA,-8.607783445097965,38.96283505255941
pt.ine.add.PTCONT.4396000,R ESCOLA NOVA,,2100-607,BRANCA CCH,-8.584559956585153,38.8448163773178
pt.ine.add.PTCONT.4396003,ESTR LAMAROSA,,2100-039,CORUCHE,-8.517326780590151,38.984020851644026
pt.ine.add.PTCONT.4396004,R TIMOR,41,2100-166,CORUCHE,-8.52281448996196,38.96399644290132
pt.ine.add.PTCONT.4396005,AV CAP SALGUEIRO MAIA,,2100-042,CORUCHE,-8.533631122846842,38.95884341147067
pt.ine.add.PTCONT.4396006,R NOVA DO DESERTO,3,2100-342,COUÇO,-8.28022714045199,38.985371360927644
pt.ine.add.PTCONT.4396007,ESTR ALEMAES,,2100-607,BRANCA CCH,-8.591287404036498,38.841313120428126
pt.ine.add.PTCONT.4396008,R LUDGERIA,6,2100-651,BISCAÍNHO,-8.644777724893874,38.90084930768281
pt.ine.add.PTCONT.4396011,MTE REBOCHO,,2100-052,CORUCHE,-8.488106736618379,38.91277166233387
pt.ine.add.PTCONT.4396012,R ACUDE,,2100-052,CORUCHE,-8.487204254779497,38.90517177178962
pt.ine.add.PTCONT.4396013,R ACUDE,,2100-052,CORUCHE,-8.486473823459672,38.90433625342467
pt.ine.add.PTCONT.4396014,AV NSA SRA DO CASTELO,27,2100-100,CORUCHE,-8.532627268531376,38.956766056908386
pt.ine.add.PTCONT.4396015,R ALTO DOS PASSARINHOS,,2100-326,COUÇO,-8.28646861070726,38.978886735694246
pt.ine.add.PTCONT.4396016,R SOBREIRO,,2100-403,SÃO JOSÉ DA LAMAROSA,-8.436881089132035,39.05603131704353
pt.ine.add.PTCONT.4396017,R MINDURICO,57,2100-509,FAJARDA,-8.591350871159047,38.9641798317686
pt.ine.add.PTCONT.4396018,HRD SABUGUEIRO,,2100-651,BISCAÍNHO,-8.700168904510257,38.94875800361829
pt.ine.add.PTCONT.4396028,MTE AMOREIRA,,2100-016,CORUCHE,-8.42948474519969,38.98906013791229
pt.ine.add.PTCONT.4396029,AV NSA SRA DO CASTELO,9,2100-100,CORUCHE,-8.533421413642223,38.956430048135864
pt.ine.add.PTCONT.4396030,R APEADEIRO,,2100-040,CORUCHE,-8.499199612134271,38.89732495639913
pt.ine.add.PTCONT.4396031,EN 251,,2100-600,BRANCA CCH,-8.59292607306645,38.77732296526358
pt.ine.add.PTCONT.4396032,EN 114,64,2100-675,SANTANA DO MATO,-8.411661247252468,38.88225317258358
pt.ine.add.PTCONT.4396038,LG STO ANTONIO,510,2100-110,CORUCHE,-8.529213157984785,38.95690380273198
pt.ine.add.PTCONT.4396039,R S JOÃO,5,2100-163,CORUCHE,-8.532337844552174,38.95658689181475
pt.ine.add.PTCONT.4396040,R LAVADOUROS,,2100-376,COUÇO,-8.292121180225227,39.00368653817305
pt.ine.add.PTCONT.4396041,R BAIRRO ALTO,62,2100-376,COUÇO,-8.292846106106563,39.00263164229247
pt.ine.add.PTCONT.4396062,R ALEMOES,,2100-673,SANTANA DO MATO,-8.511012428173137,38.80323539736107
pt.ine.add.PTCONT.4396042,R CERRO DA ARRICA,,2100-606,BRANCA CCH,-8.57686901520001,38.773007130632024
pt.ine.add.PTCONT.4396043,R BO RREGO,5,2100-626,ERRA,-8.456007675788532,39.01939980573171
pt.ine.add.PTCONT.4396044,R PRINCIPAL,,2100-626,ERRA,-8.469535921321645,39.011083503465144
pt.ine.add.PTCONT.4396045,R MARIA FILIPA,4,2100-675,SANTANA DO MATO,-8.41356369313827,38.88247381690391
pt.ine.add.PTCONT.4396059,AZERVADA DE CIMA,,2100-016,CORUCHE,-8.48633763990248,38.96522050246436
pt.ine.add.PTCONT.4396060,R CERRO DA ARRICA,,2100-606,BRANCA CCH,-8.584328625968032,38.76983476067835
pt.ine.add.PTCONT.4396061,R RECTA,,2100-600,BRANCA CCH,-8.592046407164988,38.772939508713975
pt.ine.add.PTCONT.4396073,R AGOLADA DE CIMA,,2100-049,CORUCHE,-8.53644243849051,38.98666767031165
pt.ine.add.PTCONT.4396074,R AGOLADA DE CIMA,,2100-049,CORUCHE,-8.53644243849051,38.98666767031165
pt.ine.add.PTCONT.4396075,R FORMIGO,146,2100-039,CORUCHE,-8.518406485244997,38.97455015489722
pt.ine.add.PTCONT.4396076,R VALE MANSOS,,2100-049,CORUCHE,-8.52925741507973,38.98142276144274
pt.ine.add.PTCONT.4396077,AV NSA SRA DO CASTELO,21,2100-100,CORUCHE,-8.533301742619562,38.95566479772967
pt.ine.add.PTCONT.4396078,MTE ESTRADA DAS COURELINHAS,,2100-300,COUÇO,-8.296046378993681,38.978558483273126
pt.ine.add.PTCONT.4396079,R ESPIGA VERMELHA,7,2100-300,COUÇO,-8.292081552297484,38.98081589612215
pt.ine.add.PTCONT.4396080,MTE ALEGRE,,2100-405,SÃO JOSÉ DA LAMAROSA,-8.412903036194743,39.06920642017598
pt.ine.add.PTCONT.4396081,R CORUCHE,19,2100-502,FAJARDA,-8.586093238714303,38.95750759646817
pt.ine.add.PTCONT.4396082,R OLHOS DE AGUA,29,2100-651,BISCAÍNHO,-8.650082398759142,38.917012984919204
pt.ine.add.PTCONT.4396093,R CANTINHO,,2100-404,SÃO JOSÉ DA LAMAROSA,-8.46157330167772,39.06928666632549
pt.ine.add.PTCONT.4396094,R MONTE,,2100-515,FAJARDA,-8.607442037138233,38.987760817837355
pt.ine.add.PTCONT.4396100,PTO PIEDADE,,2100-119,CORUCHE,-8.532953475678399,38.955278657042
pt.ine.add.PTCONT.4406393,R MOINHO,,2100-672,SANTANA DO MATO,-8.436847899625237,38.85096888552967
pt.ine.add.PTCONT.4422689,,,2100-407,SÃO JOSÉ DA LAMAROSA,-8.478490526054134,39.064670929059716
pt.ine.add.PTCONT.4397240,,,2100-377,COUÇO,-8.242204329693914,38.966875080420245
pt.ine.add.PTCONT.4397245,R S DE OUTUBRO,,2100-673,SANTANA DO MATO,-8.453020041380986,38.82234340648118
pt.ine.add.PTCONT.4397270,R ESCOLA,189,2100-039,CORUCHE,-8.518422000681271,38.98380105465968
pt.ine.add.PTCONT.4397272,HRD COLMEEIRO,,2100-542,FAJARDA,-8.692245104209729,38.957695873268094
pt.ine.add.PTCONT.4397299,AV 25 DE ABRIL,63,2100-675,SANTANA DO MATO,-8.41624119171315,38.87761208977861
pt.ine.add.PTCONT.4397302,R BAIRRO ALTO,24,2100-376,COUÇO,-8.29364340957981,39.002963834400475
pt.ine.add.PTCONT.4397308,R ESCOLA,135,2100-049,CORUCHE,-8.525261110652036,38.9808417492565
pt.ine.add.PTCONT.4397326,R PRINCIPAL,,2100-672,SANTANA DO MATO,-8.44985919694414,38.85223147126774
pt.ine.add.PTCONT.4397353,,,2100-675,SANTANA DO MATO,-8.32320487560913,38.8677387259708
pt.ine.add.PTCONT.4422773,EN 114,,2100-108,CORUCHE,-8.528727754481332,38.95882410465473
pt.ine.add.PTCONT.4397454,R BOMBEIROS MUNICIPAIS,58,2100-181,CORUCHE,-8.522065487000736,38.96206227189136
pt.ine.add.PTCONT.4397471,R PRÍNCIPE,16,2100-174,CORUCHE,-8.520817729042982,38.963867976974484
pt.ine.add.PTCONT.4398029,R LUSIADAS,13,2100-186,CORUCHE,-8.52547063203846,38.958159517160894
pt.ine.add.PTCONT.4398030,R LUIS DE CAMÕES,,2100-407,SÃO JOSÉ DA LAMAROSA,-8.543595069752946,39.085934033305165
pt.ine.add.PTCONT.4398031,HRD GAMAS,,2100-501,FAJARDA,-8.603882041195357,38.943403099834924
pt.ine.add.PTCONT.4398032,R MOINHO,,2100-625,ERRA,-8.384143407974825,39.05641797709533
pt.ine.add.PTCONT.4398037,R PRINCIPAL,38,2100-016,CORUCHE,-8.480043579421647,38.96640138530813
pt.ine.add.PTCONT.4398038,R ENG ALEIXO PAIS,,2100-353,COUÇO,-8.28132402517168,38.98558615929632
pt.ine.add.PTCONT.4398039,R LUIS DE CAMÕES,25,2100-405,SÃO JOSÉ DA LAMAROSA,-8.463679068752546,39.06739812448846
pt.ine.add.PTCONT.4398040,EN 251,,2100-608,BRANCA CCH,-8.565652007929533,38.824818205256484
pt.ine.add.PTCONT.4398041,EM 115,75,2100-651,BISCAÍNHO,-8.643741370077095,38.91066336301652
pt.ine.add.PTCONT.4398047,R ERRA,14,2100-057,CORUCHE,-8.521693879260228,38.96162212914931
pt.ine.add.PTCONT.4398048,R ERRA,14,2100-057,CORUCHE,-8.521693879260228,38.96162212914931
pt.ine.add.PTCONT.4398049,R ERRA,14,2100-057,CORUCHE,-8.521693879260228,38.96162212914931
pt.ine.add.PTCONT.4398050,R ERRA,14,2100-057,CORUCHE,-8.521693879260228,38.96162212914931
pt.ine.add.PTCONT.4398051,R ERRA,14,2100-057,CORUCHE,-8.521693879260228,38.96162212914931
pt.ine.add.PTCONT.4398052,R ERRA,14,2100-057,CORUCHE,-8.521693879260228,38.96162212914931
pt.ine.add.PTCONT.4398053,R ERRA,14,2100-057,CORUCHE,-8.521693879260228,38.96162212914931
pt.ine.add.PTCONT.4398054,R BORRALHO,,2100-168,CORUCHE,-8.528582102150198,38.957527479121
pt.ine.add.PTCONT.4398055,R 25 ABRIL,45,2100-373,COUÇO,-8.299967735162504,38.98247132413685
pt.ine.add.PTCONT.4398056,R MINDURICO,36,2100-509,FAJARDA,-8.590890526865461,38.96256925141313
pt.ine.add.PTCONT.4398057,R MINDURICO,76,2100-509,FAJARDA,-8.590981145621898,38.965892754651584
pt.ine.add.PTCONT.4398070,R ESCOLA,40,2100-037,CORUCHE,-8.53167398786318,38.974001161464436
pt.ine.add.PTCONT.4398071,R ERRA,14,2100-057,CORUCHE,-8.521693879260228,38.96162212914931
pt.ine.add.PTCONT.4398072,R NASCENTE,25,2100-045,CORUCHE,-8.478891984068385,38.95024484128781
pt.ine.add.PTCONT.4398073,R ISIDRO FINO HENRIQUES,16,2100-373,COUÇO,-8.304160646259238,38.98394252759522
pt.ine.add.PTCONT.4398074,BR ROSADOS,3,2100-373,COUÇO,-8.299983670054736,38.97942667368933
pt.ine.add.PTCONT.4398075,R PADEIRO,32,2100-516,FAJARDA,-8.585103886795887,38.96158293791844
pt.ine.add.PTCONT.4398076,AV 25 DE ABRIL,125,2100-675,SANTANA DO MATO,-8.419147004346017,38.88092892937458
pt.ine.add.PTCONT.4398084,TV AGOLADAS,,2100-049,CORUCHE,-8.533401685431704,38.97752628348951
pt.ine.add.PTCONT.4398085,R PAUL,8,2100-039,CORUCHE,-8.526413592543976,38.968037861396944
pt.ine.add.PTCONT.4398086,R DIREITA,30,2100-167,CORUCHE,-8.528445357777821,38.956932173662146
pt.ine.add.PTCONT.4398098,R ANTÓNIO TELES,,2100-037,CORUCHE,-8.532514848961204,38.969620520017024
pt.ine.add.PTCONT.4398099,R ESCOLA,,2100-049,CORUCHE,-8.526634173768507,38.980792088170794
pt.ine.add.PTCONT.4398100,,,2100-407,SÃO JOSÉ DA LAMAROSA,-8.501365151125187,39.07745479128538
pt.ine.add.PTCONT.4398101,R S PEDRO,103,2100-651,BISCAÍNHO,-8.649683529827403,38.90493527413285
pt.ine.add.PTCONT.4398107,R JOAQUIM DO LEÃO,16,2100-042,CORUCHE,-8.531947378828898,38.96513659777988
pt.ine.add.PTCONT.4398108,R SACADURA CABRAL,,2100-197,CORUCHE,-8.525464398526418,38.961213172282086
pt.ine.add.PTCONT.4398109,TV 25 DE ABRIL,,2100-126,CORUCHE,-8.526076072132977,38.961247145389535
pt.ine.add.PTCONT.4398110,MTE VALE SOBREIRAS,,2100-371,COUÇO,-8.367087149375614,39.07618916938795
pt.ine.add.PTCONT.4398111,R NOVA,45,2100-525,FAJARDA,-8.608914713522326,38.966370488418164
pt.ine.add.PTCONT.4398112,EN 119,71,2100-651,BISCAÍNHO,-8.62164810908907,38.91187487191705
pt.ine.add.PTCONT.4398113,R NSA SRA FÁTIMA,,2100-651,BISCAÍNHO,-8.633979443533178,38.90949860313523
pt.ine.add.PTCONT.4398114,R MOINHO,,2100-672,SANTANA DO MATO,-8.434922119499557,38.85049645577054
pt.ine.add.PTCONT.4398132,R 25 DE ABRIL,,2100-126,CORUCHE,-8.525120365522712,38.96159265461483
pt.ine.add.PTCONT.4398133,R MUSICA,28,2100-045,CORUCHE,-8.484898654571754,38.95188432541834
pt.ine.add.PTCONT.4398134,,,2100-407,SÃO JOSÉ DA LAMAROSA,-8.498871214009808,39.059978873217
pt.ine.add.PTCONT.4398141,R ACUDE AGOLADA,,2100-037,CORUCHE,-8.537817596382183,38.9646660006419
pt.ine.add.PTCONT.4398142,MTE GRAVINHA,,2100-651,BISCAÍNHO,-8.574454217757703,38.92428643133933
pt.ine.add.PTCONT.4398143,EN 114,132,2100-675,SANTANA DO MATO,-8.415530579427813,38.88732433868946
pt.ine.add.PTCONT.4398171,ESTR LAMAROSA,112,2100-018,CORUCHE,-8.522603174073948,38.96965402165175
pt.ine.add.PTCONT.4398154,TV COURELAS,,2100-027,CORUCHE,-8.539801582541603,38.964569026117964
pt.ine.add.PTCONT.4398155,ESTR LAMAROSA,,2100-039,CORUCHE,-8.518972259458138,38.97461133974751
pt.ine.add.PTCONT.4398156,ESTR LAMAROSA,112,2100-018,CORUCHE,-8.522603174073948,38.96965402165175
pt.ine.add.PTCONT.4398157,R POVO UNIDO,13,2100-373,COUÇO,-8.295015424562937,38.98192882633105
pt.ine.add.PTCONT.4398158,R POVO UNIDO,13,2100-373,COUÇO,-8.295015424562937,38.98192882633105
pt.ine.add.PTCONT.4398159,,,2100-407,SÃO JOSÉ DA LAMAROSA,-8.523319441446942,39.060151848077524
pt.ine.add.PTCONT.4398160,,,2100-407,SÃO JOSÉ DA LAMAROSA,-8.523319441446942,39.060151848077524
pt.ine.add.PTCONT.4398161,R FELICIDADE PASCOA,,2100-519,FAJARDA,-8.600894932295125,38.966267794020126
pt.ine.add.PTCONT.4398162,EN 251,,2100-600,BRANCA CCH,-8.592829445311287,38.77840430938546
pt.ine.add.PTCONT.4398163,TV SOL,,2100-600,BRANCA CCH,-8.589455722105829,38.7763006437691
pt.ine.add.PTCONT.4398164,R FIGUEIRA,,2100-673,SANTANA DO MATO,-8.475145459366948,38.83061311326527
pt.ine.add.PTCONT.4398169,MTE AMOREIRA,,2100-016,CORUCHE,-8.4280695784995,38.99014465305111
pt.ine.add.PTCONT.4398170,ESTR LAMAROSA,112,2100-018,CORUCHE,-8.522603174073948,38.96965402165175
pt.ine.add.PTCONT.4398172,ESTR LAMAROSA,118,2100-018,CORUCHE,-8.522603174073948,38.96965402165175
pt.ine.add.PTCONT.4398173,ESTR LAMAROSA,112,2100-018,CORUCHE,-8.522603174073948,38.96965402165175
pt.ine.add.PTCONT.4398174,ESTR LAMAROSA,112,2100-018,CORUCHE,-8.522603174073948,38.96965402165175
pt.ine.add.PTCONT.4398175,AV LIBERDADE,,2100-054,CORUCHE,-8.515418016313527,38.84564865605287
pt.ine.add.PTCONT.4398176,AV LIBERDADE,,2100-054,CORUCHE,-8.516209127095069,38.84496145999714
pt.ine.add.PTCONT.4398177,AV LIBERDADE,,2100-675,SANTANA DO MATO,-8.421475130151139,38.88382375073213
pt.ine.add.PTCONT.4398178,R ALEMAES,,2100-673,SANTANA DO MATO,-8.454626022296928,38.82866260821813
pt.ine.add.PTCONT.4398181,R BENTO DE JESUS CARASA,,2100-042,CORUCHE,-8.528092907738102,38.962924789332774
pt.ine.add.PTCONT.4398182,R MOÇAMBIQUE,,2100-148,CORUCHE,-8.523723446489454,38.963534008163386
pt.ine.add.PTCONT.4398183,R MANUEL BENTO FERREIRA CANUTO,,2100-053,CORUCHE,-8.54169274853834,38.89201347871408
pt.ine.add.PTCONT.4398184,MTE RAIVOSO,,2100-370,COUÇO,-8.247823091746215,38.96659045091708
pt.ine.add.PTCONT.4398199,FOROS DO PINHEIRO,,2100-016,CORUCHE,-8.460932129571558,38.96553784160898
pt.ine.add.PTCONT.4398200,R JOÃO COMPADRE,,2100-039,CORUCHE,-8.514519830581044,38.97711211544179
pt.ine.add.PTCONT.4398201,R BREJOEIRA,10,2100-039,CORUCHE,-8.523004875434703,38.97767858499449
pt.ine.add.PTCONT.4398202,R ESCOLA,100,2100-049,CORUCHE,-8.529988893204207,38.97807840491408
pt.ine.add.PTCONT.4398203,R SANTO ISIDRO,25,2100-158,CORUCHE,-8.533301301394793,38.95763750158871
pt.ine.add.PTCONT.4398204,R RITA QUERIOL ROQUETE,38,2100-524,FAJARDA,-8.601430566272468,38.97927280976388
pt.ine.add.PTCONT.4398205,MTE COURELINHA,,2100-651,BISCAÍNHO,-8.591341606643846,38.92511313820984
pt.ine.add.PTCONT.4398206,AV LIBERDADE,,2100-675,SANTANA DO MATO,-8.416463502561149,38.88135884346705
pt.ine.add.PTCONT.4398207,AV LIBERDADE,,2100-675,SANTANA DO MATO,-8.4183669474202,38.88183162868832
pt.ine.add.PTCONT.4398218,R COMBATENTES,,2100-050,CORUCHE,-8.509687425675219,38.986369751069965
pt.ine.add.PTCONT.4398219,AZ SANTO ANDRÉ,,2100-055,CORUCHE,-8.514987701017581,38.967535343548576
pt.ine.add.PTCONT.4398220,R BENGUELA,,2100-376,COUÇO,-8.292656968145678,39.00065920540924
pt.ine.add.PTCONT.4398244,R GUERREIROS,62,2100-183,CORUCHE,-8.524135981486886,38.958821563804044
pt.ine.add.PTCONT.4398221,R RITA QUERIOL ROQUETE,82,2100-524,FAJARDA,-8.601715046927705,38.98216314549952
pt.ine.add.PTCONT.4398222,R CORUCHE,23,2100-502,FAJARDA,-8.586311515443276,38.95736262493126
pt.ine.add.PTCONT.4398232,R CORUCHE,,2100-040,CORUCHE,-8.493812175246422,38.91242989197809
pt.ine.add.PTCONT.4398233,TV GUERREIROS,27,2100-218,CORUCHE,-8.525136860062807,38.958304763134386
pt.ine.add.PTCONT.4398234,HRD REBOLO,,2100-540,FAJARDA,-8.642438518536775,38.950969880044745
pt.ine.add.PTCONT.4398240,R VALE MANSOS,,2100-049,CORUCHE,-8.534493503750047,38.97877460897892
pt.ine.add.PTCONT.4398241,R SOCIEDADE RECREATIVA,14,2100-018,CORUCHE,-8.523105934261869,38.968751566953856
pt.ine.add.PTCONT.4398242,R OLIVENCA,8,2100-151,CORUCHE,-8.524098843562962,38.96046110250752
pt.ine.add.PTCONT.4398243,R CAMPINOS DO SORRAIA,20,2100-182,CORUCHE,-8.53194737086011,38.95690349890185
pt.ine.add.PTCONT.4408012,R REBOCHO,,2100-052,CORUCHE,-8.495154705942225,38.90889465824624
pt.ine.add.PTCONT.4408013,R VINHA,,2100-052,CORUCHE,-8.488033260522588,38.90033203046444
pt.ine.add.PTCONT.4399300,R ESCOLA,5,2100-037,CORUCHE,-8.53180652479488,38.97088402746892
pt.ine.add.PTCONT.4399308,R ESCOLA,,2100-505,FAJARDA,-8.60432049657628,38.97826131867869
pt.ine.add.PTCONT.4399315,R S JOÃO,,2100-607,BRANCA CCH,-8.602043372617453,38.867339336968485
pt.ine.add.PTCONT.4399360,ESTR LAMAROSA,112,2100-018,CORUCHE,-8.522603174073948,38.96965402165175
pt.ine.add.PTCONT.4399386,R LIBERDADE,21,2100-373,COUÇO,-8.298548158975192,38.98245532984044
pt.ine.add.PTCONT.4399410,R GAGO COUTINHO,2,2100-335,COUÇO,-8.28758442022289,38.98784799665857
pt.ine.add.PTCONT.4399421,R PRINCIPAL,101,2100-016,CORUCHE,-8.476370513797164,38.96798860634918
pt.ine.add.PTCONT.4399436,R SALGUEIRINHA,,2100-053,CORUCHE,-8.531386368652015,38.88754514882843
pt.ine.add.PTCONT.4399445,R CORUCHE,5,2100-040,CORUCHE,-8.495197702163823,38.89920206454762
pt.ine.add.PTCONT.4399464,R CERAMICA,,2100-607,BRANCA CCH,-8.59165521891767,38.85016647154886
pt.ine.add.PTCONT.4399519,R PRÍNCIPE,1,2100-174,CORUCHE,-8.52025891923074,38.962951039948265
pt.ine.add.PTCONT.4424841,,,2100-377,COUÇO,-8.24083331711711,38.96823653172832
pt.ine.add.PTCONT.4400030,R SPORTING CLUBE SANTANENSE,28,2100-675,SANTANA DO MATO,-8.411171079274077,38.87772335917839
pt.ine.add.PTCONT.4400031,R SOCIEDADE RECREATIVA,33,2100-018,CORUCHE,-8.523735504516212,38.967830670066036
pt.ine.add.PTCONT.4400032,HRD CASCAVEL,,2100-540,FAJARDA,-8.622026410525264,38.961947541057576
pt.ine.add.PTCONT.4400033,R LAGAR,,2100-608,BRANCA CCH,-8.567235742544245,38.83530660393932
pt.ine.add.PTCONT.4400034,TV LAGAR,,2100-608,BRANCA CCH,-8.567028056527322,38.83524431991693
pt.ine.add.PTCONT.4400035,R CABECO MOINHO VENTO,,2100-625,ERRA,-8.383869356299785,39.057328338965746
pt.ine.add.PTCONT.4400036,R MANUEL MARCAL,,2100-623,ERRA,-8.44961546151408,38.99715926966519
pt.ine.add.PTCONT.4400039,R PRINCIPAL,52,2100-016,CORUCHE,-8.477169314007428,38.9661486691254
pt.ine.add.PTCONT.4400040,R SORRAIA,,2100-045,CORUCHE,-8.495266748366447,38.95587909517628
pt.ine.add.PTCONT.4400041,R POVO UNIDO,174,2100-373,COUÇO,-8.310740234047614,38.984383085690766
pt.ine.add.PTCONT.4400042,R TIMOR,,2100-325,COUÇO,-8.281725583822553,38.98444166182407
pt.ine.add.PTCONT.4400043,R NOVA DO DESERTO,8,2100-342,COUÇO,-8.280653256421319,38.98492944221118
pt.ine.add.PTCONT.4400044,R LUIS DE CAMÕES,,2100-407,SÃO JOSÉ DA LAMAROSA,-8.543165876922433,39.085665316290196
pt.ine.add.PTCONT.4400045,EM 515,95,2100-651,BISCAÍNHO,-8.646898104707809,38.91194663870303
pt.ine.add.PTCONT.4400054,R CENTRO SOCIAL,,2100-016,CORUCHE,-8.47605635586953,38.96505299681768
pt.ine.add.PTCONT.4400055,R JOAQUIM DO LEÃO,11,2100-042,CORUCHE,-8.532593500303582,38.965134387865106
pt.ine.add.PTCONT.4400056,ESTR RETIRO,2,2100-627,ERRA,-8.448226889395169,39.00160383654939
pt.ine.add.PTCONT.4400057,R POÇO,,2100-651,BISCAÍNHO,-8.643928849377279,38.90625771989952
pt.ine.add.PTCONT.4400058,R POÇO,,2100-651,BISCAÍNHO,-8.643693296418443,38.90878093970274
pt.ine.add.PTCONT.4400065,R FLORES,15,2100-045,CORUCHE,-8.492209138566857,38.95579846500872
pt.ine.add.PTCONT.4400066,R COMÉRCIO,45,2100-330,COUÇO,-8.2873194667876,38.98808254899322
pt.ine.add.PTCONT.4400067,,,2100-407,SÃO JOSÉ DA LAMAROSA,-8.476126417140918,39.065605691299915
pt.ine.add.PTCONT.4400068,R RITA QUERIOL ROQUETE,,2100-524,FAJARDA,-8.602831384223558,38.98169025584091
pt.ine.add.PTCONT.4400069,R ESCOLA,,2100-505,FAJARDA,-8.604332693196403,38.9783603543691
pt.ine.add.PTCONT.4400083,R COMBATENTES,,2100-050,CORUCHE,-8.507315062141878,38.98297245902852
pt.ine.add.PTCONT.4400084,R PROF BENTO DE JESUS CARAÇA,34,2100-344,COUÇO,-8.283686395482693,38.983871658486024
pt.ine.add.PTCONT.4400085,R MONTE VELHO DA BREJOEIRA,,2100-672,SANTANA DO MATO,-8.449881699678516,38.865094751132425
pt.ine.add.PTCONT.4400103,R ESCOLA,143,2100-049,CORUCHE,-8.525024323160054,38.98185141132307
pt.ine.add.PTCONT.4400104,R FONTE,13,2100-405,SÃO JOSÉ DA LAMAROSA,-8.467395400855473,39.0664867690981
pt.ine.add.PTCONT.4400105,R FONTE,9,2100-405,SÃO JOSÉ DA LAMAROSA,-8.467015080099843,39.06669503387126
pt.ine.add.PTCONT.4400106,R CEMITÉRIO,19,2100-513,FAJARDA,-8.605573233474397,38.974013614854215
pt.ine.add.PTCONT.4400107,R GUARITA,,2100-608,BRANCA CCH,-8.58379048607829,38.83056878178911
pt.ine.add.PTCONT.4400108,PC PELOURINHO,,2100-623,ERRA,-8.448013473660195,38.99773109117658
pt.ine.add.PTCONT.4400121,R COMBATENTES,,2100-050,CORUCHE,-8.507579504331812,38.98278244818912
pt.ine.add.PTCONT.4400122,R JOAQUIM RIBEIRO,,2100-050,CORUCHE,-8.512442790324329,38.98146962560021
pt.ine.add.PTCONT.4400123,R PINHEIRINHOS,,2100-052,CORUCHE,-8.50160572848091,38.88558011892908
pt.ine.add.PTCONT.4400124,TV SARDINHEIRA,10,2100-527,FAJARDA,-8.610962703065045,38.96893833328261
pt.ine.add.PTCONT.4400125,R ESCOLA NOVA,,2100-607,BRANCA CCH,-8.589946348109134,38.85134419757583
pt.ine.add.PTCONT.4400126,R MANOCAS,17,2100-651,BISCAÍNHO,-8.64544086042677,38.90329652878721
pt.ine.add.PTCONT.4400127,R MANOCAS,15,2100-651,BISCAÍNHO,-8.64544086042677,38.90329652878721
pt.ine.add.PTCONT.4400128,R MANOCAS,13,2100-651,BISCAÍNHO,-8.64544086042677,38.90329652878721
pt.ine.add.PTCONT.4400168,ESTR LAMAROSA,,2100-054,CORUCHE,-8.517192091289369,38.98258906505246
pt.ine.add.PTCONT.4400134,R DAMÃO,32,2100-142,CORUCHE,-8.521477295545186,38.96421708677777
pt.ine.add.PTCONT.4400135,R SANTO ISIDRO,24,2100-158,CORUCHE,-8.533302517364644,38.957853683937245
pt.ine.add.PTCONT.4400136,,,2100-407,SÃO JOSÉ DA LAMAROSA,-8.545375621905562,39.06420144916673
pt.ine.add.PTCONT.4400137,EN 119,54,2100-651,BISCAÍNHO,-8.628493294992783,38.90642331895344
pt.ine.add.PTCONT.4400143,TV PINHAL,8,2100-039,CORUCHE,-8.51793684264222,38.98372158605888
pt.ine.add.PTCONT.4400144,AV NSA SRA DO CASTELO,53,2100-100,CORUCHE,-8.530592297792753,38.95802508553709
pt.ine.add.PTCONT.4400145,R 13 DE JUNHO,34,2100-124,CORUCHE,-8.533725013477289,38.95707756607469
pt.ine.add.PTCONT.4400146,,,2100-407,SÃO JOSÉ DA LAMAROSA,-8.520033993854604,39.095346439655756
pt.ine.add.PTCONT.4400147,EN 251,,2100-608,BRANCA CCH,-8.565714830284263,38.82378205620635
pt.ine.add.PTCONT.4400153,MTE REBOCHO,,2100-052,CORUCHE,-8.48878713452659,38.91511163219851
pt.ine.add.PTCONT.4400154,R ACUDE,,2100-052,CORUCHE,-8.486925386431128,38.90473123190584
pt.ine.add.PTCONT.4400155,R DIU,35 37,2100-145,CORUCHE,-8.5224178695175,38.963205083306036
pt.ine.add.PTCONT.4400169,HRD HERDADE FORNO VIDRO NOVO,,2100-036,CORUCHE,-8.514024612796153,38.86515538455823
pt.ine.add.PTCONT.4400170,R RITA QUERIOL ROQUETE,106 B,2100-524,FAJARDA,-8.603479244792277,38.9854168398016
pt.ine.add.PTCONT.4400174,R PRINCIPAL,,2100-607,BRANCA CCH,-8.568464045803728,38.83653612194069
pt.ine.add.PTCONT.4400186,R COIMBRAS,37,2100-049,CORUCHE,-8.526462808190812,38.9852785175832
pt.ine.add.PTCONT.4400187,R SALVATERRA,25,2100-501,FAJARDA,-8.602191814559323,38.9599661740464
pt.ine.add.PTCONT.4400195,R PRINCIPAL,61,2100-016,CORUCHE,-8.479550641457315,38.96706041682851
pt.ine.add.PTCONT.4400196,ESTR LAMAROSA,74,2100-018,CORUCHE,-8.523290797071166,38.968795987810616
pt.ine.add.PTCONT.4400197,TV ALBERTOS,18,2100-530,FAJARDA,-8.589598006954283,38.96791590758777
pt.ine.add.PTCONT.4400198,R GRANZINHO,,2100-606,BRANCA CCH,-8.573125655044201,38.774300426547654
pt.ine.add.PTCONT.4400199,R ZIMBRO,,2100-606,BRANCA CCH,-8.566143466928361,38.772849186177446
pt.ine.add.PTCONT.4400211,EN 251,,2100-016,CORUCHE,-8.488747415272783,38.96257390678525
pt.ine.add.PTCONT.4400212,R ESCOLA,20,2100-016,CORUCHE,-8.47325845700212,38.96869131662023
pt.ine.add.PTCONT.4400213,R ESCOLA,,2100-040,CORUCHE,-8.494129781248677,38.909123028370765
pt.ine.add.PTCONT.4400214,R VINHA DO ALTO,10,2100-043,CORUCHE,-8.524452110562983,38.96595465525381
pt.ine.add.PTCONT.4400215,R SALVATERRA DE MAGOS,22,2100-198,CORUCHE,-8.533173677968078,38.955458057952725
pt.ine.add.PTCONT.4400224,R VASCONCELOS PORTO,21,2100-201,CORUCHE,-8.530321572110621,38.957062175572275
pt.ine.add.PTCONT.4400225,R VASCONCELOS PORTO,21,2100-201,CORUCHE,-8.530321572110621,38.957062175572275
pt.ine.add.PTCONT.4400226,R VASCONCELOS PORTO,21,2100-201,CORUCHE,-8.530321572110621,38.957062175572275
pt.ine.add.PTCONT.4400227,R VASCONCELOS PORTO,21,2100-201,CORUCHE,-8.530321572110621,38.957062175572275
pt.ine.add.PTCONT.4400228,R VASCONCELOS PORTO,21,2100-201,CORUCHE,-8.530321572110621,38.957062175572275
pt.ine.add.PTCONT.4400229,R CABINE,12,2100-374,COUÇO,-8.298291816840162,38.991337349385134
pt.ine.add.PTCONT.4412531,R CORUCHE,,2100-052,CORUCHE,-8.491202367499199,38.9024301951903
pt.ine.add.PTCONT.4412532,R CORUCHE,,2100-052,CORUCHE,-8.48926132717014,38.90386838272878
pt.ine.add.PTCONT.4401291,R GRAÇA,61,2100-153,CORUCHE,-8.535681778564895,38.958322913183345
pt.ine.add.PTCONT.4401337,R CORUCHE,24,2100-052,CORUCHE,-8.49395376836991,38.901683079343655
pt.ine.add.PTCONT.4401342,R VASCONCELOS PORTO,21,2100-201,CORUCHE,-8.530321572110621,38.957062175572275
pt.ine.add.PTCONT.4401346,R ALTO DO MARAU,111,2100-039,CORUCHE,-8.523486371128657,38.97919928362351
pt.ine.add.PTCONT.4401370,R 25 ABRIL,44,2100-373,COUÇO,-8.299869554578203,38.9799763111628
pt.ine.add.PTCONT.4401371,ESTR CANEIRINHA,,2100-407,SÃO JOSÉ DA LAMAROSA,-8.556183821384273,39.08439377956781
pt.ine.add.PTCONT.4401374,AV LIBERDADE,90,2100-675,SANTANA DO MATO,-8.416154486316714,38.88190006760899
pt.ine.add.PTCONT.4415720,R CORUCHE,,2100-052,CORUCHE,-8.491244451273687,38.90162836597443
pt.ine.add.PTCONT.4401430,R JOAQUIM INÁCIO DE ALMEIDA ROSADO,22,2100-190,CORUCHE,-8.521562661766215,38.96294670776261
pt.ine.add.PTCONT.4401443,R SANTO ANTÓNIO,67,2100-510,FAJARDA,-8.60752372130152,38.9809776787757
pt.ine.add.PTCONT.4401444,EN 114,,2100-042,CORUCHE,-8.530949479291566,38.96206835662556
pt.ine.add.PTCONT.4401445,EN 114,,2100-042,CORUCHE,-8.530949479291566,38.96206835662556
pt.ine.add.PTCONT.4401446,EN 114,,2100-042,CORUCHE,-8.530949479291566,38.96206835662556
pt.ine.add.PTCONT.4401447,EN 114,,2100-042,CORUCHE,-8.530949479291566,38.96206835662556
pt.ine.add.PTCONT.4401503,R DAMÃO,5,2100-142,CORUCHE,-8.523123291860044,38.96349998427749
pt.ine.add.PTCONT.4401504,R PRÍNCIPE,12,2100-174,CORUCHE,-8.520597335235184,38.963652522573334
pt.ine.add.PTCONT.4401533,R REBOCHO,,2100-052,CORUCHE,-8.494554293493097,38.90871636143879
pt.ine.add.PTCONT.4401987,R OLHOS AGUA,,2100-651,BISCAÍNHO,-8.650868329866851,38.91727072825446
pt.ine.add.PTCONT.4401988,R BAIXA,45,2100-651,BISCAÍNHO,-8.658585220359747,38.9130025813701
pt.ine.add.PTCONT.4401994,R BARBOSA DU BOCAGE,,2100-128,CORUCHE,-8.524284431652116,38.96273944584678
pt.ine.add.PTCONT.4401995,R PADEIRO,45,2100-516,FAJARDA,-8.586365921045571,38.96228064801084
pt.ine.add.PTCONT.4401996,TV LAGAR,,2100-608,BRANCA CCH,-8.566225099354686,38.83577876890964
pt.ine.add.PTCONT.4401997,R BARRANCOSAS,,2100-625,ERRA,-8.388900355760102,39.05882168983587
pt.ine.add.PTCONT.4401998,R COMISSAO MORADORES,8,2100-675,SANTANA DO MATO,-8.41203403216296,38.87737900031469
pt.ine.add.PTCONT.4402004,R GUERREIROS,24,2100-183,CORUCHE,-8.525089621134592,38.958106750798684
pt.ine.add.PTCONT.4402005,R CABO VERDE,20,2100-321,COUÇO,-8.28540297967776,38.98783284864381
pt.ine.add.PTCONT.4402006,R CABO VERDE,20,2100-321,COUÇO,-8.28540297967776,38.98783284864381
pt.ine.add.PTCONT.4402007,R ALM REIS,,2100-313,COUÇO,-8.282548081078913,38.98589986999617
pt.ine.add.PTCONT.4402008,HRD PARREIRA,,2100-500,FAJARDA,-8.591646391337237,38.943794103800094
pt.ine.add.PTCONT.4402009,RETIRO DA ERRA,,2100-627,ERRA,-8.441288996249888,39.00162236843191
pt.ine.add.PTCONT.4402013,R JOÃO CARAÇAS,,2100-037,CORUCHE,-8.53096781947306,38.97153544794648
pt.ine.add.PTCONT.4402014,R NASCENTE,19,2100-045,CORUCHE,-8.479294413437952,38.949973414520684
pt.ine.add.PTCONT.4402015,TV DESERTO,,2100-347,COUÇO,-8.280905798596171,38.98427155539005
pt.ine.add.PTCONT.4402016,R VASCO DA GAMA,,2100-407,SÃO JOSÉ DA LAMAROSA,-8.549088588994628,39.08260878518342
pt.ine.add.PTCONT.4402017,R ARCO,44,2100-652,BISCAÍNHO,-8.578690449344583,38.924954932602596
pt.ine.add.PTCONT.4402033,R S TORCATO,,2100-604,BRANCA CCH,-8.548853907886297,38.82927508064355
pt.ine.add.PTCONT.4402034,EM 515,,2100-651,BISCAÍNHO,-8.637638940492195,38.90854603313462
pt.ine.add.PTCONT.4402041,R SORRAIA,48,2100-045,CORUCHE,-8.493608605294847,38.95649675781943
pt.ine.add.PTCONT.4402042,R DR MIGUEL BOMBARDA,34,2100-333,COUÇO,-8.286589860026224,38.98693952476423
pt.ine.add.PTCONT.4402044,R FIGUEIRA,,2100-604,BRANCA CCH,-8.553252290872317,38.82522377544702
pt.ine.add.PTCONT.4402045,R PELOURINHO,5,2100-623,ERRA,-8.448569390913342,38.998143944916194
pt.ine.add.PTCONT.4402046,PC PELOURINHO,23,2100-623,ERRA,-8.44771462472888,38.99802014464612
pt.ine.add.PTCONT.4402054,R VALE MANSOS,,2100-049,CORUCHE,-8.527240518653583,38.981916008853716
pt.ine.add.PTCONT.4402055,R POVO UNIDO,61,2100-373,COUÇO,-8.299235309902803,38.98018439464681
pt.ine.add.PTCONT.4402056,R ALM REIS,50,2100-313,COUÇO,-8.287316066136999,38.98651520229065
pt.ine.add.PTCONT.4402057,LG S JOSE,11,2100-405,SÃO JOSÉ DA LAMAROSA,-8.466646014883445,39.0668402118872
pt.ine.add.PTCONT.4402058,R S JOSE,11,2100-651,BISCAÍNHO,-8.651738047193266,38.90210671732913
pt.ine.add.PTCONT.4402072,R BELA VISTA,,2100-050,CORUCHE,-8.506010210376477,38.98943518137338
pt.ine.add.PTCONT.4402073,MTE TRIGO,,2100-371,COUÇO,-8.358515894839805,39.0845380951695
pt.ine.add.PTCONT.4402074,R PADRE JOÃO,1S,2100-343,COUÇO,-8.288311766466265,38.98265855679332
pt.ine.add.PTCONT.4402075,R ESCOLA NOVA,,2100-607,BRANCA CCH,-8.595253739061944,38.85441303436457
pt.ine.add.PTCONT.4402076,R CANAS,,2100-608,BRANCA CCH,-8.570621053066949,38.827664234704265
pt.ine.add.PTCONT.4402077,TV JOSE MAXIMIANO,,2100-651,BISCAÍNHO,-8.625310074021222,38.9112379514623
pt.ine.add.PTCONT.4402078,R S JOÃO DE DEUS,,2100-651,BISCAÍNHO,-8.650552918790918,38.904003618670224
pt.ine.add.PTCONT.4402090,R BELA VISTA,,2100-050,CORUCHE,-8.503601501698627,38.98347973443696
pt.ine.add.PTCONT.4402091,R S TOME,16,2100-165,CORUCHE,-8.521406397247073,38.963911058693895
pt.ine.add.PTCONT.4402092,R SALGUEIRINHA,3,2100-053,CORUCHE,-8.532334570945547,38.888100399432
pt.ine.add.PTCONT.4402093,R MARIA LAMAS,3,2100-340,COUÇO,-8.285831271511496,38.98304015602104
pt.ine.add.PTCONT.4402094,,,2100-407,SÃO JOSÉ DA LAMAROSA,-8.507956093250648,39.06069765928931
pt.ine.add.PTCONT.4402095,R ESCOLA NOVA,,2100-607,BRANCA CCH,-8.593626299306843,38.853933034915876
pt.ine.add.PTCONT.4402102,EN 114,,2100-051,CORUCHE,-8.493326302538037,38.94858879120451
pt.ine.add.PTCONT.4402103,R QUINTA NOVA,16,2100-027,CORUCHE,-8.535770269959968,38.96172754402722
pt.ine.add.PTCONT.4402104,R GUINE,29,2100-133,CORUCHE,-8.522084215414216,38.96337734338053
pt.ine.add.PTCONT.4402105,R CORUCHE,,2100-053,CORUCHE,-8.535114937101904,38.88653249742443
pt.ine.add.PTCONT.4402106,,,2100-407,SÃO JOSÉ DA LAMAROSA,-8.500306210096792,39.04035573173228
pt.ine.add.PTCONT.4402107,,,2100-625,ERRA,-8.416846994767855,39.05569444902831
pt.ine.add.PTCONT.4402108,EN 119,33,2100-651,BISCAÍNHO,-8.632583770137542,38.904469208935915
pt.ine.add.PTCONT.4402109,R FAVAQUEIRA,,2100-673,SANTANA DO MATO,-8.462061912186822,38.84041533232742
pt.ine.add.PTCONT.4402122,R PINHAL,19,2100-039,CORUCHE,-8.5187624131523,38.98272800956524
pt.ine.add.PTCONT.4402123,R JERONIMO A TANGANHO,30,2100-039,CORUCHE,-8.520122115945798,38.97597670964612
pt.ine.add.PTCONT.4402124,,,2100-407,SÃO JOSÉ DA LAMAROSA,-8.495013743746403,39.04893854429639
pt.ine.add.PTCONT.4402125,R MINDURICO,65,2100-509,FAJARDA,-8.591321480444938,38.964990644361166
pt.ine.add.PTCONT.4402126,HRD FETAL,,2100-651,BISCAÍNHO,-8.602488954808697,38.92805043176705
pt.ine.add.PTCONT.4402136,R ANTÓNIO PARDAL,,2100-039,CORUCHE,-8.514942205079302,38.98055169208855
pt.ine.add.PTCONT.4402137,R NSA SRA DO CASTELO,10,2100-150,CORUCHE,-8.52684030245965,38.96382979839953
pt.ine.add.PTCONT.4402138,TV HOSPITAL,19,2100-211,CORUCHE,-8.526086956186113,38.95904020520089
pt.ine.add.PTCONT.4402139,TV HOSPITAL,19,2100-211,CORUCHE,-8.526086956186113,38.95904020520089
pt.ine.add.PTCONT.4402140,R DR ANTÓNIO HENRIQUES SILVA,67,2100-045,CORUCHE,-8.485008489387587,38.950767028105176
pt.ine.add.PTCONT.4402141,,,2100-407,SÃO JOSÉ DA LAMAROSA,-8.469814146040692,39.08431486588811
pt.ine.add.PTCONT.4402142,EN 251,,2100-600,BRANCA CCH,-8.593026921210022,38.77689919082168
pt.ine.add.PTCONT.4402162,R AGOLADA DE CIMA,,2100-049,CORUCHE,-8.5341424989157,38.98815286456643
pt.ine.add.PTCONT.4402163,R ESCOLA,,2100-049,CORUCHE,-8.524530293520865,38.98015961482483
pt.ine.add.PTCONT.4402165,R PRINCIPAL,5,2100-016,CORUCHE,-8.482580159030697,38.966024498495074
pt.ine.add.PTCONT.4402166,R JOÃO COMPADRE,,2100-039,CORUCHE,-8.514267450812781,38.977392180183635
pt.ine.add.PTCONT.4402167,R ESCOLA,70,2100-049,CORUCHE,-8.531233889714507,38.975777189634734
pt.ine.add.PTCONT.4402168,R CERRO DA ARRICA,,2100-606,BRANCA CCH,-8.576292058635241,38.772748086591044
pt.ine.add.PTCONT.4402178,R MOÇAMBIQUE,10,2100-148,CORUCHE,-8.522528117060803,38.96226790778756
pt.ine.add.PTCONT.4402179,R SANTARÉM,66,2100-228,CORUCHE,-8.5241509839972,38.95945205754651
pt.ine.add.PTCONT.4402180,MTE COURELAS,,2100-371,COUÇO,-8.345123264851129,39.00038650125491
pt.ine.add.PTCONT.4402181,R ENG ALEIXO PAIS,38,2100-353,COUÇO,-8.283177731168836,38.98893467895579
pt.ine.add.PTCONT.4402182,R ENG ALEIXO PAIS,40,2100-353,COUÇO,-8.283142857999874,38.98881762287635
pt.ine.add.PTCONT.4402183,R DR MIGUEL BOMBARDA,69,2100-333,COUÇO,-8.286079971931274,38.98598537102486
pt.ine.add.PTCONT.4402184,R PELADOS,,2100-606,BRANCA CCH,-8.56507343317182,38.77096145553554
pt.ine.add.PTCONT.4402185,ESTR LAMAROSA,,2100-621,ERRA,-8.485519085351157,39.01655803560409
pt.ine.add.PTCONT.4402186,ESTR LAMAROSA,,2100-621,ERRA,-8.485519085351157,39.01655803560409
pt.ine.add.PTCONT.4402187,EN 114,,2100-675,SANTANA DO MATO,-8.41147470950482,38.881704134723186
pt.ine.add.PTCONT.4402193,R VALE MANSOS,,2100-049,CORUCHE,-8.52862629421851,38.98207345927547
pt.ine.add.PTCONT.4402194,,,2100-300,COUÇO,-8.194161043627647,38.84899676902587
pt.ine.add.PTCONT.4426980,R FORMIGO,,2100-039,CORUCHE,-8.517782878481324,38.97659697091425
pt.ine.add.PTCONT.4403315,R BAIRRO NOVO,18,2100-373,COUÇO,-8.305396424135422,38.98430102031145
pt.ine.add.PTCONT.4403345,R SACADURA CABRAL,93,2100-345,COUÇO,-8.287462859625368,38.98501971874094
pt.ine.add.PTCONT.4403348,R TIMOR,4,2100-166,CORUCHE,-8.521515085309764,38.96268564088202
pt.ine.add.PTCONT.4403360,R FONTE,6,2100-405,SÃO JOSÉ DA LAMAROSA,-8.467050422627947,39.066839054551735
pt.ine.add.PTCONT.4403361,R RECTA,,2100-606,BRANCA CCH,-8.580669265582255,38.77163242455272
pt.ine.add.PTCONT.4403382,R ESCOLA,24,2100-016,CORUCHE,-8.473431017827721,38.968582720319645
pt.ine.add.PTCONT.4403397,R PADEIRO,61,2100-516,FAJARDA,-8.586559016311796,38.963613044974736
pt.ine.add.PTCONT.4403417,,,2100-407,SÃO JOSÉ DA LAMAROSA,-8.508355729277591,39.06198446340757
pt.ine.add.PTCONT.4403418,ESTR VELHA LAMAROSA,,2100-050,CORUCHE,-8.515155105224464,38.987955353303725
pt.ine.add.PTCONT.4403419,R ALM REIS,22,2100-313,COUÇO,-8.284949558490707,38.98629311155049
pt.ine.add.PTCONT.4403449,R BELA VISTA,,2100-050,CORUCHE,-8.503152667427322,38.98594027077905
pt.ine.add.PTCONT.4404387,TV FRADE,20,2100-529,FAJARDA,-8.60549846571687,38.96796972875509
pt.ine.add.PTCONT.4403513,R LUIS CAMÕES,12,2100-302,COUÇO,-8.391318382763094,38.970847060186465
pt.ine.add.PTCONT.4403970,R FAIAL,,2100-376,COUÇO,-8.293279911520768,39.0004691892677
pt.ine.add.PTCONT.4403900,ESTR VELHA LAMAROSA,,2100-050,CORUCHE,-8.515683497976397,38.98748522013305
pt.ine.add.PTCONT.4403901,R COIMBRAS,,2100-049,CORUCHE,-8.53018632468872,38.98450024906683
pt.ine.add.PTCONT.4403902,R COIMBRAS,1,2100-049,CORUCHE,-8.530225879568917,38.985382872037945
pt.ine.add.PTCONT.4403903,R AGOLADA DE CIMA,,2100-049,CORUCHE,-8.538473753674113,38.98464290030528
pt.ine.add.PTCONT.4403904,R ESCOLA,8,2100-016,CORUCHE,-8.473371860010094,38.96827662870661
pt.ine.add.PTCONT.4403905,ESTR LAMAROSA,,2100-039,CORUCHE,-8.517896291097882,38.978362114963474
pt.ine.add.PTCONT.4403906,R CORUCHE,,2100-040,CORUCHE,-8.494286410053215,38.899078776806135
pt.ine.add.PTCONT.4403907,R COMÉRCIO,,2100-052,CORUCHE,-8.489287443677272,38.90448083780227
pt.ine.add.PTCONT.4403908,R CORUCHE,55,2100-040,CORUCHE,-8.492813200120672,38.906388703343524
pt.ine.add.PTCONT.4403942,R CORUCHE,53,2100-052,CORUCHE,-8.493635911308834,38.90493590024451
pt.ine.add.PTCONT.4403943,R AMOREIRAS,,2100-052,CORUCHE,-8.495461062779366,38.90338990568828
pt.ine.add.PTCONT.4403944,EN 114,,2100-052,CORUCHE,-8.417679699140919,38.888670306470395
pt.ine.add.PTCONT.4403945,,,2100-054,CORUCHE,-8.455567475017633,38.96058049322002
pt.ine.add.PTCONT.4403946,R JOÃO CARAÇAS,,2100-037,CORUCHE,-8.531130876865204,38.97180512444408
pt.ine.add.PTCONT.4403947,R VITÓRIA,,2100-037,CORUCHE,-8.531559130857547,38.972037864525
pt.ine.add.PTCONT.4403948,R JOAQUIM DO LEÃO,27,2100-042,CORUCHE,-8.53182414801706,38.96579458533986
pt.ine.add.PTCONT.4403949,R QUINTA NOVA BAIRRO AZUL,5,2100-027,CORUCHE,-8.536134514388232,38.96085253349956
pt.ine.add.PTCONT.4403950,R QUINTA NOVA,8,2100-027,CORUCHE,-8.536044002563951,38.96116811783417
pt.ine.add.PTCONT.4403951,R QUINTA NOVA,24,2100-027,CORUCHE,-8.535150817827983,38.96236022312235
pt.ine.add.PTCONT.4403952,R QUINTA NOVA,31,2100-027,CORUCHE,-8.535897333546016,38.961754128860186
pt.ine.add.PTCONT.4403953,EN 114,,2100-027,CORUCHE,-8.533579064002607,38.963941985613936
pt.ine.add.PTCONT.4403954,R NSA SRA DO CASTELO,6,2100-150,CORUCHE,-8.527002777665382,38.96400039764857
pt.ine.add.PTCONT.4403955,TV FORNO,9,2100-018,CORUCHE,-8.523375147182437,38.967345456731145
pt.ine.add.PTCONT.4403956,R GOA,43,2100-146,CORUCHE,-8.523252626571917,38.963940932457454
pt.ine.add.PTCONT.4403957,R TIMOR,20,2100-166,CORUCHE,-8.522014448030419,38.96327849046958
pt.ine.add.PTCONT.4403958,LG TERREIRO DO BRITO,2,2100-118,CORUCHE,-8.52605652454627,38.95979696040139
pt.ine.add.PTCONT.4403959,LG TERREIRO DO BRITO,2,2100-118,CORUCHE,-8.52605652454627,38.95979696040139
pt.ine.add.PTCONT.4403960,R DR ANTONIO HENRIQUES SILVA,4,2100-045,CORUCHE,-8.480994709615931,38.94854512727899
pt.ine.add.PTCONT.4403961,R S JOÃO,20,2100-163,CORUCHE,-8.532579554695136,38.9564869792513
pt.ine.add.PTCONT.4403962,R MALHADA ALTA,,2100-052,CORUCHE,-8.51161508026668,38.87791841798553
pt.ine.add.PTCONT.4403963,R MONTE POVO UNIDO,198,2100-373,COUÇO,-8.309805192681155,38.984303435408734
pt.ine.add.PTCONT.4403964,R POVO UNIDO,,2100-373,COUÇO,-8.304229090918167,38.98360913977806
pt.ine.add.PTCONT.4403965,MTE BOICILHOSS,,2100-371,COUÇO,-8.368948431984343,38.9999714581139
pt.ine.add.PTCONT.4403966,R BAIRRO ALTO,77,2100-376,COUÇO,-8.292984048671276,39.00237022885218
pt.ine.add.PTCONT.4403967,R LAVADOUROS,,2100-376,COUÇO,-8.292093656138524,39.00170487260792
pt.ine.add.PTCONT.4403968,R BAIRRO ALTO,,2100-376,COUÇO,-8.293056396590734,39.003739306264926
pt.ine.add.PTCONT.4403969,R CABINDA,,2100-376,COUÇO,-8.291884091421606,39.00091247655971
pt.ine.add.PTCONT.4403971,R ENG ALEIXO PAIS,62,2100-353,COUÇO,-8.28286355414783,38.987728042179945
pt.ine.add.PTCONT.4403972,R DR MIGUEL BOMBARDA,88,2100-333,COUÇO,-8.286287427864485,38.98584998236193
pt.ine.add.PTCONT.4403973,R MÁRIO VIEGAS,,2100-341,COUÇO,-8.283044555359652,38.9859893107985
pt.ine.add.PTCONT.4403974,R DR MIGUEL BOMBARDA,101,2100-333,COUÇO,-8.286113122792752,38.985300737180594
pt.ine.add.PTCONT.4403975,R ADRIANO CORREIA DE OLIVEIRA,126,2100-312,COUÇO,-8.285577871213597,38.98327468946522
pt.ine.add.PTCONT.4404004,,,2100-300,COUÇO,-8.30398790518836,38.86873227434793
pt.ine.add.PTCONT.4404005,,,2100-407,SÃO JOSÉ DA LAMAROSA,-8.500780372845362,39.08947275490736
pt.ine.add.PTCONT.4404006,R ESCOLA,,2100-407,SÃO JOSÉ DA LAMAROSA,-8.556789570303009,39.075528123633
pt.ine.add.PTCONT.4404007,EN 114,,2100-407,SÃO JOSÉ DA LAMAROSA,-8.568104346950546,39.056930816628125
pt.ine.add.PTCONT.4404008,EN 114,,2100-407,SÃO JOSÉ DA LAMAROSA,-8.566673182303267,39.0571613361164
pt.ine.add.PTCONT.4404009,,,2100-407,SÃO JOSÉ DA LAMAROSA,-8.5546258312449,39.06146610024108
pt.ine.add.PTCONT.4404010,,,2100-407,SÃO JOSÉ DA LAMAROSA,-8.471431669976177,39.079365015145015
pt.ine.add.PTCONT.4404011,R LUIS CAMOES,,2100-405,SÃO JOSÉ DA LAMAROSA,-8.463575245342964,39.067434449212655
pt.ine.add.PTCONT.4404012,,,2100-407,SÃO JOSÉ DA LAMAROSA,-8.496177223630124,39.04379156405697
pt.ine.add.PTCONT.4404013,TV S PEDRO,12,2100-528,FAJARDA,-8.60270960347567,38.96674692405757
pt.ine.add.PTCONT.4404014,R MOAGEM,31,2100-507,FAJARDA,-8.604461850265674,38.9647671646702
pt.ine.add.PTCONT.4404015,R LAGAR,,2100-608,BRANCA CCH,-8.567590409652563,38.83491794341741
pt.ine.add.PTCONT.4404016,R RECTA,,2100-600,BRANCA CCH,-8.592160897482032,38.77284897866145
pt.ine.add.PTCONT.4404017,R COMÉRCIO,,2100-625,ERRA,-8.40018795725396,39.061876999375436
pt.ine.add.PTCONT.4404018,BR NSA SRA DO VALE,,2100-623,ERRA,-8.4476784621944,39.000281181239956
pt.ine.add.PTCONT.4404019,R S MATEUS,2,2100-623,ERRA,-8.448273654818982,38.996532360786865
pt.ine.add.PTCONT.4404020,,,2100-625,ERRA,-8.381371720413755,39.04681274202167
pt.ine.add.PTCONT.4404355,R LIBERDADE,13,2100-373,COUÇO,-8.298811899535384,38.981725326050814
pt.ine.add.PTCONT.4404356,R POVO UNIDO,55,2100-373,COUÇO,-8.299178048992909,38.98037363943102
pt.ine.add.PTCONT.4404357,R S NOME SN,SN,2100-372,COUÇO,-8.341605097034078,38.91863802339593
pt.ine.add.PTCONT.4404358,R COMÉRCIO,5,2100-330,COUÇO,-8.288693636637408,38.98839599655772
pt.ine.add.PTCONT.4404388,R NOVA,70,2100-525,FAJARDA,-8.607169276835936,38.9693591526823
pt.ine.add.PTCONT.4404389,HRD MARIA DE CISO,,2100-542,FAJARDA,-8.665420338946612,38.9543983634422
pt.ine.add.PTCONT.4404390,HRD ZAMBANINHA,,2100-500,FAJARDA,-8.599842984805099,38.94310404836422
pt.ine.add.PTCONT.4404391,R SANTIAGO,,2100-607,BRANCA CCH,-8.589562948622303,38.87246022566011
pt.ine.add.PTCONT.4404392,R S JOÃO,,2100-607,BRANCA CCH,-8.597139909903253,38.8645664747
pt.ine.add.PTCONT.4404393,R S JOÃO,,2100-607,BRANCA CCH,-8.5910875854064,38.855059998487775
pt.ine.add.PTCONT.4404394,R ESCOLA NOVA,,2100-607,BRANCA CCH,-8.588324389723326,38.84990025457429
pt.ine.add.PTCONT.4404395,R ESCOLA NOVA,,2100-607,BRANCA CCH,-8.59127223363454,38.85151916266216
pt.ine.add.PTCONT.4404396,R S TORCATO,,2100-604,BRANCA CCH,-8.540741616345745,38.8304296646938
pt.ine.add.PTCONT.4404397,R PRINCIPAL,,2100-626,ERRA,-8.468893247772156,39.01922831285419
pt.ine.add.PTCONT.4404398,ESTR LAMAROSA,,2100-621,ERRA,-8.48469868792551,39.021100385728026
pt.ine.add.PTCONT.4404399,R BAIXA,8,2100-651,BISCAÍNHO,-8.579300197824864,38.924727408377905
pt.ine.add.PTCONT.4404400,R OLHOS DAGUA,63,2100-651,BISCAÍNHO,-8.650737799002766,38.92152298827256
pt.ine.add.PTCONT.4404401,EN 119,82,2100-651,BISCAÍNHO,-8.622761871416971,38.909528172664324
pt.ine.add.PTCONT.4404402,EN 119,67,2100-651,BISCAÍNHO,-8.621865000124638,38.91155869045288
pt.ine.add.PTCONT.4404403,ESTR MATALOBOS,,2100-650,BISCAÍNHO,-8.64127323507145,38.934788004017825
pt.ine.add.PTCONT.4404404,R POÇO,,2100-651,BISCAÍNHO,-8.643680412787333,38.908591831873785
pt.ine.add.PTCONT.4404405,R ESCOLAS,,2100-675,SANTANA DO MATO,-8.408991463613672,38.87731416431728
pt.ine.add.PTCONT.4404406,MTE CATARINAS,,2100-675,SANTANA DO MATO,-8.395351013332233,38.86582444773182
pt.ine.add.PTCONT.4404407,R PINHEIRO,,2100-673,SANTANA DO MATO,-8.46531311695425,38.83613635358254
pt.ine.add.PTCONT.4404436,,,2100-673,SANTANA DO MATO,-8.4792448960038,38.81150409150814
pt.ine.add.PTCONT.4418672,,,2100-371,COUÇO,-8.356361351411538,39.013282620618675
pt.ine.add.PTCONT.4405468,,,2100-323,COUÇO,-8.271052553365905,39.009595402341795
pt.ine.add.PTCONT.4420610,R BICA,,2100-040,CORUCHE,-8.500134434987483,38.91097793983529
pt.ine.add.PTCONT.4405545,R MATALOBOS,5,2100-651,BISCAÍNHO,-8.641721459247583,38.9184188960455
pt.ine.add.PTCONT.4405557,R BECO DOS VALENTES,,2100-402,SÃO JOSÉ DA LAMAROSA,-8.448013142911455,39.03150096510012
pt.ine.add.PTCONT.4405558,R FRUTA,,2100-607,BRANCA CCH,-8.588064774326341,38.87424062559597
pt.ine.add.PTCONT.4405574,,,2100-407,SÃO JOSÉ DA LAMAROSA,-8.50417528110172,39.06899675409168
pt.ine.add.PTCONT.4405575,R FELICIDADE PASCOA,33,2100-519,FAJARDA,-8.60116482888743,38.96344728814238
pt.ine.add.PTCONT.4405631,R DR ANTÓNIO GARCIA HENRIQUES DA SILVA,,2100-045,CORUCHE,-8.485458289209019,38.95074765551668
pt.ine.add.PTCONT.4405654,R ESCOLA,169,2100-049,CORUCHE,-8.521663721444858,38.98355610416918
pt.ine.add.PTCONT.4406273,R MANUEL MARCAL,,2100-623,ERRA,-8.449054051262728,38.9981066026211
pt.ine.add.PTCONT.4406274,QTA MAIA,,2100-627,ERRA,-8.453961872052963,38.995958378250876
pt.ine.add.PTCONT.4406275,R SPORTING CLUBE SANTANENSE,,2100-675,SANTANA DO MATO,-8.411525929492704,38.87710997518717
pt.ine.add.PTCONT.4406289,R POVO UNIDO,26,2100-373,COUÇO,-8.296297760825128,38.982494529744514
pt.ine.add.PTCONT.4406290,BR LIBERDADE,10,2100-307,COUÇO,-8.285707863170531,38.9900663755703
pt.ine.add.PTCONT.4406291,BR LIBERDADE,12,2100-307,COUÇO,-8.285650345667758,38.99015652839
pt.ine.add.PTCONT.4406292,R FURO,,2100-625,ERRA,-8.389954869888596,39.059693113520346
pt.ine.add.PTCONT.4406293,R S FRANCISCO,,2100-623,ERRA,-8.448879339789233,38.997755774227215
pt.ine.add.PTCONT.4406319,R GUERREIROS,8,2100-183,CORUCHE,-8.525641844700802,38.957825653846214
pt.ine.add.PTCONT.4406320,R GUERREIROS,8,2100-183,CORUCHE,-8.525641844700802,38.957825653846214
pt.ine.add.PTCONT.4406321,R POVO UNIDO FOROS LAGOISOS,144,2100-373,COUÇO,-8.30741516596946,38.983901680435594
pt.ine.add.PTCONT.4406322,R 25 DE ABRIL,14,2100-373,COUÇO,-8.299481118810355,38.98166131942355
pt.ine.add.PTCONT.4406323,HRD CORRENTINHAS,,2100-500,FAJARDA,-8.554075256194446,38.94331411585111
pt.ine.add.PTCONT.4406324,R FURO,,2100-625,ERRA,-8.399674988261742,39.05758152876496
pt.ine.add.PTCONT.4406325,ESTR ERRA,,2100-627,ERRA,-8.478342346205908,38.991493016236355
pt.ine.add.PTCONT.4406326,R ARCO,14,2100-651,BISCAÍNHO,-8.578753156570347,38.92391879489754
pt.ine.add.PTCONT.4406335,R JOAQUIM DINIS CAIADO,,2100-337,COUÇO,-8.285929002728528,38.9855531959756
pt.ine.add.PTCONT.4406336,R COMÉRCIO CASA DOS ROCHAS,21,2100-651,BISCAÍNHO,-8.643035845266775,38.90873877395774
pt.ine.add.PTCONT.4406338,TV ESCOLA,,2100-037,CORUCHE,-8.532454159516528,38.97319680475154
pt.ine.add.PTCONT.4406339,R ESCOLA,42,2100-049,CORUCHE,-8.53179034065337,38.9741719112049
pt.ine.add.PTCONT.4406340,R FLORES,13,2100-045,CORUCHE,-8.49263616825297,38.95583318148281
pt.ine.add.PTCONT.4406341,R SORRAIA,,2100-045,CORUCHE,-8.493541431841162,38.95462334626674
pt.ine.add.PTCONT.4406342,R RITA QUERIOL ROQUETE,67,2100-524,FAJARDA,-8.60280675590168,38.9814561543254
pt.ine.add.PTCONT.4406353,R LIBERDADE,26,2100-373,COUÇO,-8.299007693864294,38.981553900166716
pt.ine.add.PTCONT.4406354,R PROF BENTO DE JESUS CARAÇA,8,2100-344,COUÇO,-8.285302640630384,38.98409475594581
pt.ine.add.PTCONT.4406369,R VALE MANSOS,,2100-049,CORUCHE,-8.526301312917775,38.98320728342779
pt.ine.add.PTCONT.4406370,,,2100-407,SÃO JOSÉ DA LAMAROSA,-8.504466401357236,39.07603977144091
pt.ine.add.PTCONT.4406371,R GUARITA,,2100-608,BRANCA CCH,-8.584351076087898,38.82998110067835
pt.ine.add.PTCONT.4406386,R ANTÓNIO TELES,,2100-037,CORUCHE,-8.53138668811934,38.970092778852226
pt.ine.add.PTCONT.4406387,QTA SANTO ANDRÉ,,2100-055,CORUCHE,-8.517906439530636,38.965309846846466
pt.ine.add.PTCONT.4406388,QTA SANTO ANDRÉ,,2100-055,CORUCHE,-8.517906439530636,38.965309846846466
pt.ine.add.PTCONT.4406389,QTA SANTO ANDRÉ,,2100-055,CORUCHE,-8.518704900637657,38.965739584051356
pt.ine.add.PTCONT.4406390,EN 114,,2100-042,CORUCHE,-8.53243678220795,38.96393689195677
pt.ine.add.PTCONT.4406391,R FLORES,,2100-045,CORUCHE,-8.491116985356188,38.95655847401654
pt.ine.add.PTCONT.4406392,R GRAÇA,33,2100-153,CORUCHE,-8.5339104105298,38.95722105390274
pt.ine.add.PTCONT.4406395,R S TOMÉ,30,2100-165,CORUCHE,-8.521777424677618,38.96424311092392
pt.ine.add.PTCONT.4406396,R DIU,45,2100-144,CORUCHE,-8.521750608903638,38.963558610105686
pt.ine.add.PTCONT.4406397,R PINHEIRO,,2100-673,SANTANA DO MATO,-8.448298326211795,38.84311063115421
pt.ine.add.PTCONT.4406398,R PINHEIRO,,2100-673,SANTANA DO MATO,-8.4583764543271,38.83794846085238
pt.ine.add.PTCONT.4406410,R QUINTA NOVA,,2100-042,CORUCHE,-8.537758370121955,38.964395973208866
pt.ine.add.PTCONT.4406411,ESTR SANTARÉM,,2100-108,CORUCHE,-8.526532282282053,38.960290784931786
pt.ine.add.PTCONT.4406412,R CIMA,,2100-053,CORUCHE,-8.534549849640017,38.88647138628789
pt.ine.add.PTCONT.4406413,R BAIRRO ALTO,4,2100-376,COUÇO,-8.293204971285501,39.00307252972491
pt.ine.add.PTCONT.4406414,R CORTICADA DA ERRA,,2100-627,ERRA,-8.427664350849536,39.00933213750537
pt.ine.add.PTCONT.4406415,R BAIRRO HILARIO,,2100-673,SANTANA DO MATO,-8.468136781812586,38.83409248725432
pt.ine.add.PTCONT.4406424,R VALE,,2100-050,CORUCHE,-8.509332361234476,38.98688433716921
pt.ine.add.PTCONT.4406425,R SEM NOME,,2100-372,COUÇO,-8.278768308026617,38.98312124833191
pt.ine.add.PTCONT.4406426,,,2100-407,SÃO JOSÉ DA LAMAROSA,-8.522773579318853,39.07854719644848
pt.ine.add.PTCONT.4406427,R MINDURICO,13,2100-509,FAJARDA,-8.592029388750742,38.96025879432063
pt.ine.add.PTCONT.4406428,R LAGOA DO MARCO,,2100-626,ERRA,-8.472346737335624,39.024262625531605
pt.ine.add.PTCONT.4406429,HRD MARTINHOS DO MEIO,,2100-651,BISCAÍNHO,-8.557971988010713,38.92559065926291
pt.ine.add.PTCONT.4406430,HRD BORRALHO,,2100-651,BISCAÍNHO,-8.704186213501456,38.94769351904237
pt.ine.add.PTCONT.4406442,R BECO PARTICULAR,,2100-050,CORUCHE,-8.511307683646486,38.989373092676786
pt.ine.add.PTCONT.4406443,R VINHA DO CHAPEU,,2100-056,CORUCHE,-8.546003216421598,38.9516391182914
pt.ine.add.PTCONT.4406444,R ANTÓNIO PARDAL,,2100-039,CORUCHE,-8.516241964054814,38.98188958498041
pt.ine.add.PTCONT.4406445,R ESCOLA,,2100-053,CORUCHE,-8.531211390017882,38.88510460946842
pt.ine.add.PTCONT.4406446,R ANTÓNIO FERREIRA ROQUETE,62,2100-503,FAJARDA,-8.59597763823487,38.96418859624494
pt.ine.add.PTCONT.4406447,R PESTANA,,2100-606,BRANCA CCH,-8.574394794890535,38.776709796543656
pt.ine.add.PTCONT.4406451,R PRINCIPAL,,2100-607,BRANCA CCH,-8.567452353219354,38.83683715032603
pt.ine.add.PTCONT.4406452,R PRINCIPAL,,2100-626,ERRA,-8.457831843427122,39.02439400948045
pt.ine.add.PTCONT.4406453,HRD TORRINHA,,2100-653,BISCAÍNHO,-8.671558021680609,38.940723468234644
pt.ine.add.PTCONT.4406473,R COIMBRAS,,2100-049,CORUCHE,-8.526971168275507,38.98537588782465
pt.ine.add.PTCONT.4406474,R JERONIMO A TANGANHO,37,2100-039,CORUCHE,-8.521974755463965,38.97923135394395
pt.ine.add.PTCONT.4406475,R 5 DE OUTUBRO,21,2100-127,CORUCHE,-8.523226247948564,38.95913087249445
pt.ine.add.PTCONT.4406476,R 5 DE OUTUBRO,21,2100-127,CORUCHE,-8.523226247948564,38.95913087249445
pt.ine.add.PTCONT.4406477,R 5 DE OUTUBRO,21,2100-127,CORUCHE,-8.523226247948564,38.95913087249445
pt.ine.add.PTCONT.4406478,,,2100-320,COUÇO,-8.305744445317647,38.98028303986242
pt.ine.add.PTCONT.4406479,R CORUCHE,1,2100-502,FAJARDA,-8.585136790997653,38.95768245219792
pt.ine.add.PTCONT.4406480,R S TORCATO,,2100-604,BRANCA CCH,-8.539723243301978,38.83158623327595
pt.ine.add.PTCONT.4406481,HRD AMOREIRINHA,,2100-650,BISCAÍNHO,-8.568009568674212,38.89996244463586
pt.ine.add.PTCONT.4406503,R PRINCIPAL,87,2100-016,CORUCHE,-8.477925711025721,38.9674705788363
pt.ine.add.PTCONT.4406504,R ESCOLA,,2100-049,CORUCHE,-8.528181375587582,38.974697626613334
pt.ine.add.PTCONT.4406505,R ALTO DO MARAU,91,2100-039,CORUCHE,-8.525661496056623,38.978111057854306
pt.ine.add.PTCONT.4406506,R GUINE,30,2100-350,COUÇO,-8.284792013636615,38.988184947271534
pt.ine.add.PTCONT.4406507,R JULIO MARIA DE SOUSA,54,2100-338,COUÇO,-8.28547956253795,38.98586905560068
pt.ine.add.PTCONT.4406508,EM 515,144,2100-651,BISCAÍNHO,-8.650437249672073,38.913480353222404
pt.ine.add.PTCONT.4406518,R GUINE,13,2100-350,COUÇO,-8.284896159745575,38.98831092054235
pt.ine.add.PTCONT.4406519,,,2100-542,FAJARDA,-8.698660239765855,38.96358303550377
pt.ine.add.PTCONT.4406520,R PRINCIPAL,,2100-608,BRANCA CCH,-8.567092369334208,38.836352058977944
pt.ine.add.PTCONT.4406521,MTE DA LATADINHA,,2100-600,BRANCA CCH,-8.589250414143976,38.79103857453026
pt.ine.add.PTCONT.4406522,ESTR LAMAROSA QTA DAGUA,,2100-621,ERRA,-8.488975738997906,39.01280034200009
pt.ine.add.PTCONT.4406523,AV 25 DE ABRIL,,2100-675,SANTANA DO MATO,-8.414968052165046,38.87621894196122
pt.ine.add.PTCONT.4406532,TV FORNO,3,2100-018,CORUCHE,-8.523827316339366,38.96774028513367
pt.ine.add.PTCONT.4406533,R GOA,35,2100-146,CORUCHE,-8.523793265965207,38.96364186763395
pt.ine.add.PTCONT.4424712,EN 119,,2100-056,CORUCHE,-8.523033893174546,38.93876490778165
pt.ine.add.PTCONT.4424823,R CIMA,,2100-053,CORUCHE,-8.535628638496535,38.88565696330816
pt.ine.add.PTCONT.4407630,R ESCOLA NOVA,,2100-607,BRANCA CCH,-8.597399341067778,38.858395029779444
pt.ine.add.PTCONT.4407689,,,2100-407,SÃO JOSÉ DA LAMAROSA,-8.491639023456825,39.05775843235973
pt.ine.add.PTCONT.4407729,R GOA,23,2100-146,CORUCHE,-8.523793265965207,38.96364186763395
pt.ine.add.PTCONT.4407757,R SANTO ISIDRO,21,2100-158,CORUCHE,-8.533196964880762,38.95754778158538
pt.ine.add.PTCONT.4407789,R ALM REIS,41,2100-313,COUÇO,-8.285907255980282,38.98617476043526
pt.ine.add.PTCONT.4407794,R BOMBEIROS MUNICIPAIS,73,2100-180,CORUCHE,-8.518704817051637,38.96359573643574
pt.ine.add.PTCONT.4407810,R ANTÓNIO FERREIRA ROQUETE,44,2100-503,FAJARDA,-8.595599239288784,38.962775880119146
pt.ine.add.PTCONT.4407846,R SANTO ANTÓNIO,26,2100-651,BISCAÍNHO,-8.648370958050968,38.916326950138114
pt.ine.add.PTCONT.4408010,R ESCOLA,,2100-040,CORUCHE,-8.493531191445518,38.90930503488448
pt.ine.add.PTCONT.4408011,R ESCOLA,,2100-040,CORUCHE,-8.493160446709677,38.908945864588404
pt.ine.add.PTCONT.4408014,MTE REBOCHO,,2100-052,CORUCHE,-8.491992331318427,38.917371800269954
pt.ine.add.PTCONT.4408015,R REPUBLICA POPULAR ANGOLA,15,2100-675,SANTANA DO MATO,-8.419945837556291,38.88470128420346
pt.ine.add.PTCONT.4408016,AV LIBERDADE,,2100-675,SANTANA DO MATO,-8.416742059264926,38.88185360240755
pt.ine.add.PTCONT.4408017,EN 114,,2100-675,SANTANA DO MATO,-8.410594501406678,38.88058924824837
pt.ine.add.PTCONT.4408018,AV LIBERDADE,41,2100-675,SANTANA DO MATO,-8.414705420117983,38.87975067947473
pt.ine.add.PTCONT.4408019,AV LIBERDADE,41,2100-675,SANTANA DO MATO,-8.414705420117983,38.87975067947473
pt.ine.add.PTCONT.4408126,R NASCENTES,,2100-039,CORUCHE,-8.521041750190015,38.97532509833725
pt.ine.add.PTCONT.4408127,R CENTRAL ELEVATORIA,49,2100-039,CORUCHE,-8.52580489462089,38.97064315254447
pt.ine.add.PTCONT.4408128,ESTR LAMAROSA,29A,2100-018,CORUCHE,-8.524004797177541,38.96854138122988
pt.ine.add.PTCONT.4408129,R LIMOEIRO,6,2100-048,CORUCHE,-8.5257048796957,38.967157487423385
pt.ine.add.PTCONT.4408130,AZ SANTO ANDRÉ,,2100-055,CORUCHE,-8.514052568228594,38.967439314411585
pt.ine.add.PTCONT.4408131,R ESCOLAS,,2100-675,SANTANA DO MATO,-8.408968729404346,38.877395289303095
pt.ine.add.PTCONT.4408132,R MANUEL PASCOAL,,2100-672,SANTANA DO MATO,-8.450329037150818,38.85945456893814
pt.ine.add.PTCONT.4408133,R PINHEIRO,,2100-673,SANTANA DO MATO,-8.466634557703415,38.835484014077835
pt.ine.add.PTCONT.4408134,R S DE OUTUBRO,,2100-673,SANTANA DO MATO,-8.455023796676084,38.82237393443698
pt.ine.add.PTCONT.4408247,EN 114,,2100-042,CORUCHE,-8.533232376005863,38.96384408936188
pt.ine.add.PTCONT.4408446,R SORRAIA,,2100-045,CORUCHE,-8.495437730760191,38.95547321425266
pt.ine.add.PTCONT.4408447,R SORRAIA,56,2100-045,CORUCHE,-8.493149286179873,38.95692154141344
pt.ine.add.PTCONT.4408448,R DR ANTÓNIO HENRIQUES SILVA,,2100-045,CORUCHE,-8.480463691934576,38.9484656386139
pt.ine.add.PTCONT.4408449,R SANTO ATANASIO,12,2100-157,CORUCHE,-8.534216363671753,38.95623815556862
pt.ine.add.PTCONT.4408450,R SANTO ATANASIO,14,2100-157,CORUCHE,-8.534308705964,38.95624684595048
pt.ine.add.PTCONT.4408552,TV OLIVEIRAS,,2100-052,CORUCHE,-8.507284968401061,38.880670773503965
pt.ine.add.PTCONT.4408553,R PRINCIPAL,,2100-053,CORUCHE,-8.544882366283298,38.8774905776248
pt.ine.add.PTCONT.4408772,R 25 ABRIL,40,2100-373,COUÇO,-8.299927658790809,38.9801473758492
pt.ine.add.PTCONT.4408773,R POVO UNIDO,89,2100-373,COUÇO,-8.302548866477188,38.98077414347886
pt.ine.add.PTCONT.4408774,R POVO UNIDO,107,2100-373,COUÇO,-8.303178138629717,38.98331341980823
pt.ine.add.PTCONT.4408775,PC REPUBLICA,14,2100-310,COUÇO,-8.28564464233298,38.98749924567779
pt.ine.add.PTCONT.4408776,PC REPUBLICA,14,2100-310,COUÇO,-8.28564464233298,38.98749924567779
pt.ine.add.PTCONT.4408777,PC REPUBLICA,14,2100-310,COUÇO,-8.28564464233298,38.98749924567779
pt.ine.add.PTCONT.4408778,AZ PASMADA,25,2100-305,COUÇO,-8.288527421146432,38.986279393212556
pt.ine.add.PTCONT.4432955,R S JOÃO,,2100-607,BRANCA CCH,-8.597937123055429,38.86490560464313
pt.ine.add.PTCONT.4408867,R COMÉRCIO,196,2100-330,COUÇO,-8.282184175517198,38.988485564347094
pt.ine.add.PTCONT.4408868,R ENG ALEIXO PAIS,68,2100-353,COUÇO,-8.282793867068905,38.987520952991076
pt.ine.add.PTCONT.4408869,R LUIS DE CAMÕES,,2100-407,SÃO JOSÉ DA LAMAROSA,-8.542771420904527,39.08740516400545
pt.ine.add.PTCONT.4408870,R PRINCIPAL,,2100-407,SÃO JOSÉ DA LAMAROSA,-8.551798459872593,39.08158123034667
pt.ine.add.PTCONT.4408871,,,2100-407,SÃO JOSÉ DA LAMAROSA,-8.548346687342146,39.0684244806055
pt.ine.add.PTCONT.4408952,,,2100-407,SÃO JOSÉ DA LAMAROSA,-8.512571995500045,39.08123807882342
pt.ine.add.PTCONT.4408953,R LUIS DE CAMÕES,19,2100-405,SÃO JOSÉ DA LAMAROSA,-8.464060160283495,39.067352005523354
pt.ine.add.PTCONT.4409042,R CORUCHE,9,2100-405,SÃO JOSÉ DA LAMAROSA,-8.465613310928779,39.065915376229604
pt.ine.add.PTCONT.4409043,R RITA QUERIOL ROQUETE,,2100-524,FAJARDA,-8.609001419592143,38.98622315812385
pt.ine.add.PTCONT.4409044,R MOINHO,66,2100-514,FAJARDA,-8.611687743531647,38.984086351823244
pt.ine.add.PTCONT.4409045,R ANTÓNIO FERREIRA ROQUETE,49,2100-503,FAJARDA,-8.596300440266786,38.96237675831476
pt.ine.add.PTCONT.4433043,,,2100-377,COUÇO,-8.244399618483357,38.968782660983464
pt.ine.add.PTCONT.4409160,R FELICIDADE PASCOA,,2100-519,FAJARDA,-8.599370104769172,38.9607161167571
pt.ine.add.PTCONT.4409161,R CAMINHO DE FERRO,65,2100-511,FAJARDA,-8.600206018933928,38.9843490629211
pt.ine.add.PTCONT.4409162,R PADEIRO,99,2100-516,FAJARDA,-8.586934452721792,38.968205535954866
pt.ine.add.PTCONT.4409163,R SERRACAO,54,2100-508,FAJARDA,-8.583119574443575,38.96707632533014
pt.ine.add.PTCONT.4434524,R ESCUSA,,2100-371,COUÇO,-8.357426618537042,39.0142444029396
pt.ine.add.PTCONT.4409280,R ANTÓNIO FERREIRA ROQUETE,4,2100-503,FAJARDA,-8.59565803810473,38.9593977405368
pt.ine.add.PTCONT.4409281,HRD GRAVINHA VELHA,,2100-500,FAJARDA,-8.564433497419067,38.943348361088944
pt.ine.add.PTCONT.4409282,R CABECA GORDA,,2100-607,BRANCA CCH,-8.586411522617423,38.849799598774446
pt.ine.add.PTCONT.4434730,R ANGOLA,,2100-320,COUÇO,-8.28712626047775,38.98924261766528
pt.ine.add.PTCONT.4409376,R PRINCIPAL,,2100-608,BRANCA CCH,-8.57604928648454,38.83764260785129
pt.ine.add.PTCONT.4409377,R PRINCIPAL,,2100-608,BRANCA CCH,-8.57412135432685,38.836911250675364
pt.ine.add.PTCONT.4409378,R CANAS,,2100-608,BRANCA CCH,-8.574917105053483,38.829629817877986
pt.ine.add.PTCONT.4409379,EN 251,,2100-608,BRANCA CCH,-8.56597361409017,38.824681894557315
pt.ine.add.PTCONT.4409380,R AGUINHAS,,2100-604,BRANCA CCH,-8.557225632634825,38.821426069923
pt.ine.add.PTCONT.4409480,R PE LEVE,,2100-049,CORUCHE,-8.531096393499034,38.98213712267444
pt.ine.add.PTCONT.4409481,R ACUDE AGOLADA,,2100-037,CORUCHE,-8.538821179341783,38.964626485064294
pt.ine.add.PTCONT.4409482,MTE AMOREIRA,,2100-016,CORUCHE,-8.42858837240946,38.989999216572585
pt.ine.add.PTCONT.4409483,HRD FIGUEIRAS,,2100-608,BRANCA CCH,-8.578169954194502,38.80272865553678
pt.ine.add.PTCONT.4409484,R ESCOLA,,2100-625,ERRA,-8.400401393671478,39.06332673968077
pt.ine.add.PTCONT.4409485,RETIRO DA ERRA,,2100-627,ERRA,-8.444804275901927,39.00296418846149
pt.ine.add.PTCONT.4409486,R PALMA,21,2100-623,ERRA,-8.448000253620185,38.99735280228457
pt.ine.add.PTCONT.4409487,R S FRANCISCO,16,2100-623,ERRA,-8.448681983695693,38.997504091803215
pt.ine.add.PTCONT.4409488,HRD BARBAS,,2100-623,ERRA,-8.409814346301912,39.000196968695825
pt.ine.add.PTCONT.4409489,ESTR LAMAROSA,,2100-621,ERRA,-8.485719756484706,39.017440182922115
pt.ine.add.PTCONT.4409490,,,2100-627,ERRA,-8.453365684990802,38.99941898321742
pt.ine.add.PTCONT.4409590,R PRINCIPAL,010,2100-016,CORUCHE,-8.476128554530078,38.96806137992749
pt.ine.add.PTCONT.4409591,EN 251,,2100-016,CORUCHE,-8.488654799919729,38.96251113455517
pt.ine.add.PTCONT.4409592,ESTR LAMAROSA,,2100-039,CORUCHE,-8.51735672907774,38.983156010431415
pt.ine.add.PTCONT.4409593,R CAMPO FUTEBOL,,2100-040,CORUCHE,-8.49569655391912,38.91342392616449
pt.ine.add.PTCONT.4409594,R CRUZES,,2100-623,ERRA,-8.449903559205431,38.99705039506073
pt.ine.add.PTCONT.4409595,R ARCO,4B,2100-652,BISCAÍNHO,-8.578760369774667,38.92507176724099
pt.ine.add.PTCONT.4409596,EM 515,76,2100-651,BISCAÍNHO,-8.643975498963322,38.9111577685485
pt.ine.add.PTCONT.4409613,,,2100-407,SÃO JOSÉ DA LAMAROSA,-8.454775926532273,39.0838979332734
pt.ine.add.PTCONT.4409627,R 25 DE ABRIL,,2100-405,SÃO JOSÉ DA LAMAROSA,-8.468443313698868,39.068177192432294
pt.ine.add.PTCONT.4409632,R DIU,16,2100-145,CORUCHE,-8.521091145463837,38.96322751698861
pt.ine.add.PTCONT.4409642,R JOÃO COMPADRE,,2100-039,CORUCHE,-8.513261312417418,38.976990113624446
pt.ine.add.PTCONT.4409664,R CORUCHE,,2100-052,CORUCHE,-8.492714701594538,38.90514592198794
pt.ine.add.PTCONT.4409686,,,2100-627,ERRA,-8.452397433289836,39.00487130748585
pt.ine.add.PTCONT.4409687,ESTR LAMAROSA,27,2100-018,CORUCHE,-8.523969290783612,38.96837936052438
pt.ine.add.PTCONT.4409719,R VINHA DO CHAPEU,10,2100-042,CORUCHE,-8.537605039552457,38.957721750532166
pt.ine.add.PTCONT.4409728,R VALE QUEIMADO,,2100-402,SÃO JOSÉ DA LAMAROSA,-8.442496987977425,39.04836005667724
pt.ine.add.PTCONT.4409743,R 25 DE ABRIL,,2100-673,SANTANA DO MATO,-8.455935088661231,38.83547804023672
pt.ine.add.PTCONT.4409748,R FRUTA,,2100-607,BRANCA CCH,-8.5892141303447,38.87737989372674
pt.ine.add.PTCONT.4409757,BR 23 DE JUNHO,3,2100-306,COUÇO,-8.280834426736021,38.98880255269
pt.ine.add.PTCONT.4409798,R BICA,81,2100-040,CORUCHE,-8.499968621906739,38.91012271505953
pt.ine.add.PTCONT.4409818,R ADRIANO CORREIA DE OLIVEIRA,,2100-312,COUÇO,-8.285428184774933,38.983437024843205
pt.ine.add.PTCONT.4438276,,,2100-371,COUÇO,-8.344627229750754,39.000504502168305
pt.ine.add.PTCONT.4410458,R COIMBRAS,28,2100-049,CORUCHE,-8.528152249765702,38.98399371237554
pt.ine.add.PTCONT.4410459,R COMÉRCIO,5,2100-040,CORUCHE,-8.491071135273673,38.90384483241409
pt.ine.add.PTCONT.4410460,R POÇOS,7,2100-039,CORUCHE,-8.521360086805936,38.9744502881068
pt.ine.add.PTCONT.4410476,R 25 DE ABRIL,12,2100-373,COUÇO,-8.299435334980803,38.98182352460401
pt.ine.add.PTCONT.4410477,R S JOÃO DE DEUS,44,2100-651,BISCAÍNHO,-8.645486960049366,38.90970989468862
pt.ine.add.PTCONT.4410491,R ANTÓNIO TELES,,2100-037,CORUCHE,-8.531780063925767,38.9702805984731
pt.ine.add.PTCONT.4410492,AZERVADA DE CIMA,,2100-016,CORUCHE,-8.485058391869686,38.96318861082705
pt.ine.add.PTCONT.4410493,R DIREITA,27,2100-167,CORUCHE,-8.528613557630958,38.956959882803574
pt.ine.add.PTCONT.4410494,R BICA,,2100-052,CORUCHE,-8.498948797386797,38.909099019818946
pt.ine.add.PTCONT.4410499,R AMOREIRAS,,2100-052,CORUCHE,-8.494373645620035,38.90719459272578
pt.ine.add.PTCONT.4410500,PCT PADRE JOSE ALVES,,2100-122,CORUCHE,-8.528303113452596,38.96130267983588
pt.ine.add.PTCONT.4410501,PCT PADRE JOSE ALVES,,2100-122,CORUCHE,-8.528303113452596,38.96130267983588
pt.ine.add.PTCONT.4410502,PCT PADRE JOSE ALVES L,L7,2100-122,CORUCHE,-8.528303113452596,38.96130267983588
pt.ine.add.PTCONT.4410503,PCT PADRE JOSE ALVES,,2100-122,CORUCHE,-8.528303113452596,38.96130267983588
pt.ine.add.PTCONT.4410504,PCT PADRE JOSE ALVES,,2100-122,CORUCHE,-8.528303113452596,38.96130267983588
pt.ine.add.PTCONT.4410505,PCT PADRE JOSE ALVES,,2100-122,CORUCHE,-8.528303113452596,38.96130267983588
pt.ine.add.PTCONT.4410506,PCT PADRE JOSE ALVES,,2100-122,CORUCHE,-8.528303113452596,38.96130267983588
pt.ine.add.PTCONT.4410507,R GAGO COUTINHO,,2100-335,COUÇO,-8.28776659982979,38.98670376911966
pt.ine.add.PTCONT.4410508,LOTEAM LOTEAMENTO MUNICIPAL DA ERRA,,2100-627,ERRA,-8.449688550190581,39.00060903024784
pt.ine.add.PTCONT.4410521,R ESCOLA,71 71A,2100-049,CORUCHE,-8.531816982028284,38.976865135805255
pt.ine.add.PTCONT.4410522,TV AGOLADAS,,2100-049,CORUCHE,-8.53309031102704,38.97756338214101
pt.ine.add.PTCONT.4410523,EN 114,,2100-042,CORUCHE,-8.531265022011343,38.96278790173882
pt.ine.add.PTCONT.4410524,TV JULIO FERREIRA,9,2100-042,CORUCHE,-8.531265022011343,38.96278790173882
pt.ine.add.PTCONT.4410525,,,2100-407,SÃO JOSÉ DA LAMAROSA,-8.430144702885556,39.08059443747218
pt.ine.add.PTCONT.4410526,R FELICIDADE PASCOA,45,2100-519,FAJARDA,-8.60137057238773,38.9649057174217
pt.ine.add.PTCONT.4410527,R VALE,,2100-607,BRANCA CCH,-8.597689606865712,38.860510733573996
pt.ine.add.PTCONT.4410528,R S BOAS DE DEUS,5,2100-651,BISCAÍNHO,-8.653464517827985,38.90331509192498
pt.ine.add.PTCONT.4410529,R MANUEL PASCOAL,,2100-672,SANTANA DO MATO,-8.446278882320431,38.858024228179076
pt.ine.add.PTCONT.4410534,TV ANSELMO DA CRUZ TOMAS,10,2100-042,CORUCHE,-8.530490384616876,38.9645650712537
pt.ine.add.PTCONT.4410535,PTO FERREIRA,,2100-052,CORUCHE,-8.503527838252621,38.88507860364977
pt.ine.add.PTCONT.4410536,R CORUCHE,,2100-405,SÃO JOSÉ DA LAMAROSA,-8.464067033312908,39.0638750447658
pt.ine.add.PTCONT.4410537,TV JOSE MARTA,,2100-405,SÃO JOSÉ DA LAMAROSA,-8.467174635051375,39.06622618078721
pt.ine.add.PTCONT.4410544,HRD AGOLADA DE CIMA,,2100-049,CORUCHE,-8.553224838429635,39.00048933756849
pt.ine.add.PTCONT.4410545,R BELA VISTA,,2100-050,CORUCHE,-8.505031430613851,38.99428446150953
pt.ine.add.PTCONT.4410546,R BELA VISTA,,2100-050,CORUCHE,-8.504167294035797,38.98795478094323
pt.ine.add.PTCONT.4410547,R AMOREIRAS,,2100-052,CORUCHE,-8.496716359773455,38.89862084146677
pt.ine.add.PTCONT.4410548,R VINHA DO CHAPÉU,,2100-056,CORUCHE,-8.536235288492303,38.958275963778675
pt.ine.add.PTCONT.4410549,R PADRE LUIS NUNES SILVA,7,2100-405,SÃO JOSÉ DA LAMAROSA,-8.465854387744187,39.06558140671016
pt.ine.add.PTCONT.4410550,R VALE,,2100-625,ERRA,-8.392869471097477,39.05423703285804
pt.ine.add.PTCONT.4410559,EN 114,,2100-054,CORUCHE,-8.418543541706272,38.897162642630036
pt.ine.add.PTCONT.4410560,AV NSA SRA DO CASTELO QTA DE SANTO ATANASIO,1,2100-100,CORUCHE,-8.53450142087307,38.955642662467014
pt.ine.add.PTCONT.4410561,,,2100-407,SÃO JOSÉ DA LAMAROSA,-8.540309627046657,39.05926506271206
pt.ine.add.PTCONT.4410562,R NOVA,72,2100-525,FAJARDA,-8.606360985636242,38.969272355980856
pt.ine.add.PTCONT.4410563,,,2100-627,ERRA,-8.41969376879402,39.00826205534281
pt.ine.add.PTCONT.4410564,R PRINCIPAL,,2100-673,SANTANA DO MATO,-8.445921068848584,38.842090113214994
pt.ine.add.PTCONT.4410573,R CORUCHE,,2100-053,CORUCHE,-8.535023091145076,38.8865958687472
pt.ine.add.PTCONT.4410574,R CORUCHE,,2100-053,CORUCHE,-8.534642659277566,38.88657916176055
pt.ine.add.PTCONT.4410575,MTE BOICILHOS,,2100-371,COUÇO,-8.357515666809746,39.024152711032045
pt.ine.add.PTCONT.4410576,R FLORBELA ESPANCA,13,2100-334,COUÇO,-8.28986687678218,38.98133233537841
pt.ine.add.PTCONT.4410577,R FLORBELA ESPANCA,11,2100-334,COUÇO,-8.289647602545516,38.98133262973425
pt.ine.add.PTCONT.4410578,R FIDALGOS,,2100-607,BRANCA CCH,-8.59376893376506,38.84389764539207
pt.ine.add.PTCONT.4410579,,,2100-622,ERRA,-8.405507044735328,39.03292309143716
pt.ine.add.PTCONT.4410580,R S PEDRO,9,2100-651,BISCAÍNHO,-8.630724613178295,38.90567518850974
pt.ine.add.PTCONT.4410581,R FAVAQUEIRA,,2100-673,SANTANA DO MATO,-8.461601862572913,38.84056075443039
pt.ine.add.PTCONT.4410591,EN 114-3,9,2100-020,CORUCHE,-8.56243372888252,38.95411102112829
pt.ine.add.PTCONT.4410592,R VINHA DO CHAPEU,,2100-056,CORUCHE,-8.54647442774659,38.9533219046024
pt.ine.add.PTCONT.4410598,HRD HERDADE FORNO VIDRO NOVO,,2100-036,CORUCHE,-8.515142509893849,38.86520578068238
pt.ine.add.PTCONT.4410599,EN 114 PINGALIM,,2100-036,CORUCHE,-8.459879618222748,38.91724090368825
pt.ine.add.PTCONT.4410600,R ANGOLA,,2100-141,CORUCHE,-8.523431792919517,38.962949479213464
pt.ine.add.PTCONT.4410601,R DR ANTÓNIO HENRIQUES SILVA,77,2100-045,CORUCHE,-8.484384232248095,38.950498674759714
pt.ine.add.PTCONT.4410602,R CEMITÉRIO,,2100-326,COUÇO,-8.295637001098719,39.001402735009265
pt.ine.add.PTCONT.4410603,R PASSAGEM DE NIVEL DO FORNO,6,2100-535,FAJARDA,-8.602473209097955,38.98512363637178
pt.ine.add.PTCONT.4410604,R ANTÓNIO FERREIRA ROQUETE,48,2100-503,FAJARDA,-8.59529059702696,38.96321848247177
pt.ine.add.PTCONT.4410605,R BUNHEIRA,,2100-626,ERRA,-8.478324712327643,39.02586647040784
pt.ine.add.PTCONT.4410606,R PRINCIPAL,,2100-626,ERRA,-8.459127657442478,39.02493085625462
pt.ine.add.PTCONT.4410607,R VALE DO VIDRO,,2100-626,ERRA,-8.461913634068791,39.02058133203663
pt.ine.add.PTCONT.4410608,R PRINCIPAL,,2100-626,ERRA,-8.46479261926429,39.021383873939506
pt.ine.add.PTCONT.4410625,R AGOLADA DE CIMA,,2100-049,CORUCHE,-8.53320848994799,38.98830920224185
pt.ine.add.PTCONT.4410626,R GRAÇA,24,2100-154,CORUCHE,-8.533747528700335,38.95697840328971
pt.ine.add.PTCONT.4410627,R ESCUSA,,2100-371,COUÇO,-8.35615485512594,39.01370637831508
pt.ine.add.PTCONT.4410628,,,2100-407,SÃO JOSÉ DA LAMAROSA,-8.467128255430914,39.08089970539204
pt.ine.add.PTCONT.4410629,R MILAGRES,12,2100-518,FAJARDA,-8.60771283851168,38.962628161579715
pt.ine.add.PTCONT.4410630,R SALVATERRA,68,2100-501,FAJARDA,-8.608545915240024,38.961255593368264
pt.ine.add.PTCONT.4410631,R MOÇAMBIQUE,16,2100-148,CORUCHE,-8.522633828219476,38.96260985014895
pt.ine.add.PTCONT.4410632,R MOÇAMBIQUE,16,2100-148,CORUCHE,-8.522633828219476,38.96260985014895
pt.ine.add.PTCONT.4410633,MTE FAIAS,,2100-300,COUÇO,-8.34537652884555,39.00015183954527
pt.ine.add.PTCONT.4410634,R CANTINHO,,2100-407,SÃO JOSÉ DA LAMAROSA,-8.455605850793313,39.07325766363713
pt.ine.add.PTCONT.4410635,R JOÃO DA COSTA PADEIRO,23,2100-522,FAJARDA,-8.585000946554752,38.95990789427538
pt.ine.add.PTCONT.4410636,R CERRO DA ARRICA,,2100-606,BRANCA CCH,-8.58751346463945,38.769444083517584
pt.ine.add.PTCONT.4410647,R AGOLADA DE CIMA,,2100-049,CORUCHE,-8.536077098012017,38.98737153518156
pt.ine.add.PTCONT.4410648,R PADEIRO,40,2100-516,FAJARDA,-8.586056936440576,38.962678188671255
pt.ine.add.PTCONT.4410649,R JOÃO DA COSTA PADEIRO,10,2100-522,FAJARDA,-8.584830564326408,38.958512351597676
pt.ine.add.PTCONT.4410658,EN 251,,2100-016,CORUCHE,-8.48951092275958,38.96297692747483
pt.ine.add.PTCONT.4410659,R CORUCHE,,2100-040,CORUCHE,-8.49391530134491,38.91230346341792
pt.ine.add.PTCONT.4410660,R NASCENTES,10,2100-039,CORUCHE,-8.522517234116052,38.97503193613475
pt.ine.add.PTCONT.4410661,ESTR LAMAROSA,24,2100-018,CORUCHE,-8.524404331313212,38.96775636738136
pt.ine.add.PTCONT.4410662,R LUANDA,,2100-376,COUÇO,-8.291893622003506,39.000011689117756
pt.ine.add.PTCONT.4410663,HRD TORRE DA FALCOA,,2100-540,FAJARDA,-8.638771359821048,38.94951756127412
pt.ine.add.PTCONT.4410664,HRD CALABRE,,2100-540,FAJARDA,-8.63105696096917,38.95322589249477
pt.ine.add.PTCONT.4410665,MTE DA PESTANA,,2100-600,BRANCA CCH,-8.570060260706443,38.792427077473405
pt.ine.add.PTCONT.4410678,R VALE MANSOS,,2100-049,CORUCHE,-8.535071476019393,38.97894376654737
pt.ine.add.PTCONT.4410679,R CENTRO SOCIAL,67,2100-016,CORUCHE,-8.473916556087872,38.96636539213592
pt.ine.add.PTCONT.4411807,AZ SANTO ANDRÉ,,2100-055,CORUCHE,-8.514284830383325,38.96771779660763
pt.ine.add.PTCONT.4411810,R SERRACAO,68,2100-508,FAJARDA,-8.58555025772519,38.96827396477327
pt.ine.add.PTCONT.4411824,HRD AMOREIRA,,2100-651,BISCAÍNHO,-8.567804283094178,38.924896890662694
pt.ine.add.PTCONT.4411883,R MACAU,,2100-403,SÃO JOSÉ DA LAMAROSA,-8.446978288093192,39.06385022775759
pt.ine.add.PTCONT.4411899,LOTEAM HORTINHAS,,2100-042,CORUCHE,-8.538584886713444,38.95758323390681
pt.ine.add.PTCONT.4411901,R CASTANHEIROS,,2100-039,CORUCHE,-8.515426683654812,38.97621738100047
pt.ine.add.PTCONT.4411930,R LUIS DE CAMÕES,33,2100-339,COUÇO,-8.287747434870226,38.983199772342914
pt.ine.add.PTCONT.4411932,R 25 DE ABRIL,27,2100-302,COUÇO,-8.390964365267088,38.97186572183076
pt.ine.add.PTCONT.4411933,R PAZ,11,2100-302,COUÇO,-8.389269247339204,38.97218472718668
pt.ine.add.PTCONT.4411966,R SANTO ANTÓNIO,19,2100-510,FAJARDA,-8.60763785251564,38.97559960520638
pt.ine.add.PTCONT.4411979,R CATARINA EUFÉMIA,13,2100-373,COUÇO,-8.30108722043462,38.983362128672866
pt.ine.add.PTCONT.4412517,R PRINCIPAL,,2100-608,BRANCA CCH,-8.560990267071862,38.834771153951905
pt.ine.add.PTCONT.4412529,ESTR LAMAROSA,,2100-050,CORUCHE,-8.487853892253929,39.01473140539994
pt.ine.add.PTCONT.4412530,R AGOLADA DE CIMA,,2100-049,CORUCHE,-8.539717145222141,38.982089386458306
pt.ine.add.PTCONT.4412533,R CAPITÃES ABRIL,10,2100-373,COUÇO,-8.30043236187085,38.98374075451008
pt.ine.add.PTCONT.4412534,BR LIBERDADE,20,2100-307,COUÇO,-8.28545492023938,38.990526101905175
pt.ine.add.PTCONT.4412535,,,2100-407,SÃO JOSÉ DA LAMAROSA,-8.506383750010759,39.089013580012576
pt.ine.add.PTCONT.4412536,R MOINHO,,2100-514,FAJARDA,-8.611898977543072,38.97946452770623
pt.ine.add.PTCONT.4412542,R SORRAIA,,2100-045,CORUCHE,-8.493863231112593,38.956658111133244
pt.ine.add.PTCONT.4412543,EN 119,,2100-056,CORUCHE,-8.522791194101433,38.93867564022801
pt.ine.add.PTCONT.4412544,R COMÉRCIO,6,2100-651,BISCAÍNHO,-8.640940468772325,38.90914425094278
pt.ine.add.PTCONT.4412545,R SPORTING CLUBE SANTANENSE,,2100-675,SANTANA DO MATO,-8.411533411275203,38.87607404644932
pt.ine.add.PTCONT.4412546,AV 25 DE ABRIL,24,2100-675,SANTANA DO MATO,-8.41375222520341,38.874735562918744
pt.ine.add.PTCONT.4412558,ESTR LAMAROSA,,2100-049,CORUCHE,-8.526415118928451,38.966227296751946
pt.ine.add.PTCONT.4412559,R POVO UNIDO,120,2100-373,COUÇO,-8.305441191366867,38.983724456998026
pt.ine.add.PTCONT.4412560,,,2100-373,COUÇO,-8.301861238477503,38.98280188875358
pt.ine.add.PTCONT.4412567,R ESCOLA,,2100-037,CORUCHE,-8.531844226264434,38.975549912168525
pt.ine.add.PTCONT.4412568,R CENTRO SOCIAL,,2100-016,CORUCHE,-8.479753406322864,38.96368190043852
pt.ine.add.PTCONT.4412569,R FRANCISCO GERMANO DE OLIVEIRA,4,2100-042,CORUCHE,-8.529914229456626,38.96263036252488
pt.ine.add.PTCONT.4412570,AV 25 DE ABRIL,109,2100-675,SANTANA DO MATO,-8.418417617731922,38.88009297769582
pt.ine.add.PTCONT.4412580,R CORUCHE,23,2100-052,CORUCHE,-8.494570142128921,38.9004741185704
pt.ine.add.PTCONT.4412581,R COUCO,74,2100-169,CORUCHE,-8.522072345567652,38.96120651105728
pt.ine.add.PTCONT.4412582,R LIBERDADE,34B,2100-373,COUÇO,-8.299328371493518,38.98049953425543
pt.ine.add.PTCONT.4412583,LG S FRANCISCO,28,2100-623,ERRA,-8.448695167387365,38.99787337297399
pt.ine.add.PTCONT.4412584,AV 25 DE ABRIL,3,2100-675,SANTANA DO MATO,-8.412613194993734,38.8722521071455
