id,street,house,postcode,city,lon,lat
pt.ine.add.PTCONT.950975,,,6200-821,VERDELHOS,-7.492175883780437,40.34803459086343
pt.ine.add.PTCONT.954986,R ADRO,,6215-129,CORTES DO MEIO,-7.579076471849874,40.257283212003394
pt.ine.add.PTCONT.955475,,,6225-201,MINAS DA PANASQUEIRA,-7.744827386479361,40.16274835488697
pt.ine.add.PTCONT.960230,,,6215-121,CORTES DO MEIO,-7.549455696370762,40.306416699049315
pt.ine.add.PTCONT.960231,,,6215-121,CORTES DO MEIO,-7.550305388623066,40.30609677943159
pt.ine.add.PTCONT.961983,,,6215-121,CORTES DO MEIO,-7.550920519303077,40.30569462258316
pt.ine.add.PTCONT.950696,EN 343,14,6215-079,BARCO CVL,-7.610057538837941,40.176834511116326
pt.ine.add.PTCONT.950697,R CIMO DO POVO,9,6215-015,BARCO CVL,-7.608461047951339,40.17527827954905
pt.ine.add.PTCONT.950698,R S SIMAO,1,6215-088,BARCO CVL,-7.6105772894695365,40.17642258850675
pt.ine.add.PTCONT.950699,TV ARRABALDE,4,6215-035,BARCO CVL,-7.607520180286961,40.17396816212792
pt.ine.add.PTCONT.950700,R POCA DO BARRO,,6215-082,BARCO CVL,-7.608350775475653,40.17282818495005
pt.ine.add.PTCONT.950701,R S SEBASTIÃO,4,6215-087,BARCO CVL,-7.612877863358557,40.17342499047396
pt.ine.add.PTCONT.950702,TV QUELHA,1,6215-024,BARCO CVL,-7.607592355708909,40.173743343166
pt.ine.add.PTCONT.950703,EM 513,1,6215-064,BARCO CVL,-7.612834343061614,40.17297450162452
pt.ine.add.PTCONT.950704,R VINHA,1,6215-289,ERADA,-7.646698169101403,40.22314913658525
pt.ine.add.PTCONT.950705,R B,,6215-206,ERADA,-7.650068604511747,40.223352373181974
pt.ine.add.PTCONT.950706,BR CRUZ,16,6200-571,FERRO,-7.442105728695624,40.23828281840804
pt.ine.add.PTCONT.950707,BR CRUZ,,6200-571,FERRO,-7.442401139269989,40.238122478912544
pt.ine.add.PTCONT.950708,QTA SOBRAL,,6200-570,FERRO,-7.426614651632457,40.23291193938057
pt.ine.add.PTCONT.950709,R SAUDADE,33,6200-386,COVILHÃ,-7.509222572876194,40.27992823055369
pt.ine.add.PTCONT.950710,R SAUDADE,33,6200-386,COVILHÃ,-7.509222572876194,40.27992823055369
pt.ine.add.PTCONT.950711,R SAUDADE,33,6200-386,COVILHÃ,-7.509222572876194,40.27992823055369
pt.ine.add.PTCONT.950712,R SAUDADE,33,6200-386,COVILHÃ,-7.509222572876194,40.27992823055369
pt.ine.add.PTCONT.950713,R SAUDADE,33,6200-386,COVILHÃ,-7.509222572876194,40.27992823055369
pt.ine.add.PTCONT.950714,R SAUDADE,33,6200-386,COVILHÃ,-7.509222572876194,40.27992823055369
pt.ine.add.PTCONT.950715,TV FONTE DA CAL,,6200-747,TORTOSENDO,-7.5233947451764385,40.24028860599683
pt.ine.add.PTCONT.950716,R S JOÃO,11,6200-751,TORTOSENDO,-7.525913733875524,40.238509706933755
pt.ine.add.PTCONT.950717,SIT TAPADA SN,SN,6200-726,TORTOSENDO,-7.524977252731663,40.23416402069856
pt.ine.add.PTCONT.950718,AV VIRIATO,3,6200-725,TORTOSENDO,-7.52937552066078,40.233763777271356
pt.ine.add.PTCONT.950719,1 TRANSVERSAL A RUA FONTE FRIA DE CIMA,1,6200-760,TORTOSENDO,-7.531578102081112,40.23317186054083
pt.ine.add.PTCONT.950758,BR FREIXOS,11,6200-804,COVILHÃ,-7.488666406683777,40.25540114962752
pt.ine.add.PTCONT.950759,EM 507,54156,6200-275,COVILHÃ,-7.500128218568427,40.25776987232072
pt.ine.add.PTCONT.950760,QTA RAPOSA,,6200-570,FERRO,-7.485624757166956,40.22304459656566
pt.ine.add.PTCONT.950761,AV D LAURA MONTEIRO MARICOTO,38,6200-571,FERRO,-7.44751496561606,40.234424516809185
pt.ine.add.PTCONT.950762,TV ESTALAGEM,20,6200-571,FERRO,-7.445243594183072,40.23477126833551
pt.ine.add.PTCONT.950763,R DR DUARTE SIMÕES,3,6200-571,FERRO,-7.447414394062688,40.23391059464498
pt.ine.add.PTCONT.950764,BC OUTEIRO,,6200-571,FERRO,-7.447138640520676,40.23212582658649
pt.ine.add.PTCONT.950765,BR LADEIRINHA,,6200-785,TORTOSENDO,-7.540444990604669,40.231011195098525
pt.ine.add.PTCONT.950766,R CABEÇO,26,6200-721,TORTOSENDO,-7.531857464951606,40.230813804634835
pt.ine.add.PTCONT.950767,TV S TIAGO,6,6200-721,TORTOSENDO,-7.530684095317294,40.229303741824424
pt.ine.add.PTCONT.950768,TV S TIAGO,8,6200-721,TORTOSENDO,-7.530684095317294,40.229303741824424
pt.ine.add.PTCONT.950769,R VIA ESTRELA,30,6215-673,UNHAIS DA SERRA,-7.619919832160706,40.26246072199718
pt.ine.add.PTCONT.950770,R CONDE COVILHÃ,8,6215-632,UNHAIS DA SERRA,-7.623684869555809,40.26030676571622
pt.ine.add.PTCONT.950820,TV MEIRINHA,,6200-301,COVILHÃ,-7.49501633871557,40.24886216738753
pt.ine.add.PTCONT.950821,R SANTUARIO ANJO DA GUARDA,7,6225-125,CASEGAS,-7.700379650596831,40.17671200914114
pt.ine.add.PTCONT.950822,R ADRO,92,6225-124,CASEGAS,-7.698581814187384,40.17694843434127
pt.ine.add.PTCONT.950823,R ADRO,T,6225-124,CASEGAS,-7.698372842124288,40.17657840880152
pt.ine.add.PTCONT.950824,R AMOREIRA,22,6225-111,CASEGAS,-7.698152074477639,40.17621734443127
pt.ine.add.PTCONT.950825,R POLAMES,9,6200-581,ORJAIS,-7.410435911078121,40.33988002279148
pt.ine.add.PTCONT.950826,TV CANCELINHA,14,6200-581,ORJAIS,-7.406482617013608,40.33978321083471
pt.ine.add.PTCONT.950827,R LOMBARDO,10,6200-582,ORJAIS,-7.42041939903783,40.32276835117139
pt.ine.add.PTCONT.950828,QTA MOURATA,,6200-580,ORJAIS,-7.4344433565166845,40.32286290871996
pt.ine.add.PTCONT.950829,RIBEIRA DE AGUA ALTA,30,6200-305,COVILHÃ,-7.510942362194153,40.26548336611884
pt.ine.add.PTCONT.950830,BR S JOSE,32,6215-522,UNHAIS DA SERRA,-7.624839707091295,40.26007790540714
pt.ine.add.PTCONT.950831,R LEVADA,17,6215-649,UNHAIS DA SERRA,-7.624574540763,40.25938329887436
pt.ine.add.PTCONT.950832,BR TERRA SENHORA,4,6215-523,UNHAIS DA SERRA,-7.629577426893031,40.25209251327858
pt.ine.add.PTCONT.950833,EN 230,,6215-667,UNHAIS DA SERRA,-7.6340571874088,40.25027474523258
pt.ine.add.PTCONT.950834,R PINHEIRO,5,6200-801,VALE FORMOSO,-7.378640804427187,40.37645551153104
pt.ine.add.PTCONT.950872,BC FORNO,2,6225-114,CASEGAS,-7.698634519756127,40.17604804416092
pt.ine.add.PTCONT.950873,R JOSE CAETANO JUNIOR,19,6200-126,COVILHÃ,-7.509907555918995,40.283444133646384
pt.ine.add.PTCONT.950874,R JOSE CAETANO JUNIOR,19,6200-126,COVILHÃ,-7.509907555918995,40.283444133646384
pt.ine.add.PTCONT.950875,QTA CABEÇO QUEIMADO,,6200-580,ORJAIS,-7.428049931823227,40.3379985047342
pt.ine.add.PTCONT.950876,QTA CARROS,,6200-580,ORJAIS,-7.4270649893789225,40.325231605235786
pt.ine.add.PTCONT.950877,R FONTE DE PRATA,14,6200-581,ORJAIS,-7.405475236167326,40.341532959863976
pt.ine.add.PTCONT.950878,R S JOÃO,6,6230-901,OURONDO,-7.674992679035583,40.15628804478534
pt.ine.add.PTCONT.950879,R FORNO,19,6230-901,OURONDO,-7.677305625908678,40.15618009585063
pt.ine.add.PTCONT.950880,TV ESCOLA,2,6230-900,OURONDO,-7.684566687969252,40.147904997372045
pt.ine.add.PTCONT.950881,LG CARVALHO,4,6230-900,OURONDO,-7.6815748066828355,40.147794304455466
pt.ine.add.PTCONT.950882,LOTEAM RIBEIRO NEGRO,,6200-307,COVILHÃ,-7.514330481027666,40.26134990540302
pt.ine.add.PTCONT.950883,R ESTRELA,19,6200-090,COVILHÃ,-7.5031482562672425,40.279409012205406
pt.ine.add.PTCONT.950884,R GUERRA JUNQUEIRO,42,6200-801,VALE FORMOSO,-7.377702980677641,40.37608016431418
pt.ine.add.PTCONT.950885,QTA SINQUE,,6200-800,VALE FORMOSO,-7.385047154890042,40.372138473346716
pt.ine.add.PTCONT.950886,,,6200-800,VALE FORMOSO,-7.363440346921496,40.36702565748944
pt.ine.add.PTCONT.950887,R CARRIL,45,6200-821,VERDELHOS,-7.472380869620115,40.37670489621578
pt.ine.add.PTCONT.950888,R CARRIL,14,6200-821,VERDELHOS,-7.471607003186912,40.37636726811492
pt.ine.add.PTCONT.950927,R CANCHAIS,39,6215-372,PAUL,-7.638156653587032,40.20541651339507
pt.ine.add.PTCONT.950928,R DR JOSE CARVALHO,77,6215-328,PAUL,-7.637518002253084,40.20279308618585
pt.ine.add.PTCONT.950929,LG BOAVISTA,2,6200-821,VERDELHOS,-7.468426097900353,40.37533140586797
pt.ine.add.PTCONT.950930,R AMOREIRA,61,6200-821,VERDELHOS,-7.468317027335958,40.37444823842135
pt.ine.add.PTCONT.950969,TV SINEIRO,23,6200-210,COVILHÃ,-7.51391510723153,40.28885103741524
pt.ine.add.PTCONT.950970,R QUELHAS,,6215-324,PAUL,-7.633449317508574,40.20025396422755
pt.ine.add.PTCONT.950971,AV PADRE JOSE SANTIAGO,11,6215-408,PAUL,-7.637495155520947,40.19947884352693
pt.ine.add.PTCONT.950972,R CANTO,8,6200-641,SARZEDO CVL,-7.426545897413631,40.365969532510626
pt.ine.add.PTCONT.950973,R DIREITA,61,6200-641,SARZEDO CVL,-7.426193765725626,40.36699400934687
pt.ine.add.PTCONT.950974,R VALE,7,6225-330,SOBRAL DE SÃO MIGUEL,-7.739801270698812,40.209877133750915
pt.ine.add.PTCONT.950976,R OLIVAIS,,6200-811,VALES DO RIO,-7.547252910020056,40.20046221637936
pt.ine.add.PTCONT.950977,R DIREITA,30,6200-811,VALES DO RIO,-7.546473365696016,40.20097159945908
pt.ine.add.PTCONT.951019,AV SANTARÉM,59,6200-198,COVILHÃ,-7.508513918431857,40.284103038278325
pt.ine.add.PTCONT.951020,AV SANTARÉM,59,6200-198,COVILHÃ,-7.508513918431857,40.284103038278325
pt.ine.add.PTCONT.951021,AV SANTARÉM,59,6200-198,COVILHÃ,-7.508513918431857,40.284103038278325
pt.ine.add.PTCONT.951022,R DR ALBERTO RATO,19,6200-125,COVILHÃ,-7.51046452840003,40.28425764235985
pt.ine.add.PTCONT.951023,R JOSE CAETANO JUNIOR,4,6200-126,COVILHÃ,-7.509846778430944,40.28365994230823
pt.ine.add.PTCONT.951024,R JOSE CAETANO JUNIOR,4,6200-126,COVILHÃ,-7.509846778430944,40.28365994230823
pt.ine.add.PTCONT.951025,R JOSE CAETANO JUNIOR,4,6200-126,COVILHÃ,-7.509846778430944,40.28365994230823
pt.ine.add.PTCONT.951026,ESTR NACIONAL,C,6200-030,COVILHÃ,-7.504714635381247,40.2867571486306
pt.ine.add.PTCONT.951027,R FONTINHA,19,6215-397,PAUL,-7.633855562114203,40.19931010487841
pt.ine.add.PTCONT.951028,R VALE DO MOINHO,18,6215-322,PAUL,-7.63363078837705,40.19793124305992
pt.ine.add.PTCONT.951029,QTA TAPADA DA MINA,,6200-590,PERABOA,-7.394724634616422,40.29126771492591
pt.ine.add.PTCONT.951030,R SAUDADE,,6200-662,TEIXOSO,-7.454579663313307,40.32237940050307
pt.ine.add.PTCONT.951031,BC N 2 DO TORGAL,2,6215-795,COUTADA,-7.58727917052565,40.19166104956666
pt.ine.add.PTCONT.951032,R ALTO VOLTA,10,6215-751,COUTADA,-7.585953715017111,40.188547780161095
pt.ine.add.PTCONT.951079,R RODRIGO,8,6200-188,COVILHÃ,-7.499794156785381,40.28350629281837
pt.ine.add.PTCONT.951080,ESTR MUNICIPAL,18,6200-591,PERABOA,-7.394221882864852,40.25534998105997
pt.ine.add.PTCONT.951081,R PORTELA,18,6200-590,PERABOA,-7.383865356603349,40.25600857104515
pt.ine.add.PTCONT.951082,SIT QUINTAS DA SERRA,,6200-590,PERABOA,-7.402447495007699,40.249008174914124
pt.ine.add.PTCONT.951083,SIT QUINTAS DA SERRA,,6200-590,PERABOA,-7.402447495007699,40.249008174914124
pt.ine.add.PTCONT.951084,R SERRA,8,6200-710,TEIXOSO,-7.418673736654209,40.31648069022474
pt.ine.add.PTCONT.951085,R MANUEL ALCADA PADEZ,107,6200-720,TEIXOSO,-7.467178659203911,40.2974530290374
pt.ine.add.PTCONT.951086,R AUGUSTO TEIXEIRA LOPES,66,6200-424,COVILHÃ,-7.5058932291517655,40.29792154838693
pt.ine.add.PTCONT.951087,R ESCOLAS,44,6200-441,COVILHÃ,-7.494458236033888,40.29821021061692
pt.ine.add.PTCONT.951137,R LADEIRA,22,6200-617,PESO,-7.563672027266068,40.19625738086767
pt.ine.add.PTCONT.951138,R SARG PAULO JOSE DOS SANTOS,7,6200-614,PESO,-7.563180230538699,40.19608385013832
pt.ine.add.PTCONT.951139,R S MARIA MADALENA,3,6200-622,PESO,-7.563010186472078,40.19535354155828
pt.ine.add.PTCONT.951140,R MARGADEIRA,16,6200-592,TEIXOSO,-7.4583907935446545,40.31420659715121
pt.ine.add.PTCONT.951141,R CARVALHOSA,16 18,6200-716,TEIXOSO,-7.458216937595987,40.31394442044072
pt.ine.add.PTCONT.951142,R CANTO DA CANTINA,1,6200-711,TEIXOSO,-7.4583265541563355,40.31238708982383
pt.ine.add.PTCONT.951143,R SENHORA DOS VERDES,3,6200-704,TEIXOSO,-7.457531308734413,40.31191415680273
pt.ine.add.PTCONT.951202,R SERRADO,5,6200-202,COVILHÃ,-7.500697265021587,40.27997200488197
pt.ine.add.PTCONT.951203,R SERRADO,5,6200-202,COVILHÃ,-7.500697265021587,40.27997200488197
pt.ine.add.PTCONT.951204,R SERRADO,5,6200-202,COVILHÃ,-7.500697265021587,40.27997200488197
pt.ine.add.PTCONT.951205,R SERRADO,5,6200-202,COVILHÃ,-7.500697265021587,40.27997200488197
pt.ine.add.PTCONT.951206,R SENHORA DOS VERDES,3,6200-704,TEIXOSO,-7.457531308734413,40.31191415680273
pt.ine.add.PTCONT.951207,R SENHORA DOS VERDES,3,6200-704,TEIXOSO,-7.457531308734413,40.31191415680273
pt.ine.add.PTCONT.951208,R SENHORA DOS VERDES,3,6200-704,TEIXOSO,-7.457531308734413,40.31191415680273
pt.ine.add.PTCONT.951209,R SENHORA DOS VERDES,3,6200-704,TEIXOSO,-7.457531308734413,40.31191415680273
pt.ine.add.PTCONT.951210,R SENHORA DOS VERDES,3,6200-704,TEIXOSO,-7.457531308734413,40.31191415680273
pt.ine.add.PTCONT.951211,R SENHORA DOS VERDES,3,6200-704,TEIXOSO,-7.457531308734413,40.31191415680273
pt.ine.add.PTCONT.951212,R GEN HUMBERTO DELGADO,48,6200-014,COVILHÃ,-7.478438033928447,40.295860252009255
pt.ine.add.PTCONT.951260,R JOÃO DE DEUS,24,6200-679,TEIXOSO,-7.458233970842986,40.31223345440543
pt.ine.add.PTCONT.951317,BR ESPERTIM,6,6200-785,TORTOSENDO,-7.513715940999678,40.251395306805186
pt.ine.add.PTCONT.951318,SIT ESPERTIM,16,6200-815,TORTOSENDO,-7.513715940999678,40.251395306805186
pt.ine.add.PTCONT.951319,QTA ESPERTIM,14,6200-826,TORTOSENDO,-7.513715940999678,40.251395306805186
pt.ine.add.PTCONT.951320,QTA ESPERTIM,14,6200-826,TORTOSENDO,-7.513715940999678,40.251395306805186
pt.ine.add.PTCONT.951321,QTA SRA REMEDIOS,,6200-725,TORTOSENDO,-7.5169341687497635,40.245162514031435
pt.ine.add.PTCONT.951375,BR PENHA SOL,,6215-121,CORTES DO MEIO,-7.550146405753756,40.31364270353178
pt.ine.add.PTCONT.951376,,,6215-121,CORTES DO MEIO,-7.547471805710489,40.30730723756987
pt.ine.add.PTCONT.951377,,,6215-121,CORTES DO MEIO,-7.548821913808459,40.30625139829735
pt.ine.add.PTCONT.951378,R CARREIRA,6,6215-137,CORTES DO MEIO,-7.579561326605173,40.2569253031702
pt.ine.add.PTCONT.951379,GRUPO 35,7,6225-203,MINAS DA PANASQUEIRA,-7.758971467861401,40.16927016918464
pt.ine.add.PTCONT.951380,GRUPO 30,2,6225-203,MINAS DA PANASQUEIRA,-7.7582653800434285,40.16958309197543
pt.ine.add.PTCONT.951381,R NSA SRA DE FÁTIMA,,6225-280,MINAS DA PANASQUEIRA,-7.785105673770753,40.16883833209304
pt.ine.add.PTCONT.951382,R F,,6200-254,TORTOSENDO,-7.504916238503946,40.244638611244504
pt.ine.add.PTCONT.951383,ZN CRUZ DA SERRA,96,6200-736,TORTOSENDO,-7.527900633546588,40.24500424524669
pt.ine.add.PTCONT.951432,R NOVA RIBEIRO DA RELVA,,6200-584,COVILHÃ,-7.482577373400624,40.30696052891322
pt.ine.add.PTCONT.951433,R PORTAIS,8,6200-234,COVILHÃ,-7.4859082197278415,40.30799684633828
pt.ine.add.PTCONT.951434,R PORTAIS,8,6200-234,COVILHÃ,-7.4859082197278415,40.30799684633828
pt.ine.add.PTCONT.951435,R PORTAIS,8,6200-234,COVILHÃ,-7.4859082197278415,40.30799684633828
pt.ine.add.PTCONT.951436,R OURON,15,6200-232,COVILHÃ,-7.492212869807573,40.30804995641387
pt.ine.add.PTCONT.951437,R OURON,15,6200-232,COVILHÃ,-7.492212869807573,40.30804995641387
pt.ine.add.PTCONT.951438,R PROF SALCEDAS PAIS,15 A,6200-236,COVILHÃ,-7.490290440448559,40.30733685163335
pt.ine.add.PTCONT.951439,R AMOREIRA,15,6200-231,COVILHÃ,-7.491902514455495,40.307282758472624
pt.ine.add.PTCONT.951440,LG 25 ABRIL,10,6215-121,CORTES DO MEIO,-7.569629173992739,40.26679266282566
pt.ine.add.PTCONT.951441,R FONTE BAIXO,6,6215-147,CORTES DO MEIO,-7.578606894837394,40.257208917083645
pt.ine.add.PTCONT.951442,R CORREDOURO,20,6225-271,MINAS DA PANASQUEIRA,-7.782167393118797,40.167226411746626
pt.ine.add.PTCONT.951443,BR POMBAL,,6225-251,MINAS DA PANASQUEIRA,-7.784993066629751,40.167901379132424
pt.ine.add.PTCONT.951444,R DIREITA,,6225-267,MINAS DA PANASQUEIRA,-7.784541048739399,40.16676527459393
pt.ine.add.PTCONT.951445,LG EIRA,,6225-255,MINAS DA PANASQUEIRA,-7.784776746075063,40.16658586569933
pt.ine.add.PTCONT.951446,PEDRA DOS AMORES,,6200-109,COVILHÃ,-7.522890137325063,40.27946077784969
pt.ine.add.PTCONT.951447,BR S CATARINA,,6200-788,TORTOSENDO,-7.5289794205420515,40.23734599791459
pt.ine.add.PTCONT.951496,CAM STA BARBARA,,6225-051,ALDEIA S FRANCISCO ASSIS,-7.749006425824631,40.152297415746816
pt.ine.add.PTCONT.951497,R ADRO,7,6200-512,DOMINGUIZO,-7.525926976637362,40.210708984057476
pt.ine.add.PTCONT.951498,TV CIMO POVO,2,6200-528,DOMINGUIZO,-7.526723214522302,40.21099233733701
pt.ine.add.PTCONT.951499,TV CIMO POVO,2,6200-528,DOMINGUIZO,-7.526723214522302,40.21099233733701
pt.ine.add.PTCONT.951500,R LAURITA,26,6200-537,DOMINGUIZO,-7.525933807497811,40.20994352810554
pt.ine.add.PTCONT.951501,BR ALEGRIA,3,6200-317,COVILHÃ,-7.512294434133742,40.279611543225776
pt.ine.add.PTCONT.951502,R CARVALHAL,5,6200-722,TORTOSENDO,-7.5167970748436135,40.243432683733545
pt.ine.add.PTCONT.951536,TV AMOREIRA GRUPO 40,3,6225-051,ALDEIA S FRANCISCO ASSIS,-7.745646894035022,40.15487092339214
pt.ine.add.PTCONT.951537,TV AMOREIRA GRUPO 39,6,6225-051,ALDEIA S FRANCISCO ASSIS,-7.7459157648323,40.1550609471351
pt.ine.add.PTCONT.951538,R FERREIRO,,6200-501,ALDEIA DO SOUTO,-7.398782265132855,40.36723745739507
pt.ine.add.PTCONT.951539,ESTR MUNICIPAL,,6200-501,ALDEIA DO SOUTO,-7.394930288949815,40.36850072132219
pt.ine.add.PTCONT.951540,R COUCINHO,,6215-295,ERADA,-7.7161318366785885,40.24251076127372
pt.ine.add.PTCONT.951541,R A BR MUNICIPAL,21,6215-202,ERADA,-7.647051846587958,40.226266627075645
pt.ine.add.PTCONT.951542,R S PEDRO,4,6215-272,ERADA,-7.647173325354908,40.22570877804411
pt.ine.add.PTCONT.951543,R S PEDRO,4,6215-272,ERADA,-7.647173325354908,40.22570877804411
pt.ine.add.PTCONT.951544,R SAUDADE,57,6200-386,COVILHÃ,-7.510068893887778,40.27995980782557
pt.ine.add.PTCONT.951545,R SAUDADE,57,6200-386,COVILHÃ,-7.510068893887778,40.27995980782557
pt.ine.add.PTCONT.951546,R SAUDADE,57,6200-386,COVILHÃ,-7.510068893887778,40.27995980782557
pt.ine.add.PTCONT.951547,R SAUDADE,57,6200-386,COVILHÃ,-7.510068893887778,40.27995980782557
pt.ine.add.PTCONT.951548,R SAUDADE,57,6200-386,COVILHÃ,-7.510068893887778,40.27995980782557
pt.ine.add.PTCONT.951549,R SAUDADE,57,6200-386,COVILHÃ,-7.510068893887778,40.27995980782557
pt.ine.add.PTCONT.951550,R SAUDADE,57,6200-386,COVILHÃ,-7.510068893887778,40.27995980782557
pt.ine.add.PTCONT.951551,R SAUDADE,57,6200-386,COVILHÃ,-7.510068893887778,40.27995980782557
pt.ine.add.PTCONT.951552,R SAUDADE,57,6200-386,COVILHÃ,-7.510068893887778,40.27995980782557
pt.ine.add.PTCONT.951553,R SAUDADE,57,6200-386,COVILHÃ,-7.510068893887778,40.27995980782557
pt.ine.add.PTCONT.951554,R SAUDADE,57,6200-386,COVILHÃ,-7.510068893887778,40.27995980782557
pt.ine.add.PTCONT.951591,QTA PINHEIRO DA LUZ,,6200-708,TEIXOSO,-7.432622015149278,40.304417433559124
pt.ine.add.PTCONT.951596,AV 1 DE MAIO,78,6215-517,UNHAIS DA SERRA,-7.622135754008175,40.25855303409568
pt.ine.add.PTCONT.951603,R RAMAL DO CASTINCAL,,6200-579,COVILHÃ,-7.494514424387496,40.302236040971536
pt.ine.add.PTCONT.951605,R SANTO AMARO,,6230-900,OURONDO,-7.681947009587664,40.14120341740591
pt.ine.add.PTCONT.951606,R FONTE 25 DE ABRIL,1,6200-821,VERDELHOS,-7.4709175936751855,40.37582299164588
pt.ine.add.PTCONT.951610,R LIMOEIRO,,6200-501,ALDEIA DO SOUTO,-7.397315660962939,40.366768854854
pt.ine.add.PTCONT.951611,R ABRUNHEIROS,,6200-024,COVILHÃ,-7.479530351800679,40.27403671483348
pt.ine.add.PTCONT.951612,,,6200-821,VERDELHOS,-7.472920445617801,40.38656900711147
pt.ine.add.PTCONT.951613,R SAUDADE,57,6200-386,COVILHÃ,-7.510068893887778,40.27995980782557
pt.ine.add.PTCONT.951619,QTA LAGES,,6200-725,TORTOSENDO,-7.5169341687497635,40.245162514031435
pt.ine.add.PTCONT.951624,AV VIRIATO,,6215-171,CORTES DO MEIO,-7.579776770524806,40.2550081131284
pt.ine.add.PTCONT.951629,R ESCORREGUEIRA,10,6225-114,CASEGAS,-7.69860885643846,40.17639017130089
pt.ine.add.PTCONT.951633,R H,,6200-254,TORTOSENDO,-7.503771409181446,40.24262411398397
pt.ine.add.PTCONT.951634,R LAVANDEIRA,,6215-315,PAUL,-7.639651289514912,40.208250721954464
pt.ine.add.PTCONT.951641,R QUEBRA COSTAS,3,6200-649,TEIXOSO,-7.457358013617405,40.315137151771594
pt.ine.add.PTCONT.951644,BR MAQUINISTAS GRUPO 44,1,6225-051,ALDEIA S FRANCISCO ASSIS,-7.746411569645049,40.154558272304236
pt.ine.add.PTCONT.951647,R SENHORA DOS VERDES,3,6200-704,TEIXOSO,-7.457531308734413,40.31191415680273
pt.ine.add.PTCONT.951648,R GEN HUMBERTO DELGADO,48,6200-014,COVILHÃ,-7.478438033928447,40.295860252009255
pt.ine.add.PTCONT.951655,R NOVA,5,6200-811,VALES DO RIO,-7.5461329523905425,40.202311738737016
pt.ine.add.PTCONT.951661,EM 513,1,6215-064,BARCO CVL,-7.612834343061614,40.17297450162452
pt.ine.add.PTCONT.951662,BR CRUZ,,6200-570,FERRO,-7.440378219732217,40.23944323420878
pt.ine.add.PTCONT.951665,EM 507,54156,6200-275,COVILHÃ,-7.500128218568427,40.25776987232072
pt.ine.add.PTCONT.951673,AV ALM AMÉRICO TOMAZ,,6200-513,DOMINGUIZO,-7.530887558426088,40.21561603278909
pt.ine.add.PTCONT.951674,R DOS CASTANHEIROS,31,6225-201,MINAS DA PANASQUEIRA,-7.784326984171765,40.16730498456865
pt.ine.add.PTCONT.951678,R CONDE COVILHÃ,57,6215-632,UNHAIS DA SERRA,-7.624042625187919,40.261344210075585
pt.ine.add.PTCONT.951680,R DR AMANDIO MARTINS LEITAO,42,6215-607,UNHAIS DA SERRA,-7.625026839163191,40.260204807453675
pt.ine.add.PTCONT.951685,R DR AMANDIO MARTINS LEITAO,40,6215-607,UNHAIS DA SERRA,-7.625026839163191,40.260204807453675
pt.ine.add.PTCONT.951693,R CARREIRA DE TIRO,,6200-349,COVILHÃ,-7.52381769676733,40.27044196921183
pt.ine.add.PTCONT.951704,R BARROCA DO LOBO,24,6200-265,COVILHÃ,-7.50622085190739,40.28919684759581
pt.ine.add.PTCONT.951706,SIT ALVARES,,6200-570,FERRO,-7.440329748981188,40.255725254434
pt.ine.add.PTCONT.951716,R DR DUARTE SIMÕES,2A,6200-571,FERRO,-7.450077177150638,40.233196876163134
pt.ine.add.PTCONT.951717,R IGREJA,138,6200-560,COVILHÃ,-7.500570490630159,40.28726590087128
pt.ine.add.PTCONT.951720,R INDEPENDÊNCIA,7,6215-768,COUTADA,-7.588102616073012,40.190016861802754
pt.ine.add.PTCONT.951721,BR DR JOSE RANITO BALTASAR,99,6200-403,COVILHÃ,-7.514812157373374,40.291071226949576
pt.ine.add.PTCONT.951722,BR DR JOSE RANITO BALTASAR,99,6200-403,COVILHÃ,-7.514812157373374,40.291071226949576
pt.ine.add.PTCONT.951723,BR DR JOSE RANITO BALTASAR,99,6200-403,COVILHÃ,-7.514812157373374,40.291071226949576
pt.ine.add.PTCONT.951724,BR DR JOSE RANITO BALTASAR,99,6200-403,COVILHÃ,-7.514812157373374,40.291071226949576
pt.ine.add.PTCONT.951725,R CABO DA ALDEIA,1,6200-731,TORTOSENDO,-7.521989485226406,40.241046681852765
pt.ine.add.PTCONT.951726,R CABO DA ALDEIA,1,6200-731,TORTOSENDO,-7.521989485226406,40.241046681852765
pt.ine.add.PTCONT.952019,R FONTINHA,19,6215-397,PAUL,-7.633323369515081,40.19981213490172
pt.ine.add.PTCONT.951988,R JOSE CAETANO JUNIOR,12,6200-126,COVILHÃ,-7.510127412923717,40.28383256135201
pt.ine.add.PTCONT.951989,R JOSE CAETANO JUNIOR,12,6200-126,COVILHÃ,-7.510127412923717,40.28383256135201
pt.ine.add.PTCONT.951990,R JOSE CAETANO JUNIOR,12,6200-126,COVILHÃ,-7.510127412923717,40.28383256135201
pt.ine.add.PTCONT.951991,R JOSE CAETANO JUNIOR,12,6200-126,COVILHÃ,-7.510127412923717,40.28383256135201
pt.ine.add.PTCONT.951992,R EMIGRANTE,14,6200-530,DOMINGUIZO,-7.52870943861358,40.20822894285493
pt.ine.add.PTCONT.951993,R MERCADO,23,6215-425,PAUL,-7.6367242804821664,40.20211424840519
pt.ine.add.PTCONT.951994,QTA RIBEIRO DAS TRUTAS,,6215-122,CORTES DO MEIO,-7.593901914847047,40.24506941066132
pt.ine.add.PTCONT.951995,R CASAINHO,19,6200-523,DOMINGUIZO,-7.531953467532212,40.20666081642249
pt.ine.add.PTCONT.951996,R DIREITA,9,6230-901,OURONDO,-7.677114884532694,40.156620634271995
pt.ine.add.PTCONT.951997,TV LAMEIRA,,6215-415,PAUL,-7.638123734342483,40.20186807772538
pt.ine.add.PTCONT.951998,LG 25 DE ABRIL,11,6215-121,CORTES DO MEIO,-7.569852682751405,40.2667757395676
pt.ine.add.PTCONT.951999,LG 25 ABRIL,14,6215-121,CORTES DO MEIO,-7.569852682751405,40.2667757395676
pt.ine.add.PTCONT.952146,EM 513,35,6215-064,BARCO CVL,-7.606819827421057,40.17344264059121
pt.ine.add.PTCONT.952000,R FERREIRA DE CASTRO,25,6200-095,COVILHÃ,-7.497528743914637,40.2805580232811
pt.ine.add.PTCONT.952001,R FERREIRA DE CASTRO,25,6200-095,COVILHÃ,-7.497528743914637,40.2805580232811
pt.ine.add.PTCONT.952002,R FERREIRA DE CASTRO,25,6200-095,COVILHÃ,-7.497528743914637,40.2805580232811
pt.ine.add.PTCONT.952003,R FORNO,,6215-149,CORTES DO MEIO,-7.578762564523717,40.25685843951661
pt.ine.add.PTCONT.952004,R DR FRANCISCO ALMEIDA GARRETT,11,6215-226,ERADA,-7.646190875749505,40.22508324949419
pt.ine.add.PTCONT.952005,QTA MOURATA,,6200-580,ORJAIS,-7.4270672223537835,40.32162938616681
pt.ine.add.PTCONT.952006,R CIMO EIRA,5,6215-383,PAUL,-7.631707635918793,40.20231777366337
pt.ine.add.PTCONT.952007,QTA MOURATA,,6200-580,ORJAIS,-7.431195132231603,40.32180760225863
pt.ine.add.PTCONT.952008,R CIDADE DE CACERES,75B,6200-074,COVILHÃ,-7.510667841652528,40.28516830861197
pt.ine.add.PTCONT.952009,R CARREIRA,3,6230-900,OURONDO,-7.68169460510532,40.14742552876655
pt.ine.add.PTCONT.952010,R LAMEIRA,,6215-414,PAUL,-7.637619107179057,40.20181188389424
pt.ine.add.PTCONT.952011,R RIO,1,6230-900,OURONDO,-7.681391096522646,40.14718118531435
pt.ine.add.PTCONT.952012,TV ADRO,1,6215-128,CORTES DO MEIO,-7.578447337522609,40.25659576294037
pt.ine.add.PTCONT.952013,QTA BARROCA EREIRA,,6200-580,ORJAIS,-7.427282942331199,40.34045234414289
pt.ine.add.PTCONT.952014,R SANTO AMARO,7,6230-900,OURONDO,-7.682585049742244,40.14587097194353
pt.ine.add.PTCONT.952015,QTA BARROCAS,,6200-580,ORJAIS,-7.395436953050454,40.3436216989104
pt.ine.add.PTCONT.952016,R CIMA,1B,6215-380,PAUL,-7.637681239184317,40.20134384678
pt.ine.add.PTCONT.952017,BC MEIO,16,6200-143,COVILHÃ,-7.505614018117811,40.2823312424413
pt.ine.add.PTCONT.952018,R CAVA,,6215-468,PAUL,-7.616079581577154,40.22025163687259
pt.ine.add.PTCONT.952020,R JOÃO BATISTA ROSETA,2,6200-119,COVILHÃ,-7.498798665671603,40.281816780022666
pt.ine.add.PTCONT.952021,TV CIMO POVO,5,6200-528,DOMINGUIZO,-7.52631354953502,40.21082808639351
pt.ine.add.PTCONT.952022,TV RUA DIREITA,,6200-529,DOMINGUIZO,-7.525405164474936,40.20994975972126
pt.ine.add.PTCONT.952023,R PONTE,,6215-439,PAUL,-7.638633989644678,40.2043828837651
pt.ine.add.PTCONT.952024,EN 339,,6215-121,CORTES DO MEIO,-7.551756610031268,40.311075194868955
pt.ine.add.PTCONT.952025,TV FONTE VELHA,18A,6200-581,ORJAIS,-7.408253711996693,40.34034366208073
pt.ine.add.PTCONT.952026,EN 343,,6215-468,PAUL,-7.6232656543125445,40.21605979351714
pt.ine.add.PTCONT.952027,R LAGES,4,6215-410,PAUL,-7.63939119233931,40.20038752863412
pt.ine.add.PTCONT.952028,R DR ALBERTO RATO,5,6200-125,COVILHÃ,-7.510802721641715,40.28456565449223
pt.ine.add.PTCONT.952029,R DR ALBERTO RATO,5,6200-125,COVILHÃ,-7.510802721641715,40.28456565449223
pt.ine.add.PTCONT.952030,TV S SEBASTIÃO,,6200-199,COVILHÃ,-7.510850664802317,40.28446685000651
pt.ine.add.PTCONT.952031,TV S SEBASTIÃO,,6200-199,COVILHÃ,-7.510850664802317,40.28446685000651
pt.ine.add.PTCONT.952032,TV S SEBASTIÃO,,6200-199,COVILHÃ,-7.510850664802317,40.28446685000651
pt.ine.add.PTCONT.952033,R ESCOLA,,6215-295,ERADA,-7.715317519368443,40.24306780661798
pt.ine.add.PTCONT.952034,QTA SOUTO VELHO,CP 9111,6200-570,FERRO,-7.469751869498454,40.21586718391556
pt.ine.add.PTCONT.952035,R VALE,,6215-466,PAUL,-7.642050206460542,40.20299251735358
pt.ine.add.PTCONT.952036,,,6225-295,MINAS DA PANASQUEIRA,-7.760241899929603,40.19024897665486
pt.ine.add.PTCONT.952037,QTA RIBEIRA DAGUA ALTA,,6200-331,COVILHÃ,-7.514710928299523,40.266043908913296
pt.ine.add.PTCONT.952038,R CASAL DOS TINOUCOS,5,6200-590,PERABOA,-7.389485248904911,40.2875238421137
pt.ine.add.PTCONT.952039,GRUPO 35,2,6225-203,MINAS DA PANASQUEIRA,-7.7584892681628395,40.169430716256876
pt.ine.add.PTCONT.952040,R COSTA,,6225-261,MINAS DA PANASQUEIRA,-7.785729884514557,40.1661384336608
pt.ine.add.PTCONT.952041,R LAGES,2,6200-351,COVILHÃ,-7.507261661041262,40.2796294591957
pt.ine.add.PTCONT.952042,R LAGES,2,6200-351,COVILHÃ,-7.507261661041262,40.2796294591957
pt.ine.add.PTCONT.952043,R LAGES,2,6200-351,COVILHÃ,-7.507261661041262,40.2796294591957
pt.ine.add.PTCONT.952044,R LAGES,4,6200-131,COVILHÃ,-7.507261661041262,40.2796294591957
pt.ine.add.PTCONT.952045,ESTR MUNICIPAL,14,6200-591,PERABOA,-7.393822163319018,40.25643711475032
pt.ine.add.PTCONT.952046,R JOÃO BERNARDO DA CUNHA MATOS,2OA,6200-612,PESO,-7.561277344449305,40.1975244025375
pt.ine.add.PTCONT.952047,ESTR MUNICIPAL,,6200-623,PESO,-7.555360886022577,40.19582894991627
pt.ine.add.PTCONT.952048,R BARROCA,,6200-637,PESO,-7.558359112278928,40.19819439234136
pt.ine.add.PTCONT.952049,R CENTRO DE ARTES,4,6200-505,COVILHÃ,-7.499953425042649,40.27147558312898
pt.ine.add.PTCONT.952050,R CENTRO DE ARTES,4,6200-505,COVILHÃ,-7.499953425042649,40.27147558312898
pt.ine.add.PTCONT.952051,R CENTRO DE ARTES,4,6200-505,COVILHÃ,-7.499953425042649,40.27147558312898
pt.ine.add.PTCONT.952052,R CENTRO DE ARTES,4,6200-505,COVILHÃ,-7.499953425042649,40.27147558312898
pt.ine.add.PTCONT.952053,R CENTRO DE ARTES,4,6200-505,COVILHÃ,-7.499953425042649,40.27147558312898
pt.ine.add.PTCONT.952054,R CENTRO DE ARTES,4,6200-505,COVILHÃ,-7.499953425042649,40.27147558312898
pt.ine.add.PTCONT.952055,R PEDRA SEIXINHA,,6200-627,PESO,-7.563003354692642,40.19897384599361
pt.ine.add.PTCONT.952056,AV ANIL,3,6200-502,COVILHÃ,-7.498398769928116,40.273025048910334
pt.ine.add.PTCONT.952057,R CENTRO DE ARTES,4,6200-505,COVILHÃ,-7.499953425042649,40.27147558312898
pt.ine.add.PTCONT.952058,R CENTRO DE ARTES,4,6200-505,COVILHÃ,-7.499953425042649,40.27147558312898
pt.ine.add.PTCONT.952059,R CENTRO DE ARTES,4,6200-505,COVILHÃ,-7.499953425042649,40.27147558312898
pt.ine.add.PTCONT.952060,R CENTRO DE ARTES,4,6200-505,COVILHÃ,-7.499953425042649,40.27147558312898
pt.ine.add.PTCONT.952061,R CENTRO DE ARTES,4,6200-505,COVILHÃ,-7.499953425042649,40.27147558312898
pt.ine.add.PTCONT.952062,R CENTRO DE ARTES,4,6200-505,COVILHÃ,-7.499953425042649,40.27147558312898
pt.ine.add.PTCONT.952063,R CENTRO DE ARTES,4,6200-505,COVILHÃ,-7.499953425042649,40.27147558312898
pt.ine.add.PTCONT.952064,R CENTRO DE ARTES,4,6200-505,COVILHÃ,-7.499953425042649,40.27147558312898
pt.ine.add.PTCONT.952065,R CENTRO DE ARTES,4,6200-505,COVILHÃ,-7.499953425042649,40.27147558312898
pt.ine.add.PTCONT.952066,R CENTRO DE ARTES,4,6200-505,COVILHÃ,-7.499953425042649,40.27147558312898
pt.ine.add.PTCONT.952067,AV ANIL,3,6200-502,COVILHÃ,-7.498398769928116,40.273025048910334
pt.ine.add.PTCONT.952068,AV ANIL,3,6200-502,COVILHÃ,-7.498398769928116,40.273025048910334
pt.ine.add.PTCONT.952069,AV ANIL,3,6200-502,COVILHÃ,-7.498398769928116,40.273025048910334
pt.ine.add.PTCONT.952070,AV ANIL,3,6200-502,COVILHÃ,-7.498398769928116,40.273025048910334
pt.ine.add.PTCONT.952071,AV ANIL,3,6200-502,COVILHÃ,-7.498398769928116,40.273025048910334
pt.ine.add.PTCONT.952072,AV ANIL,3,6200-502,COVILHÃ,-7.498398769928116,40.273025048910334
pt.ine.add.PTCONT.952073,AV ANIL,3,6200-502,COVILHÃ,-7.498398769928116,40.273025048910334
pt.ine.add.PTCONT.952074,AV ANIL,3,6200-502,COVILHÃ,-7.498398769928116,40.273025048910334
pt.ine.add.PTCONT.952075,AV ANIL,3,6200-502,COVILHÃ,-7.498398769928116,40.273025048910334
pt.ine.add.PTCONT.952076,AV ANIL,3,6200-502,COVILHÃ,-7.498398769928116,40.273025048910334
pt.ine.add.PTCONT.952077,R LAGOEIRO,,6200-292,COVILHÃ,-7.4871102821237985,40.270711157387105
pt.ine.add.PTCONT.952078,BR POMBAL,37,6225-251,MINAS DA PANASQUEIRA,-7.785120770281691,40.16818094618435
pt.ine.add.PTCONT.952079,LG QUELHINHA,4,6215-448,PAUL,-7.637520618386989,40.200820821196636
pt.ine.add.PTCONT.952080,QTA PECALVO,,6200-590,PERABOA,-7.396395120033323,40.25980363368767
pt.ine.add.PTCONT.952081,PECALVO,,6200-590,PERABOA,-7.399352157581234,40.25702165762035
pt.ine.add.PTCONT.952082,R JOÃO BERNARDO DA CUNHA MATOS,27,6200-612,PESO,-7.561448109907249,40.19676875742424
pt.ine.add.PTCONT.952083,R SENHOR DA PACIENCIA,44,6200-158,COVILHÃ,-7.506189480784912,40.281136607786834
pt.ine.add.PTCONT.952084,,,6225-201,MINAS DA PANASQUEIRA,-7.742629423228775,40.163254300198204
pt.ine.add.PTCONT.952085,R SUMAGRAL,10,6215-458,PAUL,-7.63277648455897,40.19911632359728
pt.ine.add.PTCONT.952086,R ABELHEIRA,13,6200-591,PERABOA,-7.388280514771362,40.255852232750605
pt.ine.add.PTCONT.952087,R SERRADO,4,6200-632,PESO,-7.563060985445261,40.1962994026275
pt.ine.add.PTCONT.952088,TV ESTRELA,19,6200-091,COVILHÃ,-7.503269009746641,40.27906745400955
pt.ine.add.PTCONT.952089,TV ESTRELA,19,6200-091,COVILHÃ,-7.503269009746641,40.27906745400955
pt.ine.add.PTCONT.952090,R LAMEIRA,18,6200-591,PERABOA,-7.386753245547568,40.25705840125299
pt.ine.add.PTCONT.952091,TV SAUDADE,81,6200-387,COVILHÃ,-7.511833734680431,40.27984321800274
pt.ine.add.PTCONT.952092,R SANTUARIO SEPARADORA,20,6215-421,PAUL,-7.633221126770215,40.19454328082226
pt.ine.add.PTCONT.952093,SIT QUINTAS DA SERRA,6069,6200-590,PERABOA,-7.400555683849694,40.234794228678425
pt.ine.add.PTCONT.952097,TV LARGO DE S PEDRO,5,6225-138,CASEGAS,-7.699225819153107,40.177221025952676
pt.ine.add.PTCONT.952099,R PORTAIS,72,6200-234,COVILHÃ,-7.488943257917857,40.307986768817614
pt.ine.add.PTCONT.952101,TV RUA DIREITA,1,6225-028,ALDEIA S FRANCISCO ASSIS,-7.7350867060791995,40.14228083890563
pt.ine.add.PTCONT.952103,EM 512,70,6225-012,ALDEIA S FRANCISCO ASSIS,-7.734509820188186,40.14059474364069
pt.ine.add.PTCONT.952104,R QUINTA DO PADRE,,6200-501,ALDEIA DO SOUTO,-7.401094379409255,40.35376185200739
pt.ine.add.PTCONT.952105,3 TV DO BAIRRO DOS FREIXOS,2,6200-804,COVILHÃ,-7.4894229895494915,40.25494606946294
pt.ine.add.PTCONT.952106,3 TV DA RUA DOS PLOMES,,6225-105,CASEGAS,-7.700868120142082,40.177443310037766
pt.ine.add.PTCONT.952109,TV FERRISTAS GRUPO 47,5,6225-051,ALDEIA S FRANCISCO ASSIS,-7.744427022773654,40.156794102094956
pt.ine.add.PTCONT.952110,EM 507,,6200-275,COVILHÃ,-7.497951264172325,40.25550651757139
pt.ine.add.PTCONT.952111,R CALVA BATERIA,1500,6200-440,COVILHÃ,-7.494041584181027,40.292498330694215
pt.ine.add.PTCONT.952115,R PORTAIS,56,6200-234,COVILHÃ,-7.489312739088126,40.30871828109493
pt.ine.add.PTCONT.952116,TV CARVOEIRA,,6200-226,COVILHÃ,-7.493413951284548,40.30542696075346
pt.ine.add.PTCONT.952117,R CALVA,7,6200-440,COVILHÃ,-7.501066655549825,40.28828625181645
pt.ine.add.PTCONT.952120,URB QUINTA ALAMPADA,,6200-250,COVILHÃ,-7.499064622958625,40.25208144716708
pt.ine.add.PTCONT.952123,BR FORMIGUINHA,,6200-241,COVILHÃ,-7.489973483639398,40.309748597235355
pt.ine.add.PTCONT.952124,BR FORMIGUINHA,,6200-241,COVILHÃ,-7.489973483639398,40.309748597235355
pt.ine.add.PTCONT.952125,R GRUPO RECREATIVO REFUGIENSE,,6200-186,COVILHÃ,-7.50585832085735,40.263528700167896
pt.ine.add.PTCONT.952126,ESTR MUNICIPAL,20,6225-108,CASEGAS,-7.696924226619882,40.171781830517666
pt.ine.add.PTCONT.952128,QTA BELA VISTA,,6200-223,COVILHÃ,-7.475236373579576,40.305829336114265
pt.ine.add.PTCONT.952133,SIT PORTELA,,6200-244,COVILHÃ,-7.4876956627431746,40.31547248972908
pt.ine.add.PTCONT.952134,SIT PORTELA,,6200-244,COVILHÃ,-7.4876956627431746,40.31547248972908
pt.ine.add.PTCONT.952135,TV SAFREIROS,,6225-051,ALDEIA S FRANCISCO ASSIS,-7.747922192635765,40.15516670409253
pt.ine.add.PTCONT.952137,R DIREITA,5,6215-043,BARCO CVL,-7.60803652317339,40.17399752256415
pt.ine.add.PTCONT.952138,LG DR CARLOS COELHO,8,6200-225,COVILHÃ,-7.493269950951493,40.306975132519305
pt.ine.add.PTCONT.952139,LG DR CARLOS COELHO,8,6200-225,COVILHÃ,-7.493269950951493,40.306975132519305
pt.ine.add.PTCONT.952140,LG DR CARLOS COELHO,8,6200-225,COVILHÃ,-7.493269950951493,40.306975132519305
pt.ine.add.PTCONT.952141,BR MAQUINISTAS GRUPO 45,6,6225-051,ALDEIA S FRANCISCO ASSIS,-7.746189492690565,40.15439542383651
pt.ine.add.PTCONT.952142,LG AMOREIRA,,6215-031,BARCO CVL,-7.6085197967362515,40.17374754909177
pt.ine.add.PTCONT.952143,R CARAMOCO,14,6225-127,CASEGAS,-7.698154844774672,40.17762227196892
pt.ine.add.PTCONT.952145,R ENG ANTÓNIO CLAUDIO DOS REIS BR STAFF,25,6225-051,ALDEIA S FRANCISCO ASSIS,-7.7490109410794945,40.15149590316688
pt.ine.add.PTCONT.952147,R CENTRO PAROQUIAL,2,6200-301,COVILHÃ,-7.493757668308315,40.25147588356024
pt.ine.add.PTCONT.952148,BR CABECO DA PONTE,37,6215-518,UNHAIS DA SERRA,-7.620258241224125,40.25812145908107
pt.ine.add.PTCONT.952149,BR CABECO DA PONTE,5,6215-518,UNHAIS DA SERRA,-7.620526552598813,40.25839281993465
pt.ine.add.PTCONT.952150,BR CABECO DA PONTE,5,6215-518,UNHAIS DA SERRA,-7.620526552598813,40.25839281993465
pt.ine.add.PTCONT.952151,SOUTO ESCURO,8,6200-789,TORTOSENDO,-7.526676682306815,40.23070572333159
pt.ine.add.PTCONT.952152,AV MONTES HERMINIOS,41,6200-759,TORTOSENDO,-7.527240861286405,40.24255123332504
pt.ine.add.PTCONT.952153,QTA BALDONADA,,6200-729,TORTOSENDO,-7.518294303614073,40.2312198556883
pt.ine.add.PTCONT.952154,SOUTO ESCURO,8,6200-789,TORTOSENDO,-7.526676682306815,40.23070572333159
pt.ine.add.PTCONT.952155,EM 513 1 TRANSVERSAL,6,6200-789,TORTOSENDO,-7.528638615959261,40.229419157677235
pt.ine.add.PTCONT.952156,QTA COVELO,,6200-024,COVILHÃ,-7.469346723126046,40.27541064667778
pt.ine.add.PTCONT.952157,R COMEND MENDES VEIGA,12,6200-147,COVILHÃ,-7.50354156933579,40.28137438924239
pt.ine.add.PTCONT.952158,LAD GRANDE,,6200-815,TORTOSENDO,-7.518026606718499,40.253012310597974
pt.ine.add.PTCONT.952159,R REPUBLICA,2,6200-710,TEIXOSO,-7.419655953892017,40.31817079723647
pt.ine.add.PTCONT.952160,SIT OUTEIRO,,6200-641,SARZEDO CVL,-7.431316228095675,40.36122565241163
pt.ine.add.PTCONT.952161,R 25 DE ABRIL,1B,6200-722,TORTOSENDO,-7.516135306196705,40.243834415576295
pt.ine.add.PTCONT.952162,R LADEIRAS,2,6225-321,SOBRAL DE SÃO MIGUEL,-7.740386812643205,40.21222063867349
pt.ine.add.PTCONT.952163,QTA PEDRACHA,303,6200-815,TORTOSENDO,-7.517954245835233,40.24802275630816
pt.ine.add.PTCONT.952164,R SENHORA DO ROSÁRIO,31,6200-773,TORTOSENDO,-7.523787939616998,40.23968729225911
pt.ine.add.PTCONT.952165,R VIA ROMANA,,6215-514,UNHAIS DA SERRA,-7.623136944625764,40.26297926529664
pt.ine.add.PTCONT.952166,FTE FONTE FRIA DE CIMA,5,6200-785,TORTOSENDO,-7.532655452255498,40.23225886810431
pt.ine.add.PTCONT.952167,QTA PINHEIRO DA LUZ,,6200-708,TEIXOSO,-7.437707124202364,40.30291715703498
pt.ine.add.PTCONT.952168,RIBEIRO NEGRO,,6200-815,TORTOSENDO,-7.51387856243573,40.24902767253229
pt.ine.add.PTCONT.952169,QTA RIBEIRO DOS FORNOS,,6200-788,TORTOSENDO,-7.501863279456175,40.23169876821255
pt.ine.add.PTCONT.952170,MAIORAIS BAIXO,CX 856,6200-785,TORTOSENDO,-7.539011078985585,40.23105787814964
pt.ine.add.PTCONT.952171,R QUINTA CARQUEIJA,1017,6200-588,TEIXOSO,-7.466406104117559,40.31741403609295
pt.ine.add.PTCONT.952172,QTA PRAZO,,6200-788,TORTOSENDO,-7.521979564853561,40.23692200038936
pt.ine.add.PTCONT.952173,R CABEÇO,16,6200-721,TORTOSENDO,-7.532150246132437,40.23092339429669
pt.ine.add.PTCONT.952174,QTA VALE DO MOURO,,6200-709,TEIXOSO,-7.451714694779324,40.31711229803428
pt.ine.add.PTCONT.952175,AV VIRIATO,14,6200-725,TORTOSENDO,-7.5278957928515515,40.2349898365645
pt.ine.add.PTCONT.952176,R NOVA DO SOUTO,1,6200-761,TORTOSENDO,-7.529644889332572,40.23518809050955
pt.ine.add.PTCONT.952184,BR BARREIROS,10,6215-659,UNHAIS DA SERRA,-7.6250093229359255,40.26254622091483
pt.ine.add.PTCONT.952284,R POUCA FARINHA,13,6200-801,VALE FORMOSO,-7.377713246450949,40.3762153136409
pt.ine.add.PTCONT.952285,R TORGAL,1,6215-783,COUTADA,-7.587744049855649,40.19226663115656
pt.ine.add.PTCONT.952286,R LAMEIRAO DE BAIXO,65 A,6200-415,COVILHÃ,-7.499624246466744,40.29288925836815
pt.ine.add.PTCONT.952289,AV NSA SRA DA SAÚDE,74,6215-615,UNHAIS DA SERRA,-7.626238807084677,40.25374400154138
pt.ine.add.PTCONT.952290,AV 1 CABO JOAQUIM PAIS TAGANHO,,6200-821,VERDELHOS,-7.4657462505190875,40.37483867965104
pt.ine.add.PTCONT.952291,R MANUEL ALCADA PADEZ,53,6200-017,COVILHÃ,-7.470990756171735,40.2973128070391
pt.ine.add.PTCONT.952292,R MANUEL ALCADA PADEZ,53,6200-017,COVILHÃ,-7.470990756171735,40.2973128070391
pt.ine.add.PTCONT.952293,R MANUEL ALCADA PADEZ,53,6200-017,COVILHÃ,-7.470990756171735,40.2973128070391
pt.ine.add.PTCONT.952294,R MANUEL ALCADA PADEZ,53,6200-017,COVILHÃ,-7.470990756171735,40.2973128070391
pt.ine.add.PTCONT.952296,,,6200-801,VALE FORMOSO,-7.350318029445789,40.37064784014805
pt.ine.add.PTCONT.952297,R MANUEL ALCADA PADEZ,53,6200-017,COVILHÃ,-7.470990756171735,40.2973128070391
pt.ine.add.PTCONT.952299,,,6200-801,VALE FORMOSO,-7.353515019717642,40.38645602952797
pt.ine.add.PTCONT.952302,QTA SINQUE,,6200-800,VALE FORMOSO,-7.3822244684767755,40.37291266320048
pt.ine.add.PTCONT.952303,R JUNTA DE FREGUESIA,,6200-449,COVILHÃ,-7.507682868234401,40.29544631568812
pt.ine.add.PTCONT.952305,BR NOVO DE S JOSE,4,6215-658,UNHAIS DA SERRA,-7.624276560996209,40.259931338843494
pt.ine.add.PTCONT.952306,,,6200-800,VALE FORMOSO,-7.363330295054854,40.36738514474114
pt.ine.add.PTCONT.952307,BC RUA DIREITA,13,6200-821,VERDELHOS,-7.467546741395191,40.37494811664815
pt.ine.add.PTCONT.952308,R SENHORA DA CONCEIÇÃO,7,6200-444,COVILHÃ,-7.505991852708271,40.29488717990072
pt.ine.add.PTCONT.952309,R SENHORA DA CONCEIÇÃO,7,6200-444,COVILHÃ,-7.505991852708271,40.29488717990072
pt.ine.add.PTCONT.952312,R DIREITA DA BORRALHEIRA,,6200-821,VERDELHOS,-7.464642466105304,40.37333738906535
pt.ine.add.PTCONT.952316,R SARDEIRAL,4,6200-801,VALE FORMOSO,-7.376863679588472,40.37742550119772
pt.ine.add.PTCONT.952317,TV PESCADOR,2,6200-821,VERDELHOS,-7.468678323087798,40.376026279890205
pt.ine.add.PTCONT.952318,BC PRESA,,6200-434,COVILHÃ,-7.507886900314918,40.29727492736639
pt.ine.add.PTCONT.952319,R OUTEIRO,19,6200-821,VERDELHOS,-7.47083552509585,40.375786499621356
pt.ine.add.PTCONT.952320,R BAIUCA,1,6200-001,COVILHÃ,-7.480213244275035,40.293492793957604
pt.ine.add.PTCONT.952322,R 1 DE DEZEMBRO,10,6200-801,VALE FORMOSO,-7.377708519754653,40.37663854051794
pt.ine.add.PTCONT.952323,LG BOAVISTA,4,6200-821,VERDELHOS,-7.4685679212001705,40.37527818784841
pt.ine.add.PTCONT.952324,BC N 2 DO CALVÁRIO,7,6215-789,COUTADA,-7.5878687504793,40.19282557998697
pt.ine.add.PTCONT.952325,R INDUSTRIA,7,6200-114,COVILHÃ,-7.5045734272813345,40.29311437531889
pt.ine.add.PTCONT.952326,R JOÃO XXIII,101,6200-015,COVILHÃ,-7.479206374442789,40.297899871511234
pt.ine.add.PTCONT.952329,R ESCOLAS,6,6200-811,VALES DO RIO,-7.546944523557366,40.203540640319595
pt.ine.add.PTCONT.952330,R LAMEIRAO BAIXO,,6200-408,COVILHÃ,-7.501409354300296,40.293160182557834
pt.ine.add.PTCONT.952331,R LAMEIRAO BAIXO,,6200-408,COVILHÃ,-7.501409354300296,40.293160182557834
pt.ine.add.PTCONT.952332,R ESCOLAS,6,6200-811,VALES DO RIO,-7.546944523557366,40.203540640319595
pt.ine.add.PTCONT.952333,ESTR MUNICIPAL,71,6200-811,VALES DO RIO,-7.547134574288199,40.201929563744365
pt.ine.add.PTCONT.952334,R CALVÁRIO,12,6215-755,COUTADA,-7.58842845298407,40.19185558510558
pt.ine.add.PTCONT.952654,R FERREIRA DE CASTRO,25,6200-095,COVILHÃ,-7.497528743914637,40.2805580232811
pt.ine.add.PTCONT.952662,R CENTRO DE ARTES,4,6200-505,COVILHÃ,-7.499953425042649,40.27147558312898
pt.ine.add.PTCONT.952667,R DR JOSE QUENTAL CALHEIROS A CARVALHO,2,6200-326,COVILHÃ,-7.509226411442805,40.2667169131859
pt.ine.add.PTCONT.952675,R MOUTAS,13,6215-521,UNHAIS DA SERRA,-7.623784548346296,40.258137033019125
pt.ine.add.PTCONT.952679,R TAPADA,3,6200-590,PERABOA,-7.383100260119566,40.25640632317366
pt.ine.add.PTCONT.952684,QTA VALE DO MOURO,,6200-709,TEIXOSO,-7.451714694779324,40.31711229803428
pt.ine.add.PTCONT.952688,R MANUEL ALCADA PADEZ,53,6200-017,COVILHÃ,-7.470990756171735,40.2973128070391
pt.ine.add.PTCONT.952695,QTA DAS ALMAS BAIUCA,,6200-001,COVILHÃ,-7.480377492282761,40.29597927800352
pt.ine.add.PTCONT.952696,QTA DAS ALMAS BAIUCA,,6200-001,COVILHÃ,-7.480377492282761,40.29597927800352
pt.ine.add.PTCONT.952697,QTA DAS ALMAS BAIUCA,,6200-001,COVILHÃ,-7.480377492282761,40.29597927800352
pt.ine.add.PTCONT.952698,QTA DAS ALMAS BAIUCA,,6200-001,COVILHÃ,-7.480377492282761,40.29597927800352
pt.ine.add.PTCONT.952699,QTA DAS ALMAS BAIUCA,,6200-001,COVILHÃ,-7.480377492282761,40.29597927800352
pt.ine.add.PTCONT.952701,QTA DAS ALMAS BAIUCA,,6200-001,COVILHÃ,-7.480377492282761,40.29597927800352
pt.ine.add.PTCONT.952702,QTA DAS ALMAS BAIUCA,,6200-001,COVILHÃ,-7.480377492282761,40.29597927800352
pt.ine.add.PTCONT.952709,QTA DA VARZEA,,6200-643,TEIXOSO,-7.461349926789972,40.30526323292428
pt.ine.add.PTCONT.952738,URB DR ANTUNES FERREIRA,12,6200-816,COVILHÃ,-7.512271416968029,40.262842828947505
pt.ine.add.PTCONT.952739,R D CRISTOVÃO DE CASTRO,24,6200-351,COVILHÃ,-7.507261661041262,40.2796294591957
pt.ine.add.PTCONT.952740,R D CRISTOVÃO DE CASTRO,26,6200-351,COVILHÃ,-7.507261661041262,40.2796294591957
pt.ine.add.PTCONT.952741,R PORTAIS,56A,6200-234,COVILHÃ,-7.489312739088126,40.30871828109493
pt.ine.add.PTCONT.952742,R PORTAIS,56A,6200-234,COVILHÃ,-7.489312739088126,40.30871828109493
pt.ine.add.PTCONT.952743,R PORTAIS,56A,6200-234,COVILHÃ,-7.489312739088126,40.30871828109493
pt.ine.add.PTCONT.954264,R TORGAL,,6215-295,ERADA,-7.7152246115812355,40.24288735559064
pt.ine.add.PTCONT.952756,CAM RIBEIRO DE FLANDRES,4,6200-820,COVILHÃ,-7.495387241494537,40.28821906466363
pt.ine.add.PTCONT.952762,R DR ALBERTO RATO,5,6200-125,COVILHÃ,-7.510802721641715,40.28456565449223
pt.ine.add.PTCONT.952783,R CAPELA,15,6200-443,COVILHÃ,-7.505277287772794,40.29330731564034
pt.ine.add.PTCONT.952784,R CAPELA,15,6200-443,COVILHÃ,-7.505277287772794,40.29330731564034
pt.ine.add.PTCONT.953096,QTA NOVA,,6200-570,FERRO,-7.458458284896119,40.22104325736286
pt.ine.add.PTCONT.953097,R DR CARLOS COELHO,144,6200-571,FERRO,-7.445976451329291,40.233181608319086
pt.ine.add.PTCONT.953098,R D MARIA JOSE ALCADA,18,6200-558,COVILHÃ,-7.50452548567491,40.288133987250134
pt.ine.add.PTCONT.953099,R D FILOMENA ANAQUIM,68,6200-557,COVILHÃ,-7.503988314646314,40.28772581295585
pt.ine.add.PTCONT.953100,R VALADA,2,6215-285,ERADA,-7.645230003217224,40.22472797733398
pt.ine.add.PTCONT.953101,TV ROSSIO,9,6200-571,FERRO,-7.445658572983411,40.23324276070712
pt.ine.add.PTCONT.953102,TV ROSSIO,26,6200-571,FERRO,-7.445458464180426,40.23327759483274
pt.ine.add.PTCONT.953103,R ROSSIO,14,6200-571,FERRO,-7.44506862857456,40.233482409653284
pt.ine.add.PTCONT.953104,EN 18,22,6200-581,ORJAIS,-7.403595375481242,40.34014326981294
pt.ine.add.PTCONT.953106,R PINHOS MANSOS,7,6215-273,ERADA,-7.646311408545755,40.226299538459095
pt.ine.add.PTCONT.953107,TV ROSSIO,3,6200-571,FERRO,-7.44574182224849,40.23314419216991
pt.ine.add.PTCONT.953108,R SOUTOS,22,6200-571,FERRO,-7.443030211940798,40.23287589560891
pt.ine.add.PTCONT.953109,R SOUTOS,22,6200-571,FERRO,-7.443030211940798,40.23287589560891
pt.ine.add.PTCONT.953110,BR CRUZ,1C,6200-570,FERRO,-7.440015783596163,40.23926094992383
pt.ine.add.PTCONT.953111,R JOSE PROENCA FAZENDA,9,6200-571,FERRO,-7.444517655111547,40.24031447464306
pt.ine.add.PTCONT.953112,R EIRA,10,6230-901,OURONDO,-7.676315536110071,40.15505045575964
pt.ine.add.PTCONT.953113,QTA OURONDINHO,,6215-175,CORTES DO MEIO,-7.603717853612873,40.237189660950634
pt.ine.add.PTCONT.953114,QTA VALE RELVAS,64,6200-571,FERRO,-7.4536336484944155,40.235937539957945
pt.ine.add.PTCONT.953115,R NSA SRA DO CARMO,5,6230-900,OURONDO,-7.679341781477182,40.14828090114193
pt.ine.add.PTCONT.953116,R FUNDO POVO,37,6215-399,PAUL,-7.6393843985448475,40.201324105900525
pt.ine.add.PTCONT.953117,R DR ANTÓNIO PLACIDO DA COSTA,16,6200-051,COVILHÃ,-7.505653558050652,40.28314196700809
pt.ine.add.PTCONT.953118,R DR ANTÓNIO PLACIDO DA COSTA,16,6200-051,COVILHÃ,-7.505653558050652,40.28314196700809
pt.ine.add.PTCONT.953119,R DR ANTÓNIO PLACIDO DA COSTA,16,6200-051,COVILHÃ,-7.505653558050652,40.28314196700809
pt.ine.add.PTCONT.953120,R DR ANTÓNIO PLACIDO DA COSTA,16,6200-051,COVILHÃ,-7.505653558050652,40.28314196700809
pt.ine.add.PTCONT.953121,R DR ANTÓNIO PLACIDO DA COSTA,16,6200-051,COVILHÃ,-7.505653558050652,40.28314196700809
pt.ine.add.PTCONT.953122,QTA PORTELA,,6200-570,FERRO,-7.438568251295095,40.24636678237433
pt.ine.add.PTCONT.953123,QTA CARROCA,,6200-580,ORJAIS,-7.419375468419148,40.33363164010882
pt.ine.add.PTCONT.953124,QTA TAPADA DA LAGE,,6200-570,FERRO,-7.4149745583744,40.262514061406215
pt.ine.add.PTCONT.953125,TV VALADA,5,6215-286,ERADA,-7.645829763800514,40.224649451703826
pt.ine.add.PTCONT.953126,LG CANTO,11,6200-067,COVILHÃ,-7.505164869321932,40.28258096444422
pt.ine.add.PTCONT.953127,TV S ROQUE,11,6215-164,CORTES DO MEIO,-7.578048731450326,40.25646777153072
pt.ine.add.PTCONT.953128,QTA RIBEIRO MOINHOS,,6200-570,FERRO,-7.450120504431461,40.24642653113905
pt.ine.add.PTCONT.953129,TV LAMEIRAS,4,6230-900,OURONDO,-7.681756023778154,40.14701149578138
pt.ine.add.PTCONT.953130,BR NAVE DA AREIA,,6215-121,CORTES DO MEIO,-7.555165975585171,40.31546901591468
pt.ine.add.PTCONT.953131,R EIRA DO JARDIM,14,6200-510,DOMINGUIZO,-7.526334331277449,40.2124492364121
pt.ine.add.PTCONT.953132,R TERREIRO,13,6215-283,ERADA,-7.6468884910313095,40.22446478236568
pt.ine.add.PTCONT.953133,R CIMO DO LUGAR,8,6215-384,PAUL,-7.636586694641044,40.201654361169396
pt.ine.add.PTCONT.953134,R DR JOSE VALERIO CRUZ,43,6200-129,COVILHÃ,-7.5115143937703674,40.28518186533364
pt.ine.add.PTCONT.953135,R DR JOSE VALERIO CRUZ,43,6200-129,COVILHÃ,-7.5115143937703674,40.28518186533364
pt.ine.add.PTCONT.953136,R DR JOSE VALERIO CRUZ,43,6200-129,COVILHÃ,-7.5115143937703674,40.28518186533364
pt.ine.add.PTCONT.953137,R DR JOSE VALERIO CRUZ,43,6200-129,COVILHÃ,-7.5115143937703674,40.28518186533364
pt.ine.add.PTCONT.953138,R DR JOSE VALERIO CRUZ,43,6200-129,COVILHÃ,-7.5115143937703674,40.28518186533364
pt.ine.add.PTCONT.953139,R EIRA,16,6215-387,PAUL,-7.635238500410771,40.20131535498312
pt.ine.add.PTCONT.953140,TV SINEIRO,5,6200-210,COVILHÃ,-7.5138256343446646,40.288346241506055
pt.ine.add.PTCONT.953141,TV SINEIRO,5,6200-210,COVILHÃ,-7.5138256343446646,40.288346241506055
pt.ine.add.PTCONT.953142,R JOÃO MENDES ALCADA DE PAIVA,12,6200-121,COVILHÃ,-7.497892272546251,40.281919875510106
pt.ine.add.PTCONT.953143,QTA AZEVO,,6200-570,FERRO,-7.431236590504876,40.22910362209775
pt.ine.add.PTCONT.953144,R IGREJA,50,6200-571,FERRO,-7.443627674609893,40.23421230377966
pt.ine.add.PTCONT.953145,R COMBATENTES DA GRANDE GUERRA,14,6200-076,COVILHÃ,-7.503222678760763,40.28152575006024
pt.ine.add.PTCONT.953146,R COMBATENTES DA GRANDE GUERRA,14,6200-076,COVILHÃ,-7.503222678760763,40.28152575006024
pt.ine.add.PTCONT.953147,R TORGAL,,6215-295,ERADA,-7.7148721661558275,40.242868070902226
pt.ine.add.PTCONT.953148,EN 18,,6200-581,ORJAIS,-7.404003574849194,40.340488054486535
pt.ine.add.PTCONT.953149,EM 513,13,6200-623,PESO,-7.56005017586798,40.19402407697325
pt.ine.add.PTCONT.953150,EN 230,5,6200-388,COVILHÃ,-7.5069485368157505,40.27023484022077
pt.ine.add.PTCONT.953151,R MONTES HERMINIOS,55,6200-370,COVILHÃ,-7.514669052926383,40.28096610518909
pt.ine.add.PTCONT.953152,TV TINTE,7,6200-389,COVILHÃ,-7.507141709620998,40.27861116913975
pt.ine.add.PTCONT.953153,EN 230,5,6200-388,COVILHÃ,-7.5069485368157505,40.27023484022077
pt.ine.add.PTCONT.953154,R RAMILA,56A,6215-450,PAUL,-7.639081259010269,40.19616247059958
pt.ine.add.PTCONT.953155,QTA PANASQUEIRA,,6200-600,PESO,-7.556302484372923,40.1983552734481
pt.ine.add.PTCONT.953156,R DIREITA,51,6200-591,PERABOA,-7.3891206637432685,40.257487663877576
pt.ine.add.PTCONT.953157,R CONS SANTOS VIEGAS,56,6200-385,COVILHÃ,-7.507503043283967,40.27895533900722
pt.ine.add.PTCONT.953158,R CONS SANTOS VIEGAS,60,6200-385,COVILHÃ,-7.507373791285611,40.27894563441917
pt.ine.add.PTCONT.953159,R JOÃO BERNARDO DA CUNHA MATOS,33,6200-612,PESO,-7.561595711532979,40.19737287588508
pt.ine.add.PTCONT.953160,R TORGAIS,,6225-252,MINAS DA PANASQUEIRA,-7.781098826752801,40.16728620937377
pt.ine.add.PTCONT.953161,BR ABELHEIRA,,6200-590,PERABOA,-7.390260705864129,40.25535163781167
pt.ine.add.PTCONT.953162,R BARBACAN,ZO,6200-056,COVILHÃ,-7.50421196530224,40.27882042420011
pt.ine.add.PTCONT.953163,R BARBACAN,ZO,6200-056,COVILHÃ,-7.50421196530224,40.27882042420011
pt.ine.add.PTCONT.953164,R BARBACAN,ZO,6200-056,COVILHÃ,-7.50421196530224,40.27882042420011
pt.ine.add.PTCONT.953165,R BARBACAN,ZO,6200-056,COVILHÃ,-7.50421196530224,40.27882042420011
pt.ine.add.PTCONT.953166,TV RUA SANTO ANTONIO,21,6200-331,COVILHÃ,-7.5151908106979475,40.267568435006396
pt.ine.add.PTCONT.953167,TV R DE SANTO ANTONIO,25,6200-331,COVILHÃ,-7.5151908106979475,40.267568435006396
pt.ine.add.PTCONT.953168,R FONTINHA,2,6215-397,PAUL,-7.634713021780565,40.199295788069804
pt.ine.add.PTCONT.953169,R SARG PAULO JOSE DOS SANTOS,,6200-614,PESO,-7.563330635080449,40.196354765048795
pt.ine.add.PTCONT.953170,AV FELICIDADE,1,6200-319,COVILHÃ,-7.512449591988093,40.27936021670429
pt.ine.add.PTCONT.953171,R DR ANTÓNIO VAZ MACEDO,2,6200-554,COVILHÃ,-7.50310343760847,40.26523382228488
pt.ine.add.PTCONT.953172,R DR ANTÓNIO VAZ MACEDO,2,6200-554,COVILHÃ,-7.50310343760847,40.26523382228488
pt.ine.add.PTCONT.953173,R DR ANTÓNIO VAZ MACEDO,2,6200-554,COVILHÃ,-7.50310343760847,40.26523382228488
pt.ine.add.PTCONT.953174,R DR ANTÓNIO VAZ MACEDO,2,6200-554,COVILHÃ,-7.50310343760847,40.26523382228488
pt.ine.add.PTCONT.953175,R DR ANTÓNIO VAZ MACEDO,2,6200-554,COVILHÃ,-7.50310343760847,40.26523382228488
pt.ine.add.PTCONT.953176,R DR ANTÓNIO VAZ MACEDO,2,6200-554,COVILHÃ,-7.50310343760847,40.26523382228488
pt.ine.add.PTCONT.953177,QTA CALCADINHA,,6200-294,COVILHÃ,-7.515619938419386,40.25399012274278
pt.ine.add.PTCONT.953178,BC CANTO,16,6200-825,COVILHÃ,-7.508730939288561,40.26562455171438
pt.ine.add.PTCONT.953179,R LAGE DA TORRE,9,6200-591,PERABOA,-7.385616548655142,40.255465823025425
pt.ine.add.PTCONT.953180,BC CANTO,16,6200-825,COVILHÃ,-7.508730939288561,40.26562455171438
pt.ine.add.PTCONT.953181,BC CANTO,16,6200-825,COVILHÃ,-7.508730939288561,40.26562455171438
pt.ine.add.PTCONT.953182,R ESCOLAS,16,6200-825,COVILHÃ,-7.508730939288561,40.26562455171438
pt.ine.add.PTCONT.953183,R 6 DE MAIO,15,6200-590,PERABOA,-7.391075204078638,40.29375693378773
pt.ine.add.PTCONT.953186,QTA TAPADO,,6200-314,COVILHÃ,-7.460751104062757,40.26836361180548
pt.ine.add.PTCONT.953187,TV LARGO DE S PEDRO,7,6225-138,CASEGAS,-7.699284407026464,40.1772392572576
pt.ine.add.PTCONT.953193,R MALTA,7,6200-272,COVILHÃ,-7.490963377066917,40.25363979400067
pt.ine.add.PTCONT.953197,R TAPADA,2,6215-091,BARCO CVL,-7.6091527049457275,40.176938490057324
pt.ine.add.PTCONT.953198,R NSA SRA DO REFUGIO,1,6200-186,COVILHÃ,-7.505829903126106,40.26405988227598
pt.ine.add.PTCONT.953199,URB S CASA MISERICORDIA,9,6200-297,COVILHÃ,-7.500048873560977,40.256193439678825
pt.ine.add.PTCONT.953200,URB S CASA MISERICORDIA,9,6200-297,COVILHÃ,-7.500048873560977,40.256193439678825
pt.ine.add.PTCONT.953201,URB S CASA MISERICORDIA,9,6200-297,COVILHÃ,-7.500048873560977,40.256193439678825
pt.ine.add.PTCONT.953202,R EIRA,15,6225-113,CASEGAS,-7.6975026702675,40.176791279204586
pt.ine.add.PTCONT.953205,R VIGILANTES GRUPO 12,2,6225-051,ALDEIA S FRANCISCO ASSIS,-7.746398287797415,40.156899767456835
pt.ine.add.PTCONT.953206,EM 512 GRUDO 8,6,6225-051,ALDEIA S FRANCISCO ASSIS,-7.7455412247002045,40.15694193153066
pt.ine.add.PTCONT.953208,BR BOAVISTA,,6200-567,COVILHÃ,-7.489513172197909,40.250389681849974
pt.ine.add.PTCONT.953209,BR BOAVISTA,,6200-567,COVILHÃ,-7.489513172197909,40.250389681849974
pt.ine.add.PTCONT.953210,BR BOAVISTA,,6200-567,COVILHÃ,-7.489513172197909,40.250389681849974
pt.ine.add.PTCONT.953211,BR BOAVISTA,,6200-567,COVILHÃ,-7.489513172197909,40.250389681849974
pt.ine.add.PTCONT.953212,R ESCORREGUEIRA,15,6225-114,CASEGAS,-7.6985408270499605,40.17601166900487
pt.ine.add.PTCONT.953215,BR FORMIGUINHA,4,6200-241,COVILHÃ,-7.489420364907455,40.30977253782814
pt.ine.add.PTCONT.953216,LG MARTELEIROS GRUPO 23,2,6225-051,ALDEIA S FRANCISCO ASSIS,-7.745099008401338,40.15627401248475
pt.ine.add.PTCONT.953217,BR BOAVISTA,,6200-567,COVILHÃ,-7.489513172197909,40.250389681849974
pt.ine.add.PTCONT.953218,BR BOAVISTA,,6200-567,COVILHÃ,-7.489513172197909,40.250389681849974
pt.ine.add.PTCONT.953221,TV ARRABALDE,,6215-035,BARCO CVL,-7.607624449231609,40.174148752685966
pt.ine.add.PTCONT.953222,R PONTE PEDRINHA,,6200-303,COVILHÃ,-7.495770270419192,40.23990562608175
pt.ine.add.PTCONT.953225,QTA MOREIRINHA,,6200-455,COVILHÃ,-7.44854584899835,40.26973295634457
pt.ine.add.PTCONT.953226,QTA TAPADO,,6200-314,COVILHÃ,-7.463227699144059,40.26281246417181
pt.ine.add.PTCONT.953228,EM 513,5,6215-064,BARCO CVL,-7.611483112998169,40.17312152145305
pt.ine.add.PTCONT.953229,R PADRE PITA,,6200-561,COVILHÃ,-7.505357480954422,40.28845370243288
pt.ine.add.PTCONT.953235,AV S SEBASTIÃO,,6215-087,BARCO CVL,-7.611886422432853,40.174113982947816
pt.ine.add.PTCONT.953236,R INDUSTRIA,52,6200-114,COVILHÃ,-7.504775017358817,40.28912596511986
pt.ine.add.PTCONT.953237,R INDUSTRIA,52,6200-114,COVILHÃ,-7.504775017358817,40.28912596511986
pt.ine.add.PTCONT.953238,R INDUSTRIA,52,6200-114,COVILHÃ,-7.504775017358817,40.28912596511986
pt.ine.add.PTCONT.953239,R INDUSTRIA,52,6200-114,COVILHÃ,-7.504775017358817,40.28912596511986
pt.ine.add.PTCONT.953240,R INDUSTRIA,52,6200-114,COVILHÃ,-7.504775017358817,40.28912596511986
pt.ine.add.PTCONT.953241,R INDUSTRIA,52,6200-114,COVILHÃ,-7.504775017358817,40.28912596511986
pt.ine.add.PTCONT.953242,R INDUSTRIA,52,6200-114,COVILHÃ,-7.504775017358817,40.28912596511986
pt.ine.add.PTCONT.953243,R INDUSTRIA,52,6200-114,COVILHÃ,-7.504775017358817,40.28912596511986
pt.ine.add.PTCONT.953244,R INDUSTRIA,52,6200-114,COVILHÃ,-7.504775017358817,40.28912596511986
pt.ine.add.PTCONT.953245,R INDUSTRIA,52,6200-114,COVILHÃ,-7.504775017358817,40.28912596511986
pt.ine.add.PTCONT.953246,R INDUSTRIA,52,6200-114,COVILHÃ,-7.504775017358817,40.28912596511986
pt.ine.add.PTCONT.953247,R INDUSTRIA,52,6200-114,COVILHÃ,-7.504775017358817,40.28912596511986
pt.ine.add.PTCONT.953248,R CASTELO,,6200-227,COVILHÃ,-7.493043487235111,40.30728907673542
pt.ine.add.PTCONT.953249,R DIREITA,14,6215-043,BARCO CVL,-7.607801796552929,40.17398745194129
pt.ine.add.PTCONT.953250,R CARAMOCO,20,6225-127,CASEGAS,-7.697990073946922,40.17768469398077
pt.ine.add.PTCONT.953251,R INDUSTRIA,52,6200-114,COVILHÃ,-7.504775017358817,40.28912596511986
pt.ine.add.PTCONT.953253,EM 513,39,6215-064,BARCO CVL,-7.60667888137417,40.17345100567802
pt.ine.add.PTCONT.953254,BR SAUDADE,3,6200-282,,-7.491723091197395,40.25409429256996
pt.ine.add.PTCONT.953255,BR SAUDADE,3,6200-282,,-7.491723091197395,40.25409429256996
pt.ine.add.PTCONT.953256,R QUELHA DA VINHA,13,6225-127,CASEGAS,-7.699771436266687,40.17819570424488
pt.ine.add.PTCONT.953257,R ALMOINHAS,,6200-709,TEIXOSO,-7.449724521984449,40.333634813903544
pt.ine.add.PTCONT.953258,AV VIRIATO,,6200-725,TORTOSENDO,-7.52709340986148,40.235363879331814
pt.ine.add.PTCONT.953259,SOUTO ESCURO,6 A,6200-789,TORTOSENDO,-7.527620405569292,40.23028739377242
pt.ine.add.PTCONT.953260,R CORREIO VELHO,4,6200-641,SARZEDO CVL,-7.426595808734151,40.36569967194448
pt.ine.add.PTCONT.953261,R CORREIO VELHO,6,6200-641,SARZEDO CVL,-7.426560961097039,40.36565443146822
pt.ine.add.PTCONT.953262,R CORREIO VELHO,8,6200-641,SARZEDO CVL,-7.426537792052702,40.365618267850145
pt.ine.add.PTCONT.953263,R EIRA,,6225-312,SOBRAL DE SÃO MIGUEL,-7.7419848752251745,40.21009166670555
pt.ine.add.PTCONT.953264,SIT PONTÃO,,6200-720,TEIXOSO,-7.477552757894903,40.318090121530204
pt.ine.add.PTCONT.953265,R ESTRADA NOVA,1,6200-641,SARZEDO CVL,-7.42635341180164,40.36749028837088
pt.ine.add.PTCONT.953266,R DIREITA,51,6200-641,SARZEDO CVL,-7.426244525935019,40.36664310453907
pt.ine.add.PTCONT.953267,AV MONTES HERMINIOS,,6200-759,TORTOSENDO,-7.52670656098306,40.2418459874988
pt.ine.add.PTCONT.953268,AV MONTES HERMINIOS,,6200-759,TORTOSENDO,-7.52670656098306,40.2418459874988
pt.ine.add.PTCONT.953269,AV MONTES HERMINIOS,,6200-759,TORTOSENDO,-7.52670656098306,40.2418459874988
pt.ine.add.PTCONT.953270,AV MONTES HERMINIOS,,6200-759,TORTOSENDO,-7.52670656098306,40.2418459874988
pt.ine.add.PTCONT.953271,AV MONTES HERMINIOS,,6200-759,TORTOSENDO,-7.52670656098306,40.2418459874988
pt.ine.add.PTCONT.953272,AV MONTES HERMINIOS,,6200-759,TORTOSENDO,-7.52670656098306,40.2418459874988
pt.ine.add.PTCONT.953273,AV MONTES HERMINIOS,,6200-759,TORTOSENDO,-7.52670656098306,40.2418459874988
pt.ine.add.PTCONT.953274,AV MONTES HERMINIOS,,6200-759,TORTOSENDO,-7.52670656098306,40.2418459874988
pt.ine.add.PTCONT.953275,AV MONTES HERMINIOS,,6200-759,TORTOSENDO,-7.52670656098306,40.2418459874988
pt.ine.add.PTCONT.953276,EM 512,1,6225-204,SOBRAL DE SÃO MIGUEL,-7.7742200749277774,40.20064089150139
pt.ine.add.PTCONT.953277,AV MONTES HERMINIOS,,6200-759,TORTOSENDO,-7.52670656098306,40.2418459874988
pt.ine.add.PTCONT.953278,AV MONTES HERMINIOS,6,6200-759,TORTOSENDO,-7.525528852443699,40.24081315654023
pt.ine.add.PTCONT.953279,R NOVA SOUTO,48,6200-761,TORTOSENDO,-7.527341241898141,40.236562941046365
pt.ine.add.PTCONT.953280,R NOVA SOUTO,50,6200-761,TORTOSENDO,-7.527341241898141,40.236562941046365
pt.ine.add.PTCONT.953281,QTA QUADRADOS,,6200-788,TORTOSENDO,-7.517178346575407,40.23118690498984
pt.ine.add.PTCONT.953282,R CORREDOURA,24,6200-078,COVILHÃ,-7.497970655192003,40.278570196621324
pt.ine.add.PTCONT.953283,R 1 DE DEZEMBRO,25,6200-651,TEIXOSO,-7.458451022740417,40.31288312422665
pt.ine.add.PTCONT.953284,QTA TERLAMONTE,,6200-708,TEIXOSO,-7.440259354259894,40.30063603717659
pt.ine.add.PTCONT.953285,AV 25 DE ABRIL,1,6200-652,TEIXOSO,-7.455045943916635,40.32281440302495
pt.ine.add.PTCONT.953286,EIXO TCT,,6200-826,TORTOSENDO,-7.506672281285412,40.247985948664045
pt.ine.add.PTCONT.953287,TV BARREIRO,16,6225-333,SOBRAL DE SÃO MIGUEL,-7.743020171715887,40.21186030383071
pt.ine.add.PTCONT.953288,R I,,6200-254,TORTOSENDO,-7.504672688951757,40.24301625794515
pt.ine.add.PTCONT.953289,R QUINTAL,4,6200-723,TORTOSENDO,-7.531057347829994,40.24553403701372
pt.ine.add.PTCONT.953290,LG MOITINHAS,33,6200-682,TEIXOSO,-7.459740445812126,40.313349922831684
pt.ine.add.PTCONT.953291,R LADEIRAS,9,6225-321,SOBRAL DE SÃO MIGUEL,-7.741552992692861,40.2116572218509
pt.ine.add.PTCONT.953292,LAD PISCO,12,6200-701,TEIXOSO,-7.464764515151556,40.30730927412373
pt.ine.add.PTCONT.953293,QTA VALE DAS DONAS,,6200-786,TORTOSENDO,-7.503661938650791,40.248098999612424
pt.ine.add.PTCONT.953294,QTA AMEAL,,6200-707,TEIXOSO,-7.468400820732236,40.30715911765847
pt.ine.add.PTCONT.953295,R FERNANDO JOSE GAUDENCIO BRAGA,6,6215-639,UNHAIS DA SERRA,-7.62210628314873,40.2593454086663
pt.ine.add.PTCONT.953296,R PESINHO,9,6215-681,UNHAIS DA SERRA,-7.622036026785608,40.25930907546841
pt.ine.add.PTCONT.953297,BR CABECINHO DE CIMA,,6225-315,SOBRAL DE SÃO MIGUEL,-7.738740145087347,40.21055796693094
pt.ine.add.PTCONT.953298,R SOBREIROS,17,6225-322,SOBRAL DE SÃO MIGUEL,-7.743408065963959,40.211816581205284
pt.ine.add.PTCONT.953299,EN 18,,6200-786,TORTOSENDO,-7.497724512818255,40.24078992751412
pt.ine.add.PTCONT.953300,QTA PRAZO,,6200-788,TORTOSENDO,-7.520538880815223,40.23640105662367
pt.ine.add.PTCONT.953301,R OUTEIRO,8,6225-327,SOBRAL DE SÃO MIGUEL,-7.743163504639254,40.2114465184178
pt.ine.add.PTCONT.953400,CAM SETE FONTES,,6200-403,COVILHÃ,-7.522106917629342,40.2946221865279
pt.ine.add.PTCONT.953401,URB QUINTA VÁRZEA,8,6200-004,COVILHÃ,-7.473221788090476,40.29647902384474
pt.ine.add.PTCONT.953402,URB QUINTA VÁRZEA,8,6200-004,COVILHÃ,-7.473221788090476,40.29647902384474
pt.ine.add.PTCONT.953403,URB QUINTA VÁRZEA,8,6200-004,COVILHÃ,-7.473221788090476,40.29647902384474
pt.ine.add.PTCONT.953404,URB QUINTA VÁRZEA,8,6200-004,COVILHÃ,-7.473221788090476,40.29647902384474
pt.ine.add.PTCONT.953405,URB QUINTA VÁRZEA,8,6200-004,COVILHÃ,-7.473221788090476,40.29647902384474
pt.ine.add.PTCONT.953407,R COMEND ANTÓNIO GIL,6,6215-516,UNHAIS DA SERRA,-7.62715746635532,40.253495860720236
pt.ine.add.PTCONT.953408,R GUILHERMINO ESPINHO,79,6200-013,COVILHÃ,-7.47809558194022,40.300874453003324
pt.ine.add.PTCONT.953409,R GUILHERMINO ESPINHO,79,6200-013,COVILHÃ,-7.47809558194022,40.300874453003324
pt.ine.add.PTCONT.953410,URB QUINTA VÁRZEA,8,6200-004,COVILHÃ,-7.473221788090476,40.29647902384474
pt.ine.add.PTCONT.953411,URB QUINTA VÁRZEA,8,6200-004,COVILHÃ,-7.473221788090476,40.29647902384474
pt.ine.add.PTCONT.953412,URB QUINTA VÁRZEA,8,6200-004,COVILHÃ,-7.473221788090476,40.29647902384474
pt.ine.add.PTCONT.953415,LOTEAM RIBEIRO NEGRO,2,6200-307,COVILHÃ,-7.514145013338445,40.2597729151625
pt.ine.add.PTCONT.953416,LOTEAM RIBEIRO NEGRO,2,6200-307,COVILHÃ,-7.514145013338445,40.2597729151625
pt.ine.add.PTCONT.953417,,,6200-821,VERDELHOS,-7.44992314821499,40.38625531476565
pt.ine.add.PTCONT.953418,BC CANADA NORTE,3,6200-438,COVILHÃ,-7.500973688271333,40.29826400480113
pt.ine.add.PTCONT.953420,BR BARREIROS,,6215-659,UNHAIS DA SERRA,-7.625059644430661,40.26210516104936
pt.ine.add.PTCONT.953423,R FORNO,12,6215-765,COUTADA,-7.588907164303687,40.19073210747184
pt.ine.add.PTCONT.953424,BC FORNO,12,6215-777,COUTADA,-7.588967244992934,40.19056127906105
pt.ine.add.PTCONT.953425,QTA SINQUE,,6200-800,VALE FORMOSO,-7.384121136833729,40.37282590246507
pt.ine.add.PTCONT.953428,R LOMBA,27,6200-811,VALES DO RIO,-7.549521024716077,40.20167144527469
pt.ine.add.PTCONT.953429,R ALTO VOLTA,7,6215-751,COUTADA,-7.584825152123072,40.18870454576328
pt.ine.add.PTCONT.953430,R ALTO VOLTA,6,6215-751,COUTADA,-7.586211321649611,40.18863905575446
pt.ine.add.PTCONT.953435,R SANTANA,5,6200-801,VALE FORMOSO,-7.376413326869825,40.3776837141655
pt.ine.add.PTCONT.953436,R OUTEIRO,14,6200-821,VERDELHOS,-7.469082810855759,40.3756053440178
pt.ine.add.PTCONT.953437,R 9 DE JULHO,24,6200-811,VALES DO RIO,-7.546060744830657,40.19978974701244
pt.ine.add.PTCONT.953438,QTA RIO,,6200-099,COVILHÃ,-7.424927667698151,40.28541374857192
pt.ine.add.PTCONT.953440,R RAINHA SANTA,,6200-821,VERDELHOS,-7.466457053606914,40.37081731292192
pt.ine.add.PTCONT.953441,R AUGUSTO TEIXEIRA LOPES,25,6200-424,COVILHÃ,-7.5061061522530865,40.29651782173808
pt.ine.add.PTCONT.953442,R AUGUSTO TEIXEIRA LOPES,25,6200-424,COVILHÃ,-7.5061061522530865,40.29651782173808
pt.ine.add.PTCONT.953443,R AUGUSTO TEIXEIRA LOPES,25,6200-424,COVILHÃ,-7.5061061522530865,40.29651782173808
pt.ine.add.PTCONT.953446,R JUNTA DE FREGUESIA,11,6215-521,UNHAIS DA SERRA,-7.624014428223765,40.257264488001056
pt.ine.add.PTCONT.953447,R JUNTA FREGUESIA,13,6215-521,UNHAIS DA SERRA,-7.624014428223765,40.257264488001056
pt.ine.add.PTCONT.953450,AV NOSSA SENHORA DA SAUDE,36,6215-615,UNHAIS DA SERRA,-7.62559077118347,40.25710030296237
pt.ine.add.PTCONT.953451,AV NSA SRA SAUDE,38,6215-615,UNHAIS DA SERRA,-7.62559077118347,40.25710030296237
pt.ine.add.PTCONT.953452,R SOBREIRAIS,26,6215-779,COUTADA,-7.5919455813328796,40.19259254630303
pt.ine.add.PTCONT.953755,R LAGES,8,6200-231,COVILHÃ,-7.492131892716498,40.30790541777582
pt.ine.add.PTCONT.953761,AV MONTES HERMINIOS,,6200-759,TORTOSENDO,-7.52670656098306,40.2418459874988
pt.ine.add.PTCONT.953765,BR LADEIRINHA,12,6200-785,TORTOSENDO,-7.534760631425882,40.232044626828944
pt.ine.add.PTCONT.953766,R H,,6200-254,TORTOSENDO,-7.503289683910682,40.24261248766023
pt.ine.add.PTCONT.953770,R FUNDO DO POVO,28,6215-399,PAUL,-7.639268259655579,40.20114349393028
pt.ine.add.PTCONT.953776,R DR JOSE VALERIO CRUZ,43,6200-129,COVILHÃ,-7.5115143937703674,40.28518186533364
pt.ine.add.PTCONT.953778,R 25 DE ABRIL,1A,6200-571,FERRO,-7.443673061291045,40.233212938677674
pt.ine.add.PTCONT.953779,R SERRADO,3,6200-591,PERABOA,-7.385223541237095,40.258065922463956
pt.ine.add.PTCONT.953780,R QUINTA DA LAGEOSA,,6200-501,ALDEIA DO SOUTO,-7.387986632491804,40.35540720745975
pt.ine.add.PTCONT.953789,R BARREIRO,20,6225-325,SOBRAL DE SÃO MIGUEL,-7.743137069471118,40.211959761880266
pt.ine.add.PTCONT.953790,FTE FRIA CIMA,16,6200-785,TORTOSENDO,-7.532591692487975,40.232825899753855
pt.ine.add.PTCONT.953792,R OUTEIRO,1,6200-501,ALDEIA DO SOUTO,-7.396146338292884,40.36711262398469
pt.ine.add.PTCONT.953794,R NOVA DOS OLIVAIS,26,6200-762,TORTOSENDO,-7.524953300201679,40.23946827836559
pt.ine.add.PTCONT.953795,QTA QUADRADOS,,6200-788,TORTOSENDO,-7.511003753543115,40.23567476514631
pt.ine.add.PTCONT.953796,QTA TAREJA,,6200-780,TORTOSENDO,-7.5233103717393135,40.23135446182494
pt.ine.add.PTCONT.953797,BR BOAVISTA,,6200-567,COVILHÃ,-7.489513172197909,40.250389681849974
pt.ine.add.PTCONT.953799,R CARRASCAL,3,6200-811,VALES DO RIO,-7.545227533329056,40.20107334889308
pt.ine.add.PTCONT.953801,TV SAFREIROS,5,6225-051,ALDEIA S FRANCISCO ASSIS,-7.748156318181399,40.15527555374768
pt.ine.add.PTCONT.953804,AV MONTES HERMINIOS,33,6200-759,TORTOSENDO,-7.5270194304490055,40.24234294195736
pt.ine.add.PTCONT.953806,R BOAVISTA,19,6200-821,VERDELHOS,-7.466023578467505,40.37298514342844
pt.ine.add.PTCONT.953812,BR PENEDOS ALTOS,113,6200-854,COVILHÃ,-7.501684509778453,40.287605195252944
pt.ine.add.PTCONT.953813,QTA VALINHO,,6200-785,TORTOSENDO,-7.542516189671034,40.230643540661696
pt.ine.add.PTCONT.953817,SIT VALE RELVAS,,6200-571,FERRO,-7.4536336484944155,40.235937539957945
pt.ine.add.PTCONT.953824,R CHÃO DA FONTE,17,6200-526,DOMINGUIZO,-7.525166787835015,40.21033575678492
pt.ine.add.PTCONT.953826,QTA AMENDOEIRAS,,6200-252,COVILHÃ,-7.505799687573636,40.2546037289063
pt.ine.add.PTCONT.953828,R CARAMOCO,42,6225-127,CASEGAS,-7.696208291739471,40.17907389471825
pt.ine.add.PTCONT.953829,SIT LAGARES E,8,6200-788,TORTOSENDO,-7.522411643680271,40.235915637764805
pt.ine.add.PTCONT.953830,AV NSA SRA SAUDE,38,6215-615,UNHAIS DA SERRA,-7.62559077118347,40.25710030296237
pt.ine.add.PTCONT.953847,R SANTO ANTÓNIO,10,6200-811,VALES DO RIO,-7.544876759543188,40.200891450855686
pt.ine.add.PTCONT.953875,R SAUDADE,27,6200-386,COVILHÃ,-7.50923284080162,40.28009038803958
pt.ine.add.PTCONT.953856,EN 230,5,6200-388,COVILHÃ,-7.5069485368157505,40.27023484022077
pt.ine.add.PTCONT.953857,EN 230,B5,6200-388,COVILHÃ,-7.5069485368157505,40.27023484022077
pt.ine.add.PTCONT.953858,EN 230,B5,6200-388,COVILHÃ,-7.5069485368157505,40.27023484022077
pt.ine.add.PTCONT.953859,EN 230,B5,6200-388,COVILHÃ,-7.5069485368157505,40.27023484022077
pt.ine.add.PTCONT.953860,EN 230,B5,6200-388,COVILHÃ,-7.5069485368157505,40.27023484022077
pt.ine.add.PTCONT.953861,EN 230,B5,6200-388,COVILHÃ,-7.5069485368157505,40.27023484022077
pt.ine.add.PTCONT.953862,EN 230,B5,6200-388,COVILHÃ,-7.5069485368157505,40.27023484022077
pt.ine.add.PTCONT.953863,EN 230,B5,6200-388,COVILHÃ,-7.5069485368157505,40.27023484022077
pt.ine.add.PTCONT.953864,EN 230,B5,6200-388,COVILHÃ,-7.5069485368157505,40.27023484022077
pt.ine.add.PTCONT.953865,EN 230,B5,6200-388,COVILHÃ,-7.5069485368157505,40.27023484022077
pt.ine.add.PTCONT.953866,EN 230,B5,6200-388,COVILHÃ,-7.5069485368157505,40.27023484022077
pt.ine.add.PTCONT.953867,EN 230,B5,6200-388,COVILHÃ,-7.5069485368157505,40.27023484022077
pt.ine.add.PTCONT.953868,EN 230,B5,6200-388,COVILHÃ,-7.5069485368157505,40.27023484022077
pt.ine.add.PTCONT.953869,EN 230,B5,6200-388,COVILHÃ,-7.5069485368157505,40.27023484022077
pt.ine.add.PTCONT.953870,EN 230,B5,6200-388,COVILHÃ,-7.5069485368157505,40.27023484022077
pt.ine.add.PTCONT.953871,AV INF D HENRIQUE,6,6200-506,COVILHÃ,-7.4956610633608625,40.2703353116617
pt.ine.add.PTCONT.953872,R SAUDADE,31,6200-386,COVILHÃ,-7.50923284080162,40.28009038803958
pt.ine.add.PTCONT.953873,R SAUDADE,31 A,6200-386,COVILHÃ,-7.50923284080162,40.28009038803958
pt.ine.add.PTCONT.953874,R SAUDADE,27,6200-386,COVILHÃ,-7.50923284080162,40.28009038803958
pt.ine.add.PTCONT.953876,R SAUDADE,27,6200-386,COVILHÃ,-7.50923284080162,40.28009038803958
pt.ine.add.PTCONT.953877,PCT SANTA CASA DA MISERICÓRDIA,,6200-297,COVILHÃ,-7.500048873560977,40.256193439678825
pt.ine.add.PTCONT.953878,PCT SANTA CASA DA MISERICÓRDIA,,6200-297,COVILHÃ,-7.500048873560977,40.256193439678825
pt.ine.add.PTCONT.953879,PCT SANTA CASA DA MISERICÓRDIA,,6200-297,COVILHÃ,-7.500048873560977,40.256193439678825
pt.ine.add.PTCONT.953880,PCT SANTA CASA DA MISERICÓRDIA,,6200-297,COVILHÃ,-7.500048873560977,40.256193439678825
pt.ine.add.PTCONT.953881,PCT SANTA CASA DA MISERICÓRDIA,,6200-297,COVILHÃ,-7.500048873560977,40.256193439678825
pt.ine.add.PTCONT.953882,R MQ D ÁVILA E BOLAMA,313,6200-053,COVILHÃ,-7.502323366863145,40.28213323628049
pt.ine.add.PTCONT.953883,R MQ D ÁVILA E BOLAMA,313,6200-053,COVILHÃ,-7.502323366863145,40.28213323628049
pt.ine.add.PTCONT.953884,R DR ALMEIDA EUSEBIO,313,6200-043,COVILHÃ,-7.502323366863145,40.28213323628049
pt.ine.add.PTCONT.953885,R MQ D ÁVILA E BOLAMA,313,6200-053,COVILHÃ,-7.502323366863145,40.28213323628049
pt.ine.add.PTCONT.953886,R MQ D ÁVILA E BOLAMA,313,6200-053,COVILHÃ,-7.502323366863145,40.28213323628049
pt.ine.add.PTCONT.953887,R MQ D ÁVILA E BOLAMA,313,6200-053,COVILHÃ,-7.502323366863145,40.28213323628049
pt.ine.add.PTCONT.953888,R MQ DE AVILA E BOLAMA,371,6200-053,COVILHÃ,-7.503196684046221,40.28432637104836
pt.ine.add.PTCONT.953889,EN 230,B5,6200-388,COVILHÃ,-7.5069485368157505,40.27023484022077
pt.ine.add.PTCONT.953901,TV RIBEIRO DE FLANDRES,10,6200-820,COVILHÃ,-7.496235496444704,40.28554905623293
pt.ine.add.PTCONT.953902,TV RIBEIRO DE FLANDRES,10,6200-820,COVILHÃ,-7.496235496444704,40.28554905623293
pt.ine.add.PTCONT.953914,QTA ARREPIADA,,6200-026,COVILHÃ,-7.50061325964186,40.26753470077295
pt.ine.add.PTCONT.953915,QTA ARREPIADA,,6200-026,COVILHÃ,-7.50061325964186,40.26753470077295
pt.ine.add.PTCONT.953916,QTA ARREPIADA,,6200-026,COVILHÃ,-7.50061325964186,40.26753470077295
pt.ine.add.PTCONT.953917,QTA ARREPIADA,,6200-026,COVILHÃ,-7.50061325964186,40.26753470077295
pt.ine.add.PTCONT.953918,QTA ARREPIADA,,6200-026,COVILHÃ,-7.50061325964186,40.26753470077295
pt.ine.add.PTCONT.953919,QTA ARREPIADA,,6200-026,COVILHÃ,-7.50061325964186,40.26753470077295
pt.ine.add.PTCONT.953920,QTA ARREPIADA,,6200-026,COVILHÃ,-7.50061325964186,40.26753470077295
pt.ine.add.PTCONT.953921,QTA ARREPIADA,,6200-026,COVILHÃ,-7.50061325964186,40.26753470077295
pt.ine.add.PTCONT.953922,QTA ARREPIADA,,6200-026,COVILHÃ,-7.50061325964186,40.26753470077295
pt.ine.add.PTCONT.953923,QTA ARREPIADA,,6200-026,COVILHÃ,-7.50061325964186,40.26753470077295
pt.ine.add.PTCONT.953924,QTA ARREPIADA,,6200-026,COVILHÃ,-7.50061325964186,40.26753470077295
pt.ine.add.PTCONT.953925,QTA ARREPIADA,,6200-026,COVILHÃ,-7.50061325964186,40.26753470077295
pt.ine.add.PTCONT.953937,R RELVÃO,11,6200-437,COVILHÃ,-7.505107153954226,40.29644035825214
pt.ine.add.PTCONT.953938,R RELVÃO,11,6200-437,COVILHÃ,-7.505107153954226,40.29644035825214
pt.ine.add.PTCONT.953939,TV PEDREIRA,10,6200-432,COVILHÃ,-7.506063188191928,40.29607631216664
pt.ine.add.PTCONT.953940,TV PEDREIRA,10,6200-432,COVILHÃ,-7.506063188191928,40.29607631216664
pt.ine.add.PTCONT.954180,R SOUTO SERRA,,6215-462,PAUL,-7.642652766249292,40.19923964094701
pt.ine.add.PTCONT.954181,R DR ALBERTO RATO,25,6200-125,COVILHÃ,-7.51052282596539,40.28431199006964
pt.ine.add.PTCONT.954182,R MATEUS FERNANDES,42,6200-142,COVILHÃ,-7.497949037929747,40.27962374153589
pt.ine.add.PTCONT.954183,R MATEUS FERNANDES,42,6200-142,COVILHÃ,-7.497949037929747,40.27962374153589
pt.ine.add.PTCONT.954184,R MATEUS FERNANDES,42,6200-142,COVILHÃ,-7.497949037929747,40.27962374153589
pt.ine.add.PTCONT.954185,R MATEUS FERNANDES,42,6200-142,COVILHÃ,-7.497949037929747,40.27962374153589
pt.ine.add.PTCONT.954186,R MATEUS FERNANDES,42,6200-142,COVILHÃ,-7.497949037929747,40.27962374153589
pt.ine.add.PTCONT.954187,R MATEUS FERNANDES,42,6200-142,COVILHÃ,-7.497949037929747,40.27962374153589
pt.ine.add.PTCONT.954188,R MATEUS FERNANDES,42,6200-142,COVILHÃ,-7.497949037929747,40.27962374153589
pt.ine.add.PTCONT.954189,R MATEUS FERNANDES,42,6200-142,COVILHÃ,-7.497949037929747,40.27962374153589
pt.ine.add.PTCONT.954190,R MATEUS FERNANDES,42,6200-142,COVILHÃ,-7.497949037929747,40.27962374153589
pt.ine.add.PTCONT.954191,,,6215-121,CORTES DO MEIO,-7.553468431880474,40.3062387494967
pt.ine.add.PTCONT.954192,R TORGAL,21,6215-295,ERADA,-7.714619703208844,40.24284594696437
pt.ine.add.PTCONT.954193,QTA TRES BARROCAS,,6200-570,FERRO,-7.467660219615553,40.22193406254863
pt.ine.add.PTCONT.954194,R SOUTOS,35,6200-571,FERRO,-7.442933655329699,40.23312748017481
pt.ine.add.PTCONT.954195,R DR CARLOS COELHO,99,6200-571,FERRO,-7.445537342083686,40.2336112753249
pt.ine.add.PTCONT.954196,R MATEUS FERNANDES,42,6200-142,COVILHÃ,-7.497949037929747,40.27962374153589
pt.ine.add.PTCONT.954197,,,6215-175,CORTES DO MEIO,-7.554138355637281,40.30906087034663
pt.ine.add.PTCONT.954198,R CAMPO DE FUTEBOL,10,6200-571,FERRO,-7.4457063189716495,40.24130316388036
pt.ine.add.PTCONT.954199,R NOVA,10,6215-430,PAUL,-7.637741809361086,40.20270398587737
pt.ine.add.PTCONT.954200,R DR JOSE CARVALHO,,6215-328,PAUL,-7.637251676818115,40.20226960776427
pt.ine.add.PTCONT.954201,R BOMBEIROS VOLUNTARIOS,104,6200-063,COVILHÃ,-7.505832659343068,40.281575951744074
pt.ine.add.PTCONT.954202,SIT LOUREIRO,,6215-122,CORTES DO MEIO,-7.590271927682931,40.2463492687702
pt.ine.add.PTCONT.954203,R VALE CASTANHEIRA,,6200-510,DOMINGUIZO,-7.531232541395767,40.219112068359834
pt.ine.add.PTCONT.954204,EN 18,16A,6200-581,ORJAIS,-7.406736409695874,40.339163421929946
pt.ine.add.PTCONT.954205,R PIORNOS,11,6200-026,COVILHÃ,-7.488340085954842,40.279867782072124
pt.ine.add.PTCONT.954206,QTA MOURATA,,6200-580,ORJAIS,-7.425081101843224,40.319158721862436
pt.ine.add.PTCONT.954207,R RODRIGO,50,6200-188,COVILHÃ,-7.501600860063233,40.283957445463074
pt.ine.add.PTCONT.954208,R RODRIGO,50,6200-188,COVILHÃ,-7.501600860063233,40.283957445463074
pt.ine.add.PTCONT.954209,R RODRIGO,50,6200-188,COVILHÃ,-7.501600860063233,40.283957445463074
pt.ine.add.PTCONT.954210,R RODRIGO,50,6200-188,COVILHÃ,-7.501600860063233,40.283957445463074
pt.ine.add.PTCONT.954211,R RODRIGO,50,6200-188,COVILHÃ,-7.501600860063233,40.283957445463074
pt.ine.add.PTCONT.954212,R RODRIGO,50,6200-188,COVILHÃ,-7.501600860063233,40.283957445463074
pt.ine.add.PTCONT.954213,R RODRIGO,50,6200-188,COVILHÃ,-7.501600860063233,40.283957445463074
pt.ine.add.PTCONT.954214,R RODRIGO,50,6200-188,COVILHÃ,-7.501600860063233,40.283957445463074
pt.ine.add.PTCONT.954215,R RODRIGO,50,6200-188,COVILHÃ,-7.501600860063233,40.283957445463074
pt.ine.add.PTCONT.954216,R RODRIGO,50,6200-188,COVILHÃ,-7.501600860063233,40.283957445463074
pt.ine.add.PTCONT.954217,R RODRIGO,50,6200-188,COVILHÃ,-7.501600860063233,40.283957445463074
pt.ine.add.PTCONT.954218,R RODRIGO,50,6200-188,COVILHÃ,-7.501600860063233,40.283957445463074
pt.ine.add.PTCONT.954219,R RODRIGO,21 A,6200-188,COVILHÃ,-7.500302543386868,40.283211887429594
pt.ine.add.PTCONT.954220,R FERREIRA DE CASTRO,11,6200-095,COVILHÃ,-7.497309391490035,40.28012454601826
pt.ine.add.PTCONT.954221,R FERREIRA DE CASTRO,11,6200-095,COVILHÃ,-7.497309391490035,40.28012454601826
pt.ine.add.PTCONT.954222,R FERREIRA DE CASTRO,11,6200-095,COVILHÃ,-7.497309391490035,40.28012454601826
pt.ine.add.PTCONT.954223,R FERREIRA DE CASTRO,11,6200-095,COVILHÃ,-7.497309391490035,40.28012454601826
pt.ine.add.PTCONT.954224,R FERREIRA DE CASTRO,11,6200-095,COVILHÃ,-7.497309391490035,40.28012454601826
pt.ine.add.PTCONT.954225,R FERREIRA DE CASTRO,11,6200-095,COVILHÃ,-7.497309391490035,40.28012454601826
pt.ine.add.PTCONT.954226,R SENHORA MILAGRES,12,6215-260,ERADA,-7.648320469998123,40.224659910639026
pt.ine.add.PTCONT.954227,QTA MOURATA,,6200-580,ORJAIS,-7.4295777216218815,40.322338111838796
pt.ine.add.PTCONT.954228,R RODRIGO,21 A,6200-188,COVILHÃ,-7.500302543386868,40.283211887429594
pt.ine.add.PTCONT.954229,R RODRIGO,21 A,6200-188,COVILHÃ,-7.500302543386868,40.283211887429594
pt.ine.add.PTCONT.954230,R RODRIGO,21 A,6200-188,COVILHÃ,-7.500302543386868,40.283211887429594
pt.ine.add.PTCONT.954231,R FERREIRA DE CASTRO,11,6200-095,COVILHÃ,-7.497309391490035,40.28012454601826
pt.ine.add.PTCONT.954232,R FERREIRA DE CASTRO,11,6200-095,COVILHÃ,-7.497309391490035,40.28012454601826
pt.ine.add.PTCONT.954233,R FERREIRA DE CASTRO,11,6200-095,COVILHÃ,-7.497309391490035,40.28012454601826
pt.ine.add.PTCONT.954234,R FERREIRA DE CASTRO,11,6200-095,COVILHÃ,-7.497309391490035,40.28012454601826
pt.ine.add.PTCONT.954235,R FERREIRA DE CASTRO,11,6200-095,COVILHÃ,-7.497309391490035,40.28012454601826
pt.ine.add.PTCONT.954236,R SENHORA MILAGRES,5,6215-260,ERADA,-7.648218456637463,40.22413714722195
pt.ine.add.PTCONT.954237,QTA MADEIRA,,6200-570,FERRO,-7.472301258802051,40.24002616293447
pt.ine.add.PTCONT.954238,R CANCELA,42,6200-571,FERRO,-7.443945403183655,40.23300742898725
pt.ine.add.PTCONT.954239,AV VIRIATO,,6215-171,CORTES DO MEIO,-7.579904888261525,40.255152817346534
pt.ine.add.PTCONT.954240,AV VIRIATO,,6215-171,CORTES DO MEIO,-7.580176983971973,40.25493798020318
pt.ine.add.PTCONT.954241,R OUTEIRO,,6200-571,FERRO,-7.447081892201976,40.231927364195144
pt.ine.add.PTCONT.954242,R JOSE CAETANO JUNIOR,11,6200-126,COVILHÃ,-7.5108346946626074,40.28492605311697
pt.ine.add.PTCONT.954243,BR PENHA SOL,,6215-121,CORTES DO MEIO,-7.550872901899251,40.31397957063963
pt.ine.add.PTCONT.954244,BR PENHA SOL,,6215-121,CORTES DO MEIO,-7.550215982163818,40.313760127346825
pt.ine.add.PTCONT.954245,TV QUELHAS,8,6215-324,PAUL,-7.63450749903032,40.20009642190031
pt.ine.add.PTCONT.954246,R LAURITA,8,6200-537,DOMINGUIZO,-7.525719809969789,40.210230590549166
pt.ine.add.PTCONT.954247,R INDUSTRIA,40,6200-114,COVILHÃ,-7.5059798952895065,40.28854713435493
pt.ine.add.PTCONT.954248,R INDUSTRIA,40,6200-114,COVILHÃ,-7.5059798952895065,40.28854713435493
pt.ine.add.PTCONT.954249,R INDUSTRIA,40,6200-114,COVILHÃ,-7.5059798952895065,40.28854713435493
pt.ine.add.PTCONT.954250,R INDUSTRIA,40,6200-114,COVILHÃ,-7.5059798952895065,40.28854713435493
pt.ine.add.PTCONT.954251,R INDUSTRIA,40,6200-114,COVILHÃ,-7.5059798952895065,40.28854713435493
pt.ine.add.PTCONT.954252,R INDUSTRIA,40,6200-114,COVILHÃ,-7.5059798952895065,40.28854713435493
pt.ine.add.PTCONT.954253,R INDUSTRIA,40,6200-114,COVILHÃ,-7.5059798952895065,40.28854713435493
pt.ine.add.PTCONT.954254,R INDUSTRIA,40,6200-114,COVILHÃ,-7.5059798952895065,40.28854713435493
pt.ine.add.PTCONT.954255,R INDUSTRIA,40,6200-114,COVILHÃ,-7.5059798952895065,40.28854713435493
pt.ine.add.PTCONT.954256,R INDUSTRIA,40,6200-114,COVILHÃ,-7.5059798952895065,40.28854713435493
pt.ine.add.PTCONT.954257,R INDUSTRIA,40,6200-114,COVILHÃ,-7.5059798952895065,40.28854713435493
pt.ine.add.PTCONT.954258,R INDUSTRIA,40,6200-114,COVILHÃ,-7.5059798952895065,40.28854713435493
pt.ine.add.PTCONT.954259,R INDUSTRIA,40,6200-114,COVILHÃ,-7.5059798952895065,40.28854713435493
pt.ine.add.PTCONT.954260,R INDUSTRIA,40,6200-114,COVILHÃ,-7.5059798952895065,40.28854713435493
pt.ine.add.PTCONT.954261,R DR JULIO MARIA COSTA,13,6200-130,COVILHÃ,-7.5077442968626436,40.28467524376254
pt.ine.add.PTCONT.954262,R AFONSO DOMINGUES,28,6200-037,COVILHÃ,-7.511108568355452,40.28583709797368
pt.ine.add.PTCONT.954263,R AFONSO DOMINGUES,28,6200-037,COVILHÃ,-7.511108568355452,40.28583709797368
pt.ine.add.PTCONT.954265,CM 1037 BATERIA 9000,CP 901,6200-570,FERRO,-7.472104711905497,40.220356505894294
pt.ine.add.PTCONT.954266,LOTEAM RIBEIRO NEGRO,,6200-307,COVILHÃ,-7.512972606446863,40.26200905852718
pt.ine.add.PTCONT.954267,R JOGO DA BOLA,9,6200-613,PESO,-7.5629573524087785,40.194650827437876
pt.ine.add.PTCONT.954268,R NAMORADOS,8,6200-372,COVILHÃ,-7.50906557965547,40.279098861920545
pt.ine.add.PTCONT.954269,QTA RIBEIRA DAGUA ALTA,,6200-331,COVILHÃ,-7.513165285188285,40.265369216937174
pt.ine.add.PTCONT.954270,R STA MARIA MADALENA,24,6200-622,PESO,-7.560734618210639,40.19502710906827
pt.ine.add.PTCONT.954271,GRUPO 21,5,6225-203,MINAS DA PANASQUEIRA,-7.7587042481936,40.170899373487046
pt.ine.add.PTCONT.954272,EM 513,23,6200-623,PESO,-7.561806633082138,40.193231240414335
pt.ine.add.PTCONT.954273,GRUPO 28,7,6225-203,MINAS DA PANASQUEIRA,-7.757434274124422,40.16914811501833
pt.ine.add.PTCONT.954274,R SOLDADO MANUEL ALFREDO ALEIXO,,6200-619,PESO,-7.561765971951056,40.198076169894435
pt.ine.add.PTCONT.954275,BR TORGAIS,,6225-252,MINAS DA PANASQUEIRA,-7.781129810528155,40.16810584124856
pt.ine.add.PTCONT.954276,R CONS ANTÓNIO PEDROSO SANTOS,36,6200-344,COVILHÃ,-7.508048211237391,40.278489990239294
pt.ine.add.PTCONT.954277,R CONS ANTÓNIO PEDROSO SANTOS,36,6200-344,COVILHÃ,-7.508048211237391,40.278489990239294
pt.ine.add.PTCONT.954278,R CONS ANTÓNIO PEDROSO SANTOS,36,6200-344,COVILHÃ,-7.508048211237391,40.278489990239294
pt.ine.add.PTCONT.954279,R CONS ANTÓNIO PEDROSO SANTOS,36,6200-344,COVILHÃ,-7.508048211237391,40.278489990239294
pt.ine.add.PTCONT.954280,R AMOREIRA,,6200-222,COVILHÃ,-7.511505764655136,40.26686426537846
pt.ine.add.PTCONT.954281,TV RUA DE CIMA,10,6215-382,PAUL,-7.637835622447967,40.201110355866106
pt.ine.add.PTCONT.954282,ALVERCAO,,6200-590,PERABOA,-7.403647342829849,40.26204696098001
pt.ine.add.PTCONT.954283,QUINTAS DO BREJO,,6200-590,PERABOA,-7.40408401173953,40.25312508849786
pt.ine.add.PTCONT.954284,AV ANIL,20,6200-502,COVILHÃ,-7.496309444487956,40.271401552398835
pt.ine.add.PTCONT.954285,AV ANIL,20,6200-502,COVILHÃ,-7.496309444487956,40.271401552398835
pt.ine.add.PTCONT.954286,AV ANIL,20,6200-502,COVILHÃ,-7.496309444487956,40.271401552398835
pt.ine.add.PTCONT.954287,R ROSAS,25,6200-192,COVILHÃ,-7.506673851933545,40.279617272617095
pt.ine.add.PTCONT.954288,R ROSAS,25,6200-192,COVILHÃ,-7.506673851933545,40.279617272617095
pt.ine.add.PTCONT.954289,AV ANIL,20,6200-502,COVILHÃ,-7.496309444487956,40.271401552398835
pt.ine.add.PTCONT.954290,AV ANIL,20,6200-502,COVILHÃ,-7.496309444487956,40.271401552398835
pt.ine.add.PTCONT.954560,R VALE,34,6200-821,VERDELHOS,-7.467633139642141,40.375741099121825
pt.ine.add.PTCONT.954291,AV ANIL,20,6200-502,COVILHÃ,-7.496309444487956,40.271401552398835
pt.ine.add.PTCONT.954292,AV ANIL,20,6200-502,COVILHÃ,-7.496309444487956,40.271401552398835
pt.ine.add.PTCONT.954293,AV ANIL,20,6200-502,COVILHÃ,-7.496309444487956,40.271401552398835
pt.ine.add.PTCONT.954294,AV ANIL,20,6200-502,COVILHÃ,-7.496309444487956,40.271401552398835
pt.ine.add.PTCONT.954295,AV ANIL,20,6200-502,COVILHÃ,-7.496309444487956,40.271401552398835
pt.ine.add.PTCONT.954296,LG 25 DE ABRIL,42,6200-601,PESO,-7.563136197070577,40.19573240643675
pt.ine.add.PTCONT.954297,TV SENHOR DA PACIENCIA,1,6200-159,COVILHÃ,-7.506226917737685,40.28090266317633
pt.ine.add.PTCONT.954298,R PRADOS,16,6215-443,PAUL,-7.635750987290363,40.19868785570776
pt.ine.add.PTCONT.954299,TV CALÇADA ROMANA,,6200-222,COVILHÃ,-7.511897243469008,40.26647912280486
pt.ine.add.PTCONT.954300,TV CALÇADA ROMANA,,6200-222,COVILHÃ,-7.511897243469008,40.26647912280486
pt.ine.add.PTCONT.954301,LG PRAÇA,5,6200-591,PERABOA,-7.3868787705937455,40.25719405268568
pt.ine.add.PTCONT.954302,R TORNADOURO,46,6225-272,MINAS DA PANASQUEIRA,-7.785394904882866,40.167371237944636
pt.ine.add.PTCONT.954303,R LAGE DA TORRE,,6200-591,PERABOA,-7.385990675434725,40.25564835252818
pt.ine.add.PTCONT.954304,QTA CABEÇO,6250,6200-018,COVILHÃ,-7.513313407755325,40.259444258647356
pt.ine.add.PTCONT.954305,R 5 DE OUTUBRO,8,6200-590,PERABOA,-7.383367582285503,40.25582050657843
pt.ine.add.PTCONT.954306,R FORMOSA,5,6200-100,COVILHÃ,-7.506129247805268,40.28001957812705
pt.ine.add.PTCONT.954307,R FORMOSA,5,6200-100,COVILHÃ,-7.506129247805268,40.28001957812705
pt.ine.add.PTCONT.954308,LG SENHORA DO ROSÁRIO,13,6200-190,COVILHÃ,-7.507081223361985,40.28006976106265
pt.ine.add.PTCONT.954309,LG SENHORA DO ROSÁRIO,13,6200-190,COVILHÃ,-7.507081223361985,40.28006976106265
pt.ine.add.PTCONT.954310,SIT DOMINGALOBA,CX 4059,6200-590,PERABOA,-7.393156593628606,40.24523879790185
pt.ine.add.PTCONT.954561,R VALE,36,6200-821,VERDELHOS,-7.46827816729738,40.376005969066185
pt.ine.add.PTCONT.954311,R 1 DE MAIO,33,6200-023,COVILHÃ,-7.514921881424902,40.28419148651278
pt.ine.add.PTCONT.954312,R 1 DE MAIO,33,6200-023,COVILHÃ,-7.514921881424902,40.28419148651278
pt.ine.add.PTCONT.954313,R 1 DE MAIO,33,6200-023,COVILHÃ,-7.514921881424902,40.28419148651278
pt.ine.add.PTCONT.954314,R 1 DE MAIO,33,6200-023,COVILHÃ,-7.514921881424902,40.28419148651278
pt.ine.add.PTCONT.954315,R 1 DE MAIO,33,6200-023,COVILHÃ,-7.514921881424902,40.28419148651278
pt.ine.add.PTCONT.954316,R 1 DE MAIO,33,6200-023,COVILHÃ,-7.514921881424902,40.28419148651278
pt.ine.add.PTCONT.954317,R 1 DE MAIO,33,6200-023,COVILHÃ,-7.514921881424902,40.28419148651278
pt.ine.add.PTCONT.954318,R 1 DE MAIO,33,6200-023,COVILHÃ,-7.514921881424902,40.28419148651278
pt.ine.add.PTCONT.954319,R QUINTA DA BRANCA,2,6200-284,COVILHÃ,-7.467577552828374,40.25918125323392
pt.ine.add.PTCONT.954320,R DIREITA,58,6200-264,COVILHÃ,-7.491708001696281,40.25320264374347
pt.ine.add.PTCONT.954321,,,6225-127,CASEGAS,-7.671887418437315,40.179817106909475
pt.ine.add.PTCONT.954324,R PADRE PARENTE,11,6200-233,COVILHÃ,-7.492211151024133,40.30698728301093
pt.ine.add.PTCONT.954325,R ALEGRIA,12,6200-258,COVILHÃ,-7.490961078782551,40.25388293538051
pt.ine.add.PTCONT.954327,URB MEIRINHA,10,6200-295,COVILHÃ,-7.494361938581959,40.24721051083433
pt.ine.add.PTCONT.954329,R EIRA,13,6225-113,CASEGAS,-7.697456054070557,40.176737068529484
pt.ine.add.PTCONT.954332,R S SIMAO,14,6215-088,BARCO CVL,-7.611380935624384,40.17573276149407
pt.ine.add.PTCONT.954334,URB QUINTA ALAMPADA,,6200-250,COVILHÃ,-7.498733855614843,40.25225974871786
pt.ine.add.PTCONT.954336,SIT CORREDOURA,4,6215-042,BARCO CVL,-7.616283816242165,40.17325112122149
pt.ine.add.PTCONT.954337,LG IGREJA VELHA,9,6215-058,BARCO CVL,-7.607703155441631,40.17459940302164
pt.ine.add.PTCONT.954339,R IGREJA,141,6200-560,COVILHÃ,-7.50078333026311,40.28714098502882
pt.ine.add.PTCONT.954340,AV S SEBASTIÃO,3,6215-087,BARCO CVL,-7.612874768869939,40.17383024050152
pt.ine.add.PTCONT.954341,CAM SENHORA DA ESTRELA,,6200-308,COVILHÃ,-7.492627712360666,40.24416599779272
pt.ine.add.PTCONT.954343,R FLORES,9,6200-329,COVILHÃ,-7.4956121682329835,40.29932426855066
pt.ine.add.PTCONT.954344,QTA FREIXOS,,6200-804,COVILHÃ,-7.489275069041157,40.258151277152464
pt.ine.add.PTCONT.954346,R PORTAIS,94,6200-234,COVILHÃ,-7.490057214814404,40.30836219673187
pt.ine.add.PTCONT.954347,R PORTAIS,94,6200-234,COVILHÃ,-7.490057214814404,40.30836219673187
pt.ine.add.PTCONT.954348,R MONSENHOR JOAQUIM ALVES BRAZ,3,6225-134,CASEGAS,-7.697425776705222,40.17779964824187
pt.ine.add.PTCONT.954351,QTA JOSE ABREU,F,6200-259,COVILHÃ,-7.491013028846887,40.25336089252569
pt.ine.add.PTCONT.954352,R 1 DE MAIO,33,6200-023,COVILHÃ,-7.514921881424902,40.28419148651278
pt.ine.add.PTCONT.954353,R S JOSE,,6200-124,COVILHÃ,-7.501195187232307,40.28963780247843
pt.ine.add.PTCONT.954354,AV 1 DE MAIO,62,6215-517,UNHAIS DA SERRA,-7.621838272926569,40.25747103177973
pt.ine.add.PTCONT.954355,R PONTE PEDRINHA,ADART 71,6200-707,TEIXOSO,-7.454888615283088,40.31149344136691
pt.ine.add.PTCONT.954356,R MACHEDES DE BAIXO,15,6200-756,TORTOSENDO,-7.526261031029224,40.239096901716124
pt.ine.add.PTCONT.954357,CC PONTES,47,6200-765,TORTOSENDO,-7.526222952516842,40.238097064668786
pt.ine.add.PTCONT.954358,LAD GRANDE,6,6200-815,TORTOSENDO,-7.521633076561915,40.253229548836444
pt.ine.add.PTCONT.954359,AV VIRIATO,52,6200-725,TORTOSENDO,-7.527525836310791,40.23826599275748
pt.ine.add.PTCONT.954360,R PORTELA,,6225-311,SOBRAL DE SÃO MIGUEL,-7.736092594152894,40.207315821290756
pt.ine.add.PTCONT.954361,ESTR ESPERTIM,8,6200-785,TORTOSENDO,-7.5129950651718,40.250535902901404
pt.ine.add.PTCONT.954362,R POMARES,5,6200-710,TEIXOSO,-7.416784559942936,40.313785341232034
pt.ine.add.PTCONT.954363,R RESTAURACAO,43 45 4,6200-650,TEIXOSO,-7.457157219401135,40.31521702910687
pt.ine.add.PTCONT.954364,BR ESPERTIM,5,6200-785,TORTOSENDO,-7.513975719392894,40.24997379315326
pt.ine.add.PTCONT.954365,TV FORNO,67,6200-677,TEIXOSO,-7.457780795795513,40.315211665483304
pt.ine.add.PTCONT.954366,R RIBEIRINHO,32,6225-328,SOBRAL DE SÃO MIGUEL,-7.740307082012933,40.21178808817343
pt.ine.add.PTCONT.954367,R FONTE,5,6200-723,TORTOSENDO,-7.530368143894541,40.246385994093025
pt.ine.add.PTCONT.954368,R CRUZ DO CABECO,28,6200-706,TEIXOSO,-7.458946164263428,40.31277794348933
pt.ine.add.PTCONT.954369,R NUNO ÁLVARES PEREIRA,44,6200-685,TEIXOSO,-7.458507151898902,40.31315361978064
pt.ine.add.PTCONT.954370,TV RIBEIRINHO,4,6200-771,TORTOSENDO,-7.522480770282956,40.241301435659736
pt.ine.add.PTCONT.954371,R PALMEIRA,5,6200-689,TEIXOSO,-7.4611404930622385,40.3074053538857
pt.ine.add.PTCONT.954372,R F,,6200-254,TORTOSENDO,-7.5042549720009335,40.244977237529916
pt.ine.add.PTCONT.954373,R POMBAL,5,6200-723,TORTOSENDO,-7.531977269793659,40.24516958394249
pt.ine.add.PTCONT.954374,TV ESCABELADOS,10,6200-742,TORTOSENDO,-7.522496081383295,40.24090526400571
pt.ine.add.PTCONT.954375,QTA LAGE DA SERRA,,6200-708,TEIXOSO,-7.429772697702382,40.309218146480696
pt.ine.add.PTCONT.954376,TV AMOREIRA,5,6200-762,TORTOSENDO,-7.524470141046954,40.23961883603513
pt.ine.add.PTCONT.954377,R DIREITA,39,6200-737,TORTOSENDO,-7.524742992432568,40.23933208694189
pt.ine.add.PTCONT.954378,R COMÉRCIO,14,6200-721,TORTOSENDO,-7.531687157472085,40.23147033990902
pt.ine.add.PTCONT.954379,R FERNANDO JOSE GAUDENCIO BRAGA,30A,6215-639,UNHAIS DA SERRA,-7.620552636774005,40.26272469275951
pt.ine.add.PTCONT.954380,R GAGO COUTINHO,33,6200-678,TEIXOSO,-7.458163803972861,40.31573622577992
pt.ine.add.PTCONT.954381,LG STO ANTONIO,33,6200-660,TEIXOSO,-7.458163803972861,40.31573622577992
pt.ine.add.PTCONT.954382,LG STO ANTONIO,47,6200-660,TEIXOSO,-7.458163803972861,40.31573622577992
pt.ine.add.PTCONT.954383,QTA CASAL 2,,6200-738,TORTOSENDO,-7.501182537844983,40.234144615689395
pt.ine.add.PTCONT.954384,BR S CATARINA,10,6200-788,TORTOSENDO,-7.528473344761007,40.23743341256585
pt.ine.add.PTCONT.954385,R DIREITA,54,6200-641,SARZEDO CVL,-7.426174547976046,40.366579638194864
pt.ine.add.PTCONT.954386,R CAMPO,22,6200-721,TORTOSENDO,-7.531586351133266,40.23091145922418
pt.ine.add.PTCONT.954387,R JASMINS,8,6200-714,TEIXOSO,-7.458610873445307,40.31337035915286
pt.ine.add.PTCONT.954527,R BAIUCA,3,6200-001,COVILHÃ,-7.480093735371251,40.293690243657515
pt.ine.add.PTCONT.954530,BR RISCA,13,6215-682,UNHAIS DA SERRA,-7.621432436969241,40.25673076754385
pt.ine.add.PTCONT.954531,BR RISCA,13,6215-682,UNHAIS DA SERRA,-7.621432436969241,40.25673076754385
pt.ine.add.PTCONT.954539,R INDEPENDÊNCIA,8,6215-768,COUTADA,-7.58805369955338,40.19025978900792
pt.ine.add.PTCONT.954540,R 1 DE MAIO,13,6200-420,COVILHÃ,-7.500108071410113,40.29901574590107
pt.ine.add.PTCONT.954544,BR S ROMÃO,,6200-821,VERDELHOS,-7.456712237497104,40.37981126637753
pt.ine.add.PTCONT.954545,R DIREITA,6,6200-821,VERDELHOS,-7.466979357824815,40.375169987671704
pt.ine.add.PTCONT.954548,BR TERRA SENHORA,31,6215-523,UNHAIS DA SERRA,-7.630803767843577,40.251557497755314
pt.ine.add.PTCONT.954549,,,6200-801,VALE FORMOSO,-7.35169726736094,40.38171589186284
pt.ine.add.PTCONT.954550,R AMOREIRA,5,6200-821,VERDELHOS,-7.4673310813340725,40.37532510687522
pt.ine.add.PTCONT.954551,R AMOREIRA,16,6215-752,COUTADA,-7.589895702553138,40.19046657522067
pt.ine.add.PTCONT.954553,TV AMOREIRA,53,6200-821,VERDELHOS,-7.468070654058914,40.374356766698945
pt.ine.add.PTCONT.954556,SIT LADEIRA,,6200-821,VERDELHOS,-7.476719981161819,40.379746453132476
pt.ine.add.PTCONT.954557,BC RUA DIREITA,,6200-821,VERDELHOS,-7.467546209771246,40.37500214667769
pt.ine.add.PTCONT.954562,TV POÇO NEGRO,6,6200-811,VALES DO RIO,-7.54626817933822,40.200250094946334
pt.ine.add.PTCONT.954563,R AMOREIRA,6,6215-608,UNHAIS DA SERRA,-7.624070376231279,40.25920997327234
pt.ine.add.PTCONT.954564,R 9 DE JULHO,10,6200-811,VALES DO RIO,-7.545615400776864,40.199679418016096
pt.ine.add.PTCONT.954565,BC ROMÃO,7,6200-298,COVILHÃ,-7.5050720470430505,40.29896174827253
pt.ine.add.PTCONT.954566,R INDUSTRIA,145,6200-114,COVILHÃ,-7.504510120523599,40.29360033656407
pt.ine.add.PTCONT.954567,R INDUSTRIA,145,6200-114,COVILHÃ,-7.504510120523599,40.29360033656407
pt.ine.add.PTCONT.954568,R INDUSTRIA,145,6200-114,COVILHÃ,-7.504510120523599,40.29360033656407
pt.ine.add.PTCONT.954570,R 30 DE JUNHO,58,6200-405,COVILHÃ,-7.501692848569843,40.29681802322522
pt.ine.add.PTCONT.954571,R RAINHA SANTA,57,6200-821,VERDELHOS,-7.466498646620401,40.37137589495296
pt.ine.add.PTCONT.954572,R STA MARGARIDA,,6200-811,VALES DO RIO,-7.547422589339487,40.19712191969936
pt.ine.add.PTCONT.954573,R BARROCA DO PIO,,6200-425,COVILHÃ,-7.511531049647124,40.29748368175358
pt.ine.add.PTCONT.954575,R GUERRA JUNQUEIRO,20,6200-801,VALE FORMOSO,-7.377152105135931,40.376905069027366
pt.ine.add.PTCONT.954576,,,6200-821,VERDELHOS,-7.50602154142358,40.37684718205789
pt.ine.add.PTCONT.954581,R VALE,21,6200-821,VERDELHOS,-7.467541336484695,40.37549742192468
pt.ine.add.PTCONT.954582,R MEIO,4,6200-430,COVILHÃ,-7.5066259053363105,40.29754728102708
pt.ine.add.PTCONT.954583,R JOÃO XXIII,71,6200-015,COVILHÃ,-7.479172520892972,40.298971350883754
pt.ine.add.PTCONT.954584,2 TV A RUA DO PINHEIRO,7,6200-801,VALE FORMOSO,-7.378365874882512,40.37682294235133
pt.ine.add.PTCONT.954585,R LOMBA,10,6215-771,COUTADA,-7.589651747539735,40.193077121343066
pt.ine.add.PTCONT.954587,R ALAGOEIROS,39,6200-394,COVILHÃ,-7.499456797184377,40.29570710941549
pt.ine.add.PTCONT.954588,R ALAGOEIROS,39,6200-394,COVILHÃ,-7.499456797184377,40.29570710941549
pt.ine.add.PTCONT.954948,AV ANIL,20,6200-502,COVILHÃ,-7.496309444487956,40.271401552398835
pt.ine.add.PTCONT.954952,R LAMEIRAO DE BAIXO,9,6200-415,COVILHÃ,-7.5015272914222075,40.29312480382136
pt.ine.add.PTCONT.954957,RIBEIRA DE AGUA ALTA,46,6200-305,COVILHÃ,-7.510758980017005,40.264969055276715
pt.ine.add.PTCONT.954960,R SARG A TORGAL,6,6225-016,ALDEIA S FRANCISCO ASSIS,-7.735392434614951,40.14217381804546
pt.ine.add.PTCONT.954966,R GAGO COUTINHO,31,6200-678,TEIXOSO,-7.458163803972861,40.31573622577992
pt.ine.add.PTCONT.954967,R 30 DE JUNHO,58,6200-405,COVILHÃ,-7.501692848569843,40.29681802322522
pt.ine.add.PTCONT.954968,R LARANJEIRA,16,6200-801,VALE FORMOSO,-7.378930945890101,40.37683563444526
pt.ine.add.PTCONT.954982,TV D FILOMENA ANAQUIM,40,6200-557,COVILHÃ,-7.504009745816014,40.287951070981755
pt.ine.add.PTCONT.954985,R LAMEIRA,8,6200-591,PERABOA,-7.386288098499545,40.25663761819616
pt.ine.add.PTCONT.954987,EM 501,,6200-709,TEIXOSO,-7.450701511055843,40.339449173849715
pt.ine.add.PTCONT.954992,R LAMEIRA,7,6200-591,PERABOA,-7.387749530051536,40.257109607900205
pt.ine.add.PTCONT.954997,R VALEIRA,18,6215-785,COUTADA,-7.593041694373517,40.189130419121454
pt.ine.add.PTCONT.955001,BR ESPERTIM,11,6200-785,TORTOSENDO,-7.516142369562764,40.25082289647074
pt.ine.add.PTCONT.955004,R FERREIRA DE CASTRO,11,6200-095,COVILHÃ,-7.497309391490035,40.28012454601826
pt.ine.add.PTCONT.955005,TV SENHOR DA PACIENCIA,1,6200-159,COVILHÃ,-7.506226917737685,40.28090266317633
pt.ine.add.PTCONT.955027,R JOSE CAETANO JUNIOR,11,6200-126,COVILHÃ,-7.5108346946626074,40.28492605311697
pt.ine.add.PTCONT.955028,R CHÃO REDONDO,,6215-379,PAUL,-7.637211653133806,40.20131481862171
pt.ine.add.PTCONT.955045,R SANTO ANTÓNIO,6,6200-048,COVILHÃ,-7.510132430191797,40.2717559753599
pt.ine.add.PTCONT.955046,R SANTO ANTÓNIO,57,6225-122,CASEGAS,-7.699851673560515,40.1785022043592
pt.ine.add.PTCONT.955047,R SANTO ANTÓNIO,75,6225-122,CASEGAS,-7.699904077170959,40.17949304683037
pt.ine.add.PTCONT.955048,TV SANTO ANTÓNIO,2,6200-718,TEIXOSO,-7.457838179980154,40.31535609012744
pt.ine.add.PTCONT.955056,R NAMORADOS,2,6200-372,COVILHÃ,-7.5091834883541955,40.27906347507939
pt.ine.add.PTCONT.955057,R NAMORADOS,2,6200-372,COVILHÃ,-7.5091834883541955,40.27906347507939
pt.ine.add.PTCONT.955058,R D CRISTOVÃO DE CASTRO,5,6200-351,COVILHÃ,-7.506770490827965,40.27933861989948
pt.ine.add.PTCONT.955059,R D CRISTOVÃO DE CASTRO,11,6200-351,COVILHÃ,-7.506770490827965,40.27933861989948
pt.ine.add.PTCONT.955060,R CONS SANTOS VIEGAS,73,6200-385,COVILHÃ,-7.507091273613586,40.27898012893644
pt.ine.add.PTCONT.955061,R CARREIRA DE TIRO,2 B,6200-349,COVILHÃ,-7.5198224735085155,40.27151055173941
pt.ine.add.PTCONT.955062,R CARREIRA DE TIRO,2 B,6200-349,COVILHÃ,-7.5198224735085155,40.27151055173941
pt.ine.add.PTCONT.955063,TV QUINTINHA,2,6200-349,COVILHÃ,-7.5198224735085155,40.27151055173941
pt.ine.add.PTCONT.955064,R NAMORADOS,25,6200-372,COVILHÃ,-7.508840857053069,40.27924174049729
pt.ine.add.PTCONT.955065,R NAMORADOS,29,6200-372,COVILHÃ,-7.508840857053069,40.27924174049729
pt.ine.add.PTCONT.955066,AV UNIVERSIDADE,,6200-161,COVILHÃ,-7.505062251187447,40.275880186430186
pt.ine.add.PTCONT.955067,AV UNIVERSIDADE,,6200-161,COVILHÃ,-7.505062251187447,40.275880186430186
pt.ine.add.PTCONT.955068,AV UNIVERSIDADE,,6200-161,COVILHÃ,-7.505062251187447,40.275880186430186
pt.ine.add.PTCONT.955069,AV UNIVERSIDADE,,6200-161,COVILHÃ,-7.505062251187447,40.275880186430186
pt.ine.add.PTCONT.955070,AV UNIVERSIDADE,,6200-161,COVILHÃ,-7.505062251187447,40.275880186430186
