id,street,house,postcode,city,lon,lat
pt.ine.add.PTCONT.3534706,R FRANCISCO CALDEIRA AMIEIRO,,7430-030,ALDEIA DA MATA,-7.729223535387792,39.30387323973807
pt.ine.add.PTCONT.3534707,R D NUNO ÁLVARES PEREIRA,36,7430-221,FLOR DA ROSA,-7.645515448668856,39.3043003514458
pt.ine.add.PTCONT.3534712,URB FONTE DO CRESPO,18,7430-132,CRATO,-7.65203970535254,39.29117694089323
pt.ine.add.PTCONT.3534723,R SOBREIRA,26,7430-144,CRATO,-7.643645419461907,39.28648521256798
pt.ine.add.PTCONT.3534749,ESTR ESTAÇÃO,1,7430-363,VALE DO PESO,-7.643956103435402,39.28181175726302
pt.ine.add.PTCONT.3534750,R SANTO ANTÓNIO,34,7430-023,ALDEIA DA MATA,-7.730512403054001,39.30352642157578
pt.ine.add.PTCONT.3534779,LG FUNDO DA TORRE,1,7430-123,CRATO,-7.642319537738084,39.28713716005968
pt.ine.add.PTCONT.3534793,R DR JOAQUIM TAVARES MACHADO,20,7430-027,ALDEIA DA MATA,-7.730348527146321,39.30582269994601
pt.ine.add.PTCONT.3534794,MTE TAROUCA DE CIMA,,7430-171,CRATO,-7.606597672286556,39.29787084139059
pt.ine.add.PTCONT.3534795,R SALGUEIRO MAIA,103,7430-131,CRATO,-7.643958101355726,39.291521573165674
pt.ine.add.PTCONT.3534796,AV BOMBEIROS VOLUNTARIOS,,7430-111,CRATO,-7.649095887725724,39.28943535080525
pt.ine.add.PTCONT.3534824,,,7430-127,CRATO,-7.605070332966059,39.26352832206279
pt.ine.add.PTCONT.3534825,R DR TEIXEIRA GUERRA,5,7430-160,CRATO,-7.644345344342532,39.285839631214515
pt.ine.add.PTCONT.3534841,R BISPEIRO,18,7430-149,CRATO,-7.645563025604438,39.28407030888728
pt.ine.add.PTCONT.3534842,R SENHORA DAS NEVES,32,7430-224,FLOR DA ROSA,-7.64678415745864,39.30692675741211
pt.ine.add.PTCONT.3534843,R SENHORA DAS NEVES,32,7430-224,FLOR DA ROSA,-7.64678415745864,39.30692675741211
pt.ine.add.PTCONT.3534844,R ALPALHAO,24,7430-252,GÁFETE,-7.6819153158197,39.41132586318386
pt.ine.add.PTCONT.3534845,R NISA,20,7430-275,GÁFETE,-7.684003330100849,39.4116401825211
pt.ine.add.PTCONT.3534870,R DOMINGOS DE SA NOGUEIRA,13,7430-286,GÁFETE,-7.685862076202437,39.41149422313695
pt.ine.add.PTCONT.3534871,R DIAMANTINO VELEZ CASACA,5,7430-323,MONTE DA PEDRA,-7.750344606117978,39.36598614409197
pt.ine.add.PTCONT.3534872,R PRAÇA,21,7430-268,GÁFETE,-7.685127155149982,39.41021239272396
pt.ine.add.PTCONT.3534873,MTE COURELAS DO FRANQUINO,,7430-337,MONTE DA PEDRA,-7.770682781711357,39.357638577396564
pt.ine.add.PTCONT.3534897,R FONTE NOVA,9,7430-319,MONTE DA PEDRA,-7.749394570466495,39.363596121440374
pt.ine.add.PTCONT.3535239,BR MONTE NOVO,2,7430-011,ALDEIA DA MATA,-7.7316860466198545,39.30305309053039
pt.ine.add.PTCONT.3535284,R APEADEIRO,S3,7430-356,VALE DO PESO,-7.6504816446730795,39.35431088610155
pt.ine.add.PTCONT.3535286,R SALGUEIRO MAIA,105,7430-131,CRATO,-7.643958101355726,39.291521573165674
pt.ine.add.PTCONT.3535346,R STO ANTÓNIO DE CIMA,8,7430-279,GÁFETE,-7.6820833824732295,39.41047084410434
pt.ine.add.PTCONT.3535436,R S PEDRO,4,7430-172,CRATO,-7.644844054712236,39.2874630272845
pt.ine.add.PTCONT.3535351,AV SANTO CONDESTÁVEL,20,7430-211,FLOR DA ROSA,-7.646796001463701,39.305215436330904
pt.ine.add.PTCONT.3535416,,,7430-156,CRATO,-7.635767872155117,39.27279683833639
pt.ine.add.PTCONT.3535421,R STA MARIA,17,7430-171,CRATO,-7.644854854076946,39.284238479187884
pt.ine.add.PTCONT.3535422,R BOAVISTA,23,7430-316,MONTE DA PEDRA,-7.751267616391528,39.3648272543896
pt.ine.add.PTCONT.3535423,R D ÁLVARO GONÇALO PEREIRA,1,7430-220,FLOR DA ROSA,-7.645793286684542,39.30603089994557
pt.ine.add.PTCONT.3535432,R CURVAS,9,7430-022,ALDEIA DA MATA,-7.7282349192055815,39.302410633376624
pt.ine.add.PTCONT.3535437,R DOMINGOS DE SA NOGUEIRA,9,7430-286,GÁFETE,-7.685828048799529,39.411367993463976
pt.ine.add.PTCONT.3535438,R TAPADA JO PINHAL,,7430-313,MONTE DA PEDRA,-7.7513028383845635,39.36262061838645
pt.ine.add.PTCONT.3535446,R JOGO DA BOLA,,7430-291,GÁFETE,-7.681275590788889,39.413295926153886
pt.ine.add.PTCONT.3535449,R APEADEIRO,65,7430-356,VALE DO PESO,-7.6502551326052535,39.35350831103199
pt.ine.add.PTCONT.3535456,TAPADA CONVENTO,,7430-139,CRATO,-7.647718424909084,39.287484052550425
pt.ine.add.PTCONT.3535457,R ARCO,4,7430-148,CRATO,-7.645841726219678,39.28566575803778
pt.ine.add.PTCONT.3535458,R PORTELA,12,7430-143,CRATO,-7.644685651209393,39.28523757383291
pt.ine.add.PTCONT.3535463,R INDUSTRIAL,,7430-031,ALDEIA DA MATA,-7.733367171146389,39.30507649603961
pt.ine.add.PTCONT.3535464,R IGREJA,2,7430-018,ALDEIA DA MATA,-7.730450185770135,39.306291427750985
pt.ine.add.PTCONT.3535465,R CARLOS CARVALHO COSTA,25,7430-352,VALE DO PESO,-7.648544758755718,39.35086210950654
pt.ine.add.PTCONT.3535473,R DR JOAQUIM TAVARES MACHADO,77,7430-027,ALDEIA DA MATA,-7.730546082962606,39.30574231811439
pt.ine.add.PTCONT.3535953,R STO ANTÓNIO DE CIMA,,7430-279,GÁFETE,-7.682267531953914,39.410723755599165
pt.ine.add.PTCONT.3535960,R CURVAS,49,7430-022,ALDEIA DA MATA,-7.72943133126298,39.30200946206156
pt.ine.add.PTCONT.3536251,R LARGA,47,7430-031,ALDEIA DA MATA,-7.730390875161915,39.306525410667945
pt.ine.add.PTCONT.3536252,R DR JOAQUIM TAVARES MACHADO,3,7430-027,ALDEIA DA MATA,-7.730606372624279,39.30533720100706
pt.ine.add.PTCONT.3536253,R JOSE TAVARES MACHADO,97,7430-029,ALDEIA DA MATA,-7.7306671774055635,39.30484201326257
pt.ine.add.PTCONT.3536286,BR CARVALHO DE JANEIRO,11,7430-171,CRATO,-7.64620668002934,39.29656604069983
pt.ine.add.PTCONT.3536287,R 3 DE MAIO,24,7430-135,CRATO,-7.646926611724669,39.291362869052556
pt.ine.add.PTCONT.3536288,R MENDO GONÇALVES,2A,7430-166,CRATO,-7.6504110259808815,39.288657180445206
pt.ine.add.PTCONT.3536289,R 2B BR DA COOPERATIVA,27,7430-132,CRATO,-7.649326897696499,39.2895534049956
pt.ine.add.PTCONT.3536321,,,7430-156,CRATO,-7.635704104786077,39.28673078323233
pt.ine.add.PTCONT.3536322,LG FONTE,9,7430-179,CRATO,-7.560090926061637,39.26345079386917
pt.ine.add.PTCONT.3536323,R D ANTÓNIO PRIOR DO CRATO,1,7430-154,CRATO,-7.644668680713477,39.28601212566189
pt.ine.add.PTCONT.3536356,R D NUNO ÁLVARES PEREIRA,54,7430-221,FLOR DA ROSA,-7.645524229600567,39.304705712920494
pt.ine.add.PTCONT.3536357,R CARVALHO JANEIRO,14,7430-221,FLOR DA ROSA,-7.646070726923041,39.29945679150773
pt.ine.add.PTCONT.3536358,R ABRANTES,16,7430-274,GÁFETE,-7.683977969896353,39.41197334583311
pt.ine.add.PTCONT.3536359,R S PEDRO,14,7430-280,GÁFETE,-7.68343168760622,39.41025088694526
pt.ine.add.PTCONT.3536384,R S JOÃO BATISTA,,7430-295,GÁFETE,-7.680345774590236,39.40984260740169
pt.ine.add.PTCONT.3536385,R JOSE PEQUITO CRESPO,22,7430-292,GÁFETE,-7.690122436277132,39.415320509615384
pt.ine.add.PTCONT.3536386,R POÇO NOVO,16,7430-284,GÁFETE,-7.686134880622647,39.41059456543373
pt.ine.add.PTCONT.3536387,R BOAVISTA,23,7430-316,MONTE DA PEDRA,-7.750788783516523,39.36539313254602
pt.ine.add.PTCONT.3536416,CAM ALMINHAS,2,7430-360,VALE DO PESO,-7.653311590122934,39.35274633743008
pt.ine.add.PTCONT.3536417,R APEADEIRO,146,7430-356,VALE DO PESO,-7.651167895170308,39.355745865041364
pt.ine.add.PTCONT.3536418,R APEADEIRO,54,7430-356,VALE DO PESO,-7.649572026325551,39.3516229821236
pt.ine.add.PTCONT.3536536,R FONTE NOVA,21,7430-353,VALE DO PESO,-7.649469862450706,39.34961396416891
pt.ine.add.PTCONT.3536540,R 3 DE MAIO,15,7430-135,CRATO,-7.647388513214222,39.291616999493655
pt.ine.add.PTCONT.3536551,R D JOÃO DA CAMARA,12,7430-358,VALE DO PESO,-7.64714185836681,39.350739167226486
pt.ine.add.PTCONT.3536677,R S PEDRO,24,7430-280,GÁFETE,-7.683162902190383,39.4105200595615
pt.ine.add.PTCONT.3536681,R SOBREIRA,22,7430-144,CRATO,-7.643611338309122,39.28638598962442
pt.ine.add.PTCONT.3536684,TAPADA DAS ENCARREIRADAS,30,7430-330,MONTE DA PEDRA,-7.75052716169399,39.3644285079969
pt.ine.add.PTCONT.3536695,LG FONTE,20,7430-111,CRATO,-7.5602400087063915,39.26364067967102
pt.ine.add.PTCONT.3536696,R PORTALEGRE,,7430-276,GÁFETE,-7.681209446320218,39.40915242159199
pt.ine.add.PTCONT.3536699,R PRINCIPAL,27,7430-111,CRATO,-7.5627886451451065,39.263698225535805
pt.ine.add.PTCONT.3536700,R D NUNO ÁLVARES PEREIRA,100,7430-221,FLOR DA ROSA,-7.645621071122067,39.30578698419194
pt.ine.add.PTCONT.3536703,R BOAVISTA,8,7430-013,ALDEIA DA MATA,-7.730034166348654,39.30201155070452
pt.ine.add.PTCONT.3536704,R ESCOLA,ZA,7430-317,MONTE DA PEDRA,-7.749582974597268,39.35884997299322
pt.ine.add.PTCONT.3536706,R LARGA,54,7430-031,ALDEIA DA MATA,-7.730309047843926,39.30664222161507
pt.ine.add.PTCONT.3536707,R RIBEIRA,15,7430-322,MONTE DA PEDRA,-7.751004145111525,39.3663305830399
pt.ine.add.PTCONT.3536708,R APEADEIRO,82,7430-356,VALE DO PESO,-7.6498543589910435,39.3527410405397
pt.ine.add.PTCONT.3536713,R APEADEIRO,135,7430-356,VALE DO PESO,-7.651779635029766,39.35620776072658
pt.ine.add.PTCONT.3536714,R APEADEIRO,141,7430-356,VALE DO PESO,-7.652733394383901,39.35755376478
pt.ine.add.PTCONT.3536715,TV OUTEIRO,4,7430-178,CRATO,-7.646512459407535,39.28588473687534
pt.ine.add.PTCONT.3536732,R D LEONOR,9,7430-157,CRATO,-7.650120620027925,39.28706169425348
pt.ine.add.PTCONT.3537121,R CARVALHO DE JANEIRO,7,7430-145,CRATO,-7.645558342870835,39.29644623358498
pt.ine.add.PTCONT.3537177,R ANDRÉ AZEVEDO VASCONCELOS,18,7430-135,CRATO,-7.644006973662687,39.28782881090977
pt.ine.add.PTCONT.3537186,R STO ANTÓNIO DE BAIXO,14,7430-278,GÁFETE,-7.6823611150043325,39.410616033488516
pt.ine.add.PTCONT.3537212,R STA EULÁLIA,5,7430-354,VALE DO PESO,-7.64887639853444,39.35155703993202
pt.ine.add.PTCONT.3537281,R PORTALEGRE,14,7430-276,GÁFETE,-7.683329736408433,39.409854182084736
pt.ine.add.PTCONT.3537282,R PROF MANUEL SUBTIL,30,7430-361,VALE DO PESO,-7.648280551808266,39.35048270909147
pt.ine.add.PTCONT.3537287,R PRINCIPAL,3,7430-180,CRATO,-7.557445830017731,39.27376905846587
pt.ine.add.PTCONT.3537288,R COMBATENTES DO ULTRAMAR,,7430-251,GÁFETE,-7.681644783976064,39.41006382511255
pt.ine.add.PTCONT.3537294,R TAPADA DAS ENCARREIRADAS,17,7430-330,MONTE DA PEDRA,-7.750401983015554,39.36397773898878
pt.ine.add.PTCONT.3537298,R CURVAS,33,7430-022,ALDEIA DA MATA,-7.728897898709363,39.302034632993724
pt.ine.add.PTCONT.3537299,R PRINCIPAL,22,7430-111,CRATO,-7.56281488349741,39.26332004934318
pt.ine.add.PTCONT.3537300,R D NUNO ÁLVARES PEREIRA,84,7430-221,FLOR DA ROSA,-7.645600196252237,39.305453629868914
pt.ine.add.PTCONT.3537301,R 25 DE ABRIL,13,7430-225,FLOR DA ROSA,-7.646524364158551,39.30593487846531
pt.ine.add.PTCONT.3537302,R D NUNO ÁLVARES PEREIRA,41,7430-221,FLOR DA ROSA,-7.645840535155787,39.30590499672285
pt.ine.add.PTCONT.3537310,HRD GAMITO,,7430-140,CRATO,-7.677704034359486,39.2802913024689
pt.ine.add.PTCONT.3537311,R ESCOLA,7A,7430-317,MONTE DA PEDRA,-7.74965783888214,39.36001214274827
pt.ine.add.PTCONT.3537315,R ESTRADA NOVA,38,7430-015,ALDEIA DA MATA,-7.727144226389286,39.30457757944053
pt.ine.add.PTCONT.3537316,R CODECO,7,7430-151,CRATO,-7.650581454330542,39.28746893088757
pt.ine.add.PTCONT.3537317,,,7430-179,CRATO,-7.58433905121814,39.216270264986754
pt.ine.add.PTCONT.3537318,,,7430-137,CRATO,-7.474001001787327,39.18298363463101
pt.ine.add.PTCONT.3537327,BR MUNICIPAL,13,7430-119,CRATO,-7.649097185602412,39.29093055779925
pt.ine.add.PTCONT.3537328,R APEADEIRO,64,7430-356,VALE DO PESO,-7.649730717393345,39.35216406994254
pt.ine.add.PTCONT.3537334,R FORMOSA,44,7430-359,VALE DO PESO,-7.648634207352966,39.35134886769537
pt.ine.add.PTCONT.3537335,R ESTRADA NOVA,11,7430-015,ALDEIA DA MATA,-7.727388207871229,39.30448835759206
pt.ine.add.PTCONT.3537338,R MENDES,8,7430-273,GÁFETE,-7.685687064513078,39.40980922958137
pt.ine.add.PTCONT.3537340,R LARGA,65,7430-031,ALDEIA DA MATA,-7.730458321382061,39.30689494050264
pt.ine.add.PTCONT.3537343,R INDUSTRIAL,14,7430-028,ALDEIA DA MATA,-7.731118136916504,39.30505073766152
pt.ine.add.PTCONT.3537344,R FORMOSA,17,7430-359,VALE DO PESO,-7.648241205016391,39.35114006675454
pt.ine.add.PTCONT.3537789,BR COMEND,1,7430-212,FLOR DA ROSA,-7.6471298424277085,39.30555910452427
pt.ine.add.PTCONT.3537848,R STO ANTÓNIO DE BAIXO,7,7430-278,GÁFETE,-7.6824558573650865,39.41032817455794
pt.ine.add.PTCONT.3537954,R COMBATENTES DO ULTRAMAR,,7430-251,GÁFETE,-7.682074034750387,39.4101195324561
pt.ine.add.PTCONT.3537967,LG S PEDRO,8,7430-256,GÁFETE,-7.684401331451112,39.40932690334567
pt.ine.add.PTCONT.3537974,R PENEDO,23,7430-283,GÁFETE,-7.682838261570542,39.41044674703812
pt.ine.add.PTCONT.3537976,R PRAÇA,8,7430-268,GÁFETE,-7.685268559122045,39.40988868287798
pt.ine.add.PTCONT.3538010,R D EFIGENIA SA NOGUEIRA,18,7430-156,CRATO,-7.645936989355945,39.28697220698783
pt.ine.add.PTCONT.3538035,R CARVALHO DE JANEIRO,3,7430-145,CRATO,-7.645536221100718,39.29629301806932
pt.ine.add.PTCONT.3538099,R SENHORA DAS NEVES,20,7430-224,FLOR DA ROSA,-7.646423443820244,39.30711440147902
pt.ine.add.PTCONT.3538126,R OLIVENCA,20,7430-146,CRATO,-7.645662901893434,39.2847102415484
pt.ine.add.PTCONT.3538153,R INDUSTRIAL,28,7430-028,ALDEIA DA MATA,-7.731813591803735,39.3050801586089
pt.ine.add.PTCONT.3538167,R D NUNO ÁLVARES PEREIRA,27,7430-221,FLOR DA ROSA,-7.645901063077835,39.30553595427764
pt.ine.add.PTCONT.3538236,R CODECAL,11,7430-139,CRATO,-7.648474579732936,39.288766230618855
pt.ine.add.PTCONT.3538282,R APEADEIRO,,7430-356,VALE DO PESO,-7.6502775913999335,39.35361648990256
pt.ine.add.PTCONT.3538297,HORTA DO CONVENTO,,7430-122,CRATO,-7.648161683395315,39.28539621892024
pt.ine.add.PTCONT.3538322,R NISA,12,7430-275,GÁFETE,-7.683981321513295,39.411450949291364
pt.ine.add.PTCONT.3538334,BR BERINGUEL,9,7430-116,CRATO,-7.640526939385718,39.28657114128657
pt.ine.add.PTCONT.3538349,R SOBREIRA,4,7430-144,CRATO,-7.643476206264027,39.285817965121474
pt.ine.add.PTCONT.3538350,LG 25 DE ABRIL,3,7430-260,GÁFETE,-7.683090515792483,39.4109431114598
pt.ine.add.PTCONT.3538430,R D NUNO ÁLVARES PEREIRA,34,7430-221,FLOR DA ROSA,-7.645493199700357,39.30416515002222
pt.ine.add.PTCONT.3538452,R JOSE TAVARES MACHADO,97,7430-029,ALDEIA DA MATA,-7.7306896937605885,39.304959185157806
pt.ine.add.PTCONT.3538491,R JOGO BOLA,12,7430-291,GÁFETE,-7.682072414732301,39.41217313595303
pt.ine.add.PTCONT.3538526,R CRATO,5,7430-282,GÁFETE,-7.684560995394873,39.40977787222083
pt.ine.add.PTCONT.3538560,R ANDRÉ AZEVEDO VASCONCELOS,8,7430-135,CRATO,-7.643601305882551,39.28782710613798
pt.ine.add.PTCONT.3538584,R GAGO COUTINHO E SACADURA CABRAL,37,7430-161,CRATO,-7.644777076698006,39.287093449480324
pt.ine.add.PTCONT.3538599,R 25 DE ABRIL,7,7430-174,CRATO,-7.647252829244178,39.28944568913865
pt.ine.add.PTCONT.3538617,R PRINCIPAL,4,7430-180,CRATO,-7.558285319895102,39.27314269892512
pt.ine.add.PTCONT.3538682,R DR JOAQUIM TAVARES MACHADO,29,7430-027,ALDEIA DA MATA,-7.730416333826308,39.30612918045916
pt.ine.add.PTCONT.3538685,R 5 DE OUTUBRO,41,7430-137,CRATO,-7.645532263234595,39.286835404254305
pt.ine.add.PTCONT.3538687,TV ESPÍRITO SANTO,12,7430-176,CRATO,-7.646019526715807,39.2901160791452
pt.ine.add.PTCONT.3538688,R CURVAS,47,7430-022,ALDEIA DA MATA,-7.72937321112221,39.302036282247286
pt.ine.add.PTCONT.3538721,R FUNDO DA TORRE,3,7430-123,CRATO,-7.642215915903606,39.28703764357946
pt.ine.add.PTCONT.3538747,R BOAVISTA,1,7430-316,MONTE DA PEDRA,-7.751525341692117,39.36437774234113
pt.ine.add.PTCONT.3538759,R BAIRRO ALTO,33,7430-111,CRATO,-7.5609666546299215,39.26404957838995
pt.ine.add.PTCONT.3538774,R S PEDRO,2,7430-172,CRATO,-7.644728150217149,39.2874625411881
pt.ine.add.PTCONT.3538812,R MENDO GONÇALVES,,7430-166,CRATO,-7.650378047329345,39.28839583372048
pt.ine.add.PTCONT.3538835,R BISPEIRO,9,7430-149,CRATO,-7.6451330746224055,39.28423063825853
pt.ine.add.PTCONT.3538841,R ABRANTES,2,7430-274,GÁFETE,-7.683526062454145,39.41182748735714
pt.ine.add.PTCONT.3538878,TAPADA DAS ENCARREIRADAS,58,7430-330,MONTE DA PEDRA,-7.750489157170911,39.36501384764101
pt.ine.add.PTCONT.3538883,TAPADA DAS ENCARREIRADAS,50,7430-330,MONTE DA PEDRA,-7.7503301018630575,39.36439183140432
pt.ine.add.PTCONT.3538892,R 3 DE MAIO,27,7430-135,CRATO,-7.647320771245551,39.29135550702832
pt.ine.add.PTCONT.3538929,R ESTRADA NOVA,35,7430-015,ALDEIA DA MATA,-7.72968095851911,39.3049737085134
pt.ine.add.PTCONT.3538946,R BISPEIRO,23,7430-149,CRATO,-7.645389302167114,39.2840515668545
pt.ine.add.PTCONT.3538947,R ABRANTES,3,7430-274,GÁFETE,-7.683747193277117,39.41174727816934
pt.ine.add.PTCONT.3538968,R PRINCIPAL,41,7430-111,CRATO,-7.561367911040268,39.26315082370584
pt.ine.add.PTCONT.3538999,R JOSE PEQUITO CRESPO,2,7430-292,GÁFETE,-7.688800250069939,39.41507227685389
pt.ine.add.PTCONT.3539035,R CODECAL,1,7430-139,CRATO,-7.647084384315446,39.288661356269785
pt.ine.add.PTCONT.3539048,HRD VALE SECO,,7430-356,VALE DO PESO,-7.605596338330181,39.343226465928694
pt.ine.add.PTCONT.3539102,R RIBEIRA,27,7430-322,MONTE DA PEDRA,-7.75156772423773,39.367251160899954
pt.ine.add.PTCONT.3539164,R SANTO ANTÓNIO,12,7430-023,ALDEIA DA MATA,-7.730376484560828,39.30296750271708
pt.ine.add.PTCONT.3539187,R DR JOAQUIM TAVARES MACHADO,5,7430-027,ALDEIA DA MATA,-7.730617450250047,39.30542731165443
pt.ine.add.PTCONT.3539189,R APEADEIRO,15,7430-356,VALE DO PESO,-7.649117864281047,39.35018895828926
pt.ine.add.PTCONT.3539200,R CURVAS,34,7430-022,ALDEIA DA MATA,-7.728745738815333,39.302286307320834
pt.ine.add.PTCONT.3539246,BC 25 DE ABRIL,22,7430-312,MONTE DA PEDRA,-7.748861317549914,39.36350429048075
pt.ine.add.PTCONT.3539268,R PROF MANUEL SUBTIL,29,7430-361,VALE DO PESO,-7.648234708618003,39.35040145380251
pt.ine.add.PTCONT.3539275,R TRINCHEIRA,10,7430-270,GÁFETE,-7.682855342776562,39.41140156160954
pt.ine.add.PTCONT.3539299,,,7430-363,VALE DO PESO,-7.6135483399139225,39.320474108585046
pt.ine.add.PTCONT.3539300,R PONTÃO,19,7430-111,CRATO,-7.563126473971576,39.26347469816838
pt.ine.add.PTCONT.3539322,R PRINCIPAL,30,7430-111,CRATO,-7.5630398974316275,39.26414981844642
pt.ine.add.PTCONT.3539336,R JOSE DA GAMA,10,7430-165,CRATO,-7.6445268319708335,39.284741509026766
pt.ine.add.PTCONT.3539338,R MELO ANTUNES,11,7430-131,CRATO,-7.643666567696397,39.291772550593954
pt.ine.add.PTCONT.3539367,R CURVAS,28,7430-022,ALDEIA DA MATA,-7.728548294416443,39.30234867206701
pt.ine.add.PTCONT.3539381,R FONTE NOVA,26,7430-319,MONTE DA PEDRA,-7.75072878947487,39.36362753444236
pt.ine.add.PTCONT.3539397,R CMDT RUI LOPES BELO,14,7430-138,CRATO,-7.647164572852961,39.287121452660976
pt.ine.add.PTCONT.3539410,R PRAIA,2,7430-321,MONTE DA PEDRA,-7.749475766694548,39.365722075925504
pt.ine.add.PTCONT.3539426,BR MUNICIPAL,1,7430-119,CRATO,-7.648613279691456,39.29050520502396
pt.ine.add.PTCONT.3539480,R JOSE TAVARES MACHADO,75,7430-029,ALDEIA DA MATA,-7.730680988854758,39.30445474985234
pt.ine.add.PTCONT.3539486,R PORTALEGRE,12,7430-276,GÁFETE,-7.683248461161046,39.40985386783487
pt.ine.add.PTCONT.3539532,R MOSTEIRO,,7430-219,FLOR DA ROSA,-7.648465549484976,39.30688873295563
pt.ine.add.PTCONT.3539605,R PROF CATARINA DINIS CATIVO,10,7430-362,VALE DO PESO,-7.649213698431343,39.35143234281177
pt.ine.add.PTCONT.3539627,R CARVALHO DE JANEIRO,1,7430-221,FLOR DA ROSA,-7.645780564859071,39.29783427689182
pt.ine.add.PTCONT.3539628,R RIBEIRA,42,7430-322,MONTE DA PEDRA,-7.751543242229725,39.36748526636556
pt.ine.add.PTCONT.3539718,R CURVAS,17,7430-022,ALDEIA DA MATA,-7.728409437320541,39.302303153276235
pt.ine.add.PTCONT.3539766,BR COMEND,17,7430-212,FLOR DA ROSA,-7.647639518129381,39.305624281465434
pt.ine.add.PTCONT.3539779,R CRUZ,31,7430-216,FLOR DA ROSA,-7.646223509265842,39.3041772137405
pt.ine.add.PTCONT.3539794,R PENEDO,31,7430-283,GÁFETE,-7.682848482108215,39.41066295607177
pt.ine.add.PTCONT.3539814,R CARVALHO DE JANEIRO,15,7430-145,CRATO,-7.645613928804881,39.296788740994344
pt.ine.add.PTCONT.3539849,R CONVENTO,12,7430-152,CRATO,-7.648763985910213,39.28713712407081
pt.ine.add.PTCONT.3539862,R 2B BR DA COOPERATIVA,30,7430-132,CRATO,-7.649605634407039,39.28947349765537
pt.ine.add.PTCONT.3539863,R SOBREIRA,11,7430-144,CRATO,-7.643636838635494,39.28605282882691
pt.ine.add.PTCONT.3539917,R NOVA,15,7430-293,GÁFETE,-7.6839753735228555,39.41056823434069
pt.ine.add.PTCONT.3458873,BR CONVENTO,8,7430-171,CRATO,-7.649617650131162,39.28772614277323
pt.ine.add.PTCONT.3462337,R PORTELA,,7430-143,CRATO,-7.644882307406411,39.28529244205792
pt.ine.add.PTCONT.3476133,R 2B,,7430-132,CRATO,-7.649679018781144,39.288915353474515
pt.ine.add.PTCONT.3490787,R ARCO,14,7430-148,CRATO,-7.645942168777363,39.28622462747089
pt.ine.add.PTCONT.3458238,R RIBEIRINHO,6,7430-026,ALDEIA DA MATA,-7.728613374177648,39.30514114167295
pt.ine.add.PTCONT.3458239,HRD GAMITO,,7430-363,VALE DO PESO,-7.678260380123232,39.280284469756566
pt.ine.add.PTCONT.3458265,R CMDT RUI LOPES BELO,26,7430-138,CRATO,-7.646978005622419,39.287282804239304
pt.ine.add.PTCONT.3458266,R CODECO,12,7430-151,CRATO,-7.650349212247956,39.28753101890777
pt.ine.add.PTCONT.3458267,LG FONTE,16,7430-111,CRATO,-7.560542206899675,39.26352507158185
pt.ine.add.PTCONT.3458268,R TRAS,10,7430-179,CRATO,-7.55942303041586,39.26294309931043
pt.ine.add.PTCONT.3458269,R FLORES,26,7430-179,CRATO,-7.559732777076174,39.26332292947098
pt.ine.add.PTCONT.3458291,TV OUTEIRO,3,7430-178,CRATO,-7.646362410377578,39.28579403726874
pt.ine.add.PTCONT.3458292,R JOSE DA GAMA,4,7430-165,CRATO,-7.644423460856825,39.28460596653995
pt.ine.add.PTCONT.3458293,R ÁLVARO GONÇALVES PEREIRA,8,7430-134,CRATO,-7.645574240832832,39.28412439932865
pt.ine.add.PTCONT.3458294,R D NUNO ÁLVARES PEREIRA,S,7430-221,FLOR DA ROSA,-7.645895402375941,39.30468024519148
pt.ine.add.PTCONT.3458295,R ABRANTES,8,7430-274,GÁFETE,-7.6837346571218905,39.411891342703164
pt.ine.add.PTCONT.3458307,ESTR COITO DA PONTINHA,,7430-337,MONTE DA PEDRA,-7.752233076649884,39.37293684552027
pt.ine.add.PTCONT.3458322,COUTO DAS PATORRAS,,7430-356,VALE DO PESO,-7.63672397470995,39.337616815947506
pt.ine.add.PTCONT.3458323,R APEADEIRO,90,7430-356,VALE DO PESO,-7.6499340167215175,39.352966549828565
pt.ine.add.PTCONT.3458324,R PROF CATARINA DINIS CATIVO,5,7430-362,VALE DO PESO,-7.648994087094581,39.35131433664136
pt.ine.add.PTCONT.3458325,R PROF MANUEL SUBTIL,24,7430-361,VALE DO PESO,-7.648082963580149,39.35053592869518
pt.ine.add.PTCONT.3458683,R JOSE TAVARES MACHADO,104,7430-029,ALDEIA DA MATA,-7.7305966880365,39.30500389981943
pt.ine.add.PTCONT.3458684,R CURVAS,,7430-022,ALDEIA DA MATA,-7.7301356626369495,39.30250730023313
pt.ine.add.PTCONT.3458685,R BOAVISTA,12,7430-013,ALDEIA DA MATA,-7.730045501042442,39.30205662614588
pt.ine.add.PTCONT.3458737,R RIBEIRINHO,3,7430-026,ALDEIA DA MATA,-7.728797574545735,39.30536696237979
pt.ine.add.PTCONT.3458778,AV SANTO CONDESTÁVEL,10,7430-211,FLOR DA ROSA,-7.646342986151626,39.30533964412217
pt.ine.add.PTCONT.3458782,R DR JOAQUIM TAVARES MACHADO,10,7430-027,ALDEIA DA MATA,-7.730443134137057,39.30549876675949
pt.ine.add.PTCONT.3458834,R JOSE TAVARES MACHADO,87,7430-029,ALDEIA DA MATA,-7.730702679860317,39.30471603467745
pt.ine.add.PTCONT.3458835,R PENEDO,17,7430-283,GÁFETE,-7.682804819467007,39.41023044811521
pt.ine.add.PTCONT.3458846,R PRINCIPAL,16,7430-180,CRATO,-7.557816205011739,39.273824932298396
pt.ine.add.PTCONT.3458848,R BAIRRO ALTO,29,7430-111,CRATO,-7.561058174650406,39.26419414404605
pt.ine.add.PTCONT.3458850,QTA RETIRO,,7430-014,ALDEIA DA MATA,-7.697687198664694,39.304191912099974
pt.ine.add.PTCONT.3458851,R RIBEIRA,15,7430-179,CRATO,-7.560250566435115,39.26234368695954
pt.ine.add.PTCONT.3458858,R RIBEIRA,1,7430-322,MONTE DA PEDRA,-7.751295707481971,39.36606132563992
pt.ine.add.PTCONT.3458861,BR AZUL,2,7430-115,CRATO,-7.647497604247457,39.28924855101408
pt.ine.add.PTCONT.3458864,R TRAVESSINHA,12,7430-020,ALDEIA DA MATA,-7.730052228776137,39.3069475786833
pt.ine.add.PTCONT.3458865,R 2 B,13,7430-132,CRATO,-7.650267360966707,39.28932312058149
pt.ine.add.PTCONT.3458866,R CARREIRA DE CIMA,22,7430-265,GÁFETE,-7.6846615824867275,39.4122011594852
pt.ine.add.PTCONT.3458867,R NISA,43,7430-275,GÁFETE,-7.684116667660772,39.41207295886554
pt.ine.add.PTCONT.3458871,R NISA,25,7430-275,GÁFETE,-7.684166693432401,39.41151471420986
pt.ine.add.PTCONT.3458872,R CRATO,19,7430-282,GÁFETE,-7.684709454382708,39.410165748221566
pt.ine.add.PTCONT.3458876,R SERPA PINTO,10,7430-173,CRATO,-7.645575652236315,39.285592586304894
pt.ine.add.PTCONT.3458877,R SERPA PINTO,34,7430-173,CRATO,-7.645515140866723,39.28596162994124
pt.ine.add.PTCONT.3459349,AV BOMBEIROS VOLUNTARIOS,,7430-111,CRATO,-7.64879787769492,39.28894772064234
pt.ine.add.PTCONT.3459364,AV JOAQUIM DA CONCEIÇÃO LOPES,,7430-131,CRATO,-7.645204851792884,39.29059005173957
pt.ine.add.PTCONT.3459365,AV JOAQUIM DA CONCEIÇÃO LOPES,,7430-131,CRATO,-7.645204851792884,39.29059005173957
pt.ine.add.PTCONT.3459439,R CURVAS,80,7430-022,ALDEIA DA MATA,-7.729787870699109,39.3025060959183
pt.ine.add.PTCONT.3459502,,,7430-156,CRATO,-7.5434309308855445,39.245254020800324
pt.ine.add.PTCONT.3459505,R S JOÃO BATISTA,,7430-295,GÁFETE,-7.680285681842186,39.41015762067952
pt.ine.add.PTCONT.3459507,R CURVAS,64,7430-022,ALDEIA DA MATA,-7.72951134415571,39.30220789873657
pt.ine.add.PTCONT.3459508,R DESCIDA DO CASTELO,2,7430-121,CRATO,-7.6423736310709725,39.2860294972552
pt.ine.add.PTCONT.3459510,R PICAROTO,,7430-276,GÁFETE,-7.681537564915691,39.40868532834171
pt.ine.add.PTCONT.3459514,R ANTÓNIO JOSE DE ALMEIDA,17 A,7430-136,CRATO,-7.644769007169851,39.288255349758145
pt.ine.add.PTCONT.3459515,R ANTÓNIO JOSE DE ALMEIDA,17,7430-136,CRATO,-7.6447089270870965,39.28856134392387
pt.ine.add.PTCONT.3459518,R 2B BR DA COOPERATIVA,16,7430-132,CRATO,-7.650557130115141,39.28932432186895
pt.ine.add.PTCONT.3459519,R NOVA,19,7430-179,CRATO,-7.559968097668651,39.262882732408535
pt.ine.add.PTCONT.3459520,BR COMEND,2,7430-212,FLOR DA ROSA,-7.647071501440897,39.305612904260656
pt.ine.add.PTCONT.3459521,R DOMINGOS DE SA NOGUEIRA,41,7430-286,GÁFETE,-7.686078141893208,39.412206611346875
pt.ine.add.PTCONT.3459522,HORTA CARETE,,7430-151,CRATO,-7.651633534302054,39.28786059757934
pt.ine.add.PTCONT.3459523,R PRINCIPAL,14,7430-179,CRATO,-7.560765131099544,39.26318389176215
pt.ine.add.PTCONT.3459524,BC STA CATARINA,,7430-284,GÁFETE,-7.686074583157297,39.410945609169545
pt.ine.add.PTCONT.3459527,R LARGA,72,7430-031,ALDEIA DA MATA,-7.730260452378167,39.30702936447418
pt.ine.add.PTCONT.3459528,R RIBEIRINHO,5,7430-026,ALDEIA DA MATA,-7.728830748735073,39.30564630184796
pt.ine.add.PTCONT.3459529,R D EFIGENIA SA NOGUEIRA,18,7430-156,CRATO,-7.6459606069026,39.28690925510329
pt.ine.add.PTCONT.3459530,R APEADEIRO,94,7430-356,VALE DO PESO,-7.649979243216287,39.353137873278364
pt.ine.add.PTCONT.3459535,R 2B BR DA COOPERATIVA,3,7430-132,CRATO,-7.6495385056355625,39.28912193651579
pt.ine.add.PTCONT.3459536,R JOGO DA BOLA,2 A,7430-291,GÁFETE,-7.682667943956539,39.411653033856304
pt.ine.add.PTCONT.3459537,R 2 B,34,7430-132,CRATO,-7.649824992648171,39.2896005097127
pt.ine.add.PTCONT.3459538,R NISA,,7430-275,GÁFETE,-7.684042551920466,39.41276621633557
pt.ine.add.PTCONT.3459540,R MENDO GONÇALVES,,7430-166,CRATO,-7.650064853277642,39.28843056378233
pt.ine.add.PTCONT.3459541,R PORTELA,27,7430-143,CRATO,-7.644820791972634,39.28580559704323
pt.ine.add.PTCONT.3459548,R DR JOAQUIM TAVARES MACHADO,101,7430-027,ALDEIA DA MATA,-7.730665320390352,39.30516626732282
pt.ine.add.PTCONT.3459549,AV D MANUEL I,1,7430-131,CRATO,-7.644359024437413,39.290541468100244
pt.ine.add.PTCONT.3459550,AV D MANUEL I,1,7430-131,CRATO,-7.644359024437413,39.290541468100244
pt.ine.add.PTCONT.3459551,AV D MANUEL I,1,7430-131,CRATO,-7.644359024437413,39.290541468100244
pt.ine.add.PTCONT.3459982,AV D MANUEL I,1,7430-131,CRATO,-7.644359024437413,39.290541468100244
pt.ine.add.PTCONT.3460034,R IGREJA,16,7430-320,MONTE DA PEDRA,-7.747629203262497,39.36389653030818
pt.ine.add.PTCONT.3460037,BR SANTO ANTÓNIO,3,7430-023,ALDEIA DA MATA,-7.728756227796256,39.304493116965254
pt.ine.add.PTCONT.3460122,R PROF MANUEL SUBTIL,,7430-361,VALE DO PESO,-7.648281423221574,39.35035661268428
pt.ine.add.PTCONT.3460125,R ESTRADA NOVA,27,7430-015,ALDEIA DA MATA,-7.729217737383679,39.30488203007701
pt.ine.add.PTCONT.3460126,R RIBEIRA,48,7430-322,MONTE DA PEDRA,-7.751424311025907,39.368016297789076
pt.ine.add.PTCONT.3460127,R PRINCIPAL,3,7430-180,CRATO,-7.558378611977445,39.27307110150816
pt.ine.add.PTCONT.3460130,R CURVAS,86,7430-022,ALDEIA DA MATA,-7.730181673407683,39.30257051015355
pt.ine.add.PTCONT.3460132,ESTR MONTE DA PEDRA,,7430-276,GÁFETE,-7.695048322067901,39.41493384497916
pt.ine.add.PTCONT.3460135,R ANTÓNIO JOSE DE ALMEIDA,6,7430-136,CRATO,-7.644573594422069,39.28802034175905
pt.ine.add.PTCONT.3460136,R BAIXO,6,7430-111,CRATO,-7.564854003391758,39.263339024657135
pt.ine.add.PTCONT.3460140,MTE VILA GLÓRIA,,7430-363,VALE DO PESO,-7.676591473729613,39.301706173094956
pt.ine.add.PTCONT.3460141,R FLORES,22,7430-179,CRATO,-7.559873720346223,39.26308943473378
pt.ine.add.PTCONT.3460156,R 2B,,7430-132,CRATO,-7.649978458312954,39.28919582080543
pt.ine.add.PTCONT.3460157,R APEADEIRO,60,7430-356,VALE DO PESO,-7.649639956680884,39.35186645721569
pt.ine.add.PTCONT.3460159,R BISCAIAS,8,7430-271,GÁFETE,-7.684862124920303,39.409896124672876
pt.ine.add.PTCONT.3460162,R LARGA,63,7430-031,ALDEIA DA MATA,-7.730412204323992,39.30684974483075
pt.ine.add.PTCONT.3460163,R CODECO,8,7430-151,CRATO,-7.650442863428467,39.287396298516526
pt.ine.add.PTCONT.3460164,R CASTELO,38,7430-281,GÁFETE,-7.686168222669452,39.40900945035585
pt.ine.add.PTCONT.3460165,R CASTELO,32,7430-281,GÁFETE,-7.686028090056702,39.40913501082564
pt.ine.add.PTCONT.3460168,R POÇO NOVO,,7430-284,GÁFETE,-7.687045235031825,39.4098594803258
pt.ine.add.PTCONT.3460169,R APEADEIRO,34,7430-356,VALE DO PESO,-7.649333062592001,39.350946453227465
pt.ine.add.PTCONT.3460170,R APEADEIRO,22,7430-356,VALE DO PESO,-7.648710218959706,39.35042144815956
pt.ine.add.PTCONT.3460600,R SOBREIRA,,7430-144,CRATO,-7.64380348415337,39.28708936215662
pt.ine.add.PTCONT.3460647,R JOSE MARIA CASQUEIRO,1,7430-159,CRATO,-7.6448986088765025,39.28628330727101
pt.ine.add.PTCONT.3460648,R SANTO ANTÓNIO,24,7430-023,ALDEIA DA MATA,-7.730444598368542,39.303219940992356
pt.ine.add.PTCONT.3460754,R FONTE NOVA,1,7430-266,GÁFETE,-7.684258303885951,39.408092383746165
pt.ine.add.PTCONT.3460756,R CANTINA,6,7430-014,ALDEIA DA MATA,-7.730633184364126,39.30268015876368
pt.ine.add.PTCONT.3460757,MTE HORTA DO VALE SERRANO,,7430-337,MONTE DA PEDRA,-7.73598576800296,39.35661563051962
pt.ine.add.PTCONT.3460760,R 25 DE ABRIL,16,7430-225,FLOR DA ROSA,-7.646453368429712,39.30614174762249
pt.ine.add.PTCONT.3460761,TV BOAVISTA TRAVESSA DA BOAVISTA,11,7430-331,MONTE DA PEDRA,-7.751511238584022,39.36483706064164
pt.ine.add.PTCONT.3460765,R PRINCIPAL,13,7430-180,CRATO,-7.557712502025636,39.27375236201527
pt.ine.add.PTCONT.3460766,R BOAVISTA,33,7430-316,MONTE DA PEDRA,-7.751514571626632,39.364224585503635
pt.ine.add.PTCONT.3460773,BR MONTE NOVO,14,7430-011,ALDEIA DA MATA,-7.732033635725975,39.30309031743573
pt.ine.add.PTCONT.3460774,R D NUNO ÁLVARES PEREIRA,30,7430-221,FLOR DA ROSA,-7.645505542871911,39.30405711512551
pt.ine.add.PTCONT.3460775,R OUTEIRO,4,7430-326,MONTE DA PEDRA,-7.746954777466426,39.36415550168208
pt.ine.add.PTCONT.3460784,R DOMINGOS DE SA NOGUEIRA,21,7430-286,GÁFETE,-7.685941799972069,39.411737720238115
pt.ine.add.PTCONT.3460786,R BOAVISTA,9A,7430-214,FLOR DA ROSA,-7.647961247164174,39.304364612457285
pt.ine.add.PTCONT.3460788,R CARVALHO DE JANEIRO,,7430-221,FLOR DA ROSA,-7.646143261911009,39.30070009162452
pt.ine.add.PTCONT.3460789,R ABRANTES,13,7430-274,GÁFETE,-7.683932623554274,39.41180203662419
pt.ine.add.PTCONT.3460790,TV RUA DO MOINHO,3,7430-336,MONTE DA PEDRA,-7.750430009495106,39.36522081753709
pt.ine.add.PTCONT.3460791,MTE DO COCEIRAO,,7430-171,CRATO,-7.590776237331485,39.30358084385115
pt.ine.add.PTCONT.3460794,R SERPA PINTO,25,7430-173,CRATO,-7.645629856521695,39.286133247907735
pt.ine.add.PTCONT.3460801,R S JOÃO BATISTA,,7430-295,GÁFETE,-7.680101074766545,39.40997676075194
pt.ine.add.PTCONT.3460802,R POÇO NOVO,,7430-284,GÁFETE,-7.686743412798736,39.4098493156234
pt.ine.add.PTCONT.3461215,R CODECAL,7,7430-139,CRATO,-7.647616621405287,39.288798685341504
pt.ine.add.PTCONT.3461254,R STO ANTÓNIO DE CIMA,14,7430-279,GÁFETE,-7.682105095516359,39.4107051118747
pt.ine.add.PTCONT.3461346,R LADEIRA,9,7430-267,GÁFETE,-7.686436128774137,39.40887537329391
pt.ine.add.PTCONT.3461349,R ÁLVARO GONÇALVES PEREIRA,10,7430-134,CRATO,-7.645527693880667,39.28415122616456
pt.ine.add.PTCONT.3461355,R MOSTEIRO,2,7430-219,FLOR DA ROSA,-7.647449914330213,39.30621796678649
pt.ine.add.PTCONT.3461356,R S PEDRO,3,7430-280,GÁFETE,-7.683465420907875,39.41042215150712
pt.ine.add.PTCONT.3461359,R CURVAS,60,7430-022,ALDEIA DA MATA,-7.7294421999518725,39.3021356011031
pt.ine.add.PTCONT.3461360,CPO 1 DE MAIO,17,7430-120,CRATO,-7.646148336552441,39.2899274659418
pt.ine.add.PTCONT.3461361,TAPADA DAS ENCARREIRADAS,34,7430-330,MONTE DA PEDRA,-7.750386250370605,39.36473428768889
pt.ine.add.PTCONT.3461363,BR BERINGUEL,54,7430-116,CRATO,-7.6400011126949865,39.28552407546522
pt.ine.add.PTCONT.3461364,R PORTALEGRE,,7430-276,GÁFETE,-7.681870439532035,39.409281086128466
pt.ine.add.PTCONT.3461366,R ANTÓNIO JOSE DE ALMEIDA,9,7430-136,CRATO,-7.6447587928540095,39.28805714762654
pt.ine.add.PTCONT.3461367,LG MONTE NOVO,4,7430-313,MONTE DA PEDRA,-7.750948268388001,39.36380839837132
pt.ine.add.PTCONT.3461368,R FONTE NOVA,24A,7430-319,MONTE DA PEDRA,-7.750659317696976,39.36360028470705
pt.ine.add.PTCONT.3461369,R TRAS,11,7430-179,CRATO,-7.559822905977,39.26221548086945
pt.ine.add.PTCONT.3461372,R CODECO,1,7430-151,CRATO,-7.650733736868102,39.28723537354489
pt.ine.add.PTCONT.3461373,AZINHAL,,7430-179,CRATO,-7.552793391186702,39.23226749894473
pt.ine.add.PTCONT.3461374,,,7430-179,CRATO,-7.537270558251323,39.22171363484031
pt.ine.add.PTCONT.3461375,R CRUZ,11,7430-216,FLOR DA ROSA,-7.645818683850363,39.304040411781855
pt.ine.add.PTCONT.3461376,R APEADEIRO,128F,7430-356,VALE DO PESO,-7.65042140598957,39.354634893314305
pt.ine.add.PTCONT.3461378,R CARREIRA DE CIMA,10,7430-265,GÁFETE,-7.684348947785029,39.41206484804378
pt.ine.add.PTCONT.3461379,TV OUTEIRO,10,7430-178,CRATO,-7.646628735209408,39.285831179274226
pt.ine.add.PTCONT.3461380,LG CODECAL,13A,7430-128,CRATO,-7.647169627326127,39.28806723416784
pt.ine.add.PTCONT.3461381,R CORREIOS,11,7430-288,GÁFETE,-7.684623908895674,39.41083194106455
pt.ine.add.PTCONT.3461382,R CODECO,18,7430-151,CRATO,-7.6501853372793365,39.2877645276518
pt.ine.add.PTCONT.3461383,R S MARCOS,,7430-287,GÁFETE,-7.680536519431297,39.41087015456928
pt.ine.add.PTCONT.3461386,R DOS CAVALEIROS DA ORDEM SOBERANA E MILITAR DE MALTA,17,7430-148,CRATO,-7.646142384140994,39.28576609554006
pt.ine.add.PTCONT.3461387,TV OUTEIRO,5,7430-178,CRATO,-7.64646715830614,39.285731424392296
pt.ine.add.PTCONT.3461758,R COMBATENTES DO ULTRAMAR,,7430-251,GÁFETE,-7.681399795261505,39.410243015380175
pt.ine.add.PTCONT.3461759,R MOSTEIRO,12,7430-219,FLOR DA ROSA,-7.647624190920545,39.3061646503877
pt.ine.add.PTCONT.3462230,R ESTRADA NOVA,45A,7430-015,ALDEIA DA MATA,-7.730051484645754,39.30505605699545
pt.ine.add.PTCONT.3462231,BR MONTE NOVO,16A,7430-011,ALDEIA DA MATA,-7.732103194709307,39.303090557043056
pt.ine.add.PTCONT.3462263,R LARGA,,7430-031,ALDEIA DA MATA,-7.729686046585277,39.30812625767275
pt.ine.add.PTCONT.3462264,R S PEDRO,,7430-025,ALDEIA DA MATA,-7.729510946750961,39.30833281707374
pt.ine.add.PTCONT.3462265,BR CARVALHO DE JANEIRO,17,7430-171,CRATO,-7.646239833839758,39.29680036726648
pt.ine.add.PTCONT.3462266,LG CALVÁRIO,14,7430-126,CRATO,-7.644581443093689,39.29022714823797
pt.ine.add.PTCONT.3462267,URB FONTE DO CRESPO,5,7430-132,CRATO,-7.651537224901072,39.29007598058898
pt.ine.add.PTCONT.3462298,R CODECO,22,7430-151,CRATO,-7.650126518570873,39.287890385076246
pt.ine.add.PTCONT.3462299,R SOBREIRA,32,7430-144,CRATO,-7.643656006628113,39.28662937295567
pt.ine.add.PTCONT.3462300,R 5 DE OUTUBRO,55,7430-137,CRATO,-7.645448194882013,39.287258392579595
pt.ine.add.PTCONT.3462301,R GAGO COUTINHO E SACADURA CABRAL,35,7430-161,CRATO,-7.644754333809645,39.287030303398964
pt.ine.add.PTCONT.3462338,R ALPALHAO,5,7430-252,GÁFETE,-7.682067245250156,39.41117333229363
pt.ine.add.PTCONT.3462365,R PRINCIPAL,12,7430-294,GÁFETE,-7.689824012473064,39.41476994243438
pt.ine.add.PTCONT.3462366,ESTR TOLOSA,,7430-253,GÁFETE,-7.691858196147312,39.41443540760591
pt.ine.add.PTCONT.3462398,HORTA PROFESSOR,,7430-360,VALE DO PESO,-7.653371909574302,39.34562193141696
pt.ine.add.PTCONT.3462433,R JOSE TAVARES MACHADO,94,7430-029,ALDEIA DA MATA,-7.730574894155554,39.30476062910412
pt.ine.add.PTCONT.3462506,R FIGUEIRA,10,7430-140,CRATO,-7.644125071065661,39.28751405349683
pt.ine.add.PTCONT.3462512,R STA EULÁLIA,13,7430-354,VALE DO PESO,-7.648932973983516,39.35176443961569
pt.ine.add.PTCONT.3462513,R STA EULÁLIA,3,7430-354,VALE DO PESO,-7.648900097945674,39.35148508138265
pt.ine.add.PTCONT.3462586,,,7430-122,CRATO,-7.604608392965096,39.246349342893815
pt.ine.add.PTCONT.3462589,R NUNO ÁLVARES PEREIRA,24,7430-167,CRATO,-7.644985914169483,39.28873364301031
pt.ine.add.PTCONT.3462590,ESTR MONTE DA PEDRA,,7430-276,GÁFETE,-7.6893083052865245,39.41003026253388
pt.ine.add.PTCONT.3462591,TAPADA DAS ENCARREIRADAS,2,7430-330,MONTE DA PEDRA,-7.749753038196785,39.36382248155601
pt.ine.add.PTCONT.3462593,ESTR TOLOSA,18,7430-253,GÁFETE,-7.690986137286212,39.41462124486852
pt.ine.add.PTCONT.3462594,R PRINCIPAL,6,7430-294,GÁFETE,-7.689755655158077,39.41456251963527
pt.ine.add.PTCONT.3462603,BC STA CATARINA,,7430-284,GÁFETE,-7.686109876049194,39.41087368828557
pt.ine.add.PTCONT.3462605,R ESTRADA NOVA,80,7430-015,ALDEIA DA MATA,-7.7304447341370315,39.30521954801011
pt.ine.add.PTCONT.3462606,R D ANTÓNIO PRIOR DO CRATO,10,7430-154,CRATO,-7.644264087843572,39.28585730458542
pt.ine.add.PTCONT.3462607,R FORMOSA,30,7430-359,VALE DO PESO,-7.6482404580082735,39.351248149374214
pt.ine.add.PTCONT.3462609,LG GOUVEIA BOTELHO,12,7430-259,GÁFETE,-7.685878738426994,39.412521092034474
pt.ine.add.PTCONT.3462613,MTE DO ORNALHO,,7430-171,CRATO,-7.599243265279274,39.307655204279584
pt.ine.add.PTCONT.3462614,BR CARVALHO DE JANEIRO,19,7430-171,CRATO,-7.646250864362042,39.296881478440326
pt.ine.add.PTCONT.3462615,R 1 DE MAIO,17,7430-360,VALE DO PESO,-7.650552276419454,39.35078938613732
pt.ine.add.PTCONT.3462617,R MISERICÓRDIA,20,7430-142,CRATO,-7.644501837066616,39.28500261426273
pt.ine.add.PTCONT.3463028,R GAGO COUTINHO E SACADURA CABRAL,19,7430-161,CRATO,-7.644756585787515,39.28670605211446
pt.ine.add.PTCONT.3463039,R DOMINGOS DE SA NOGUEIRA,33,7430-286,GÁFETE,-7.6860329053040095,39.41201728925523
pt.ine.add.PTCONT.3463040,R PORTELA,21,7430-143,CRATO,-7.644764092117916,39.2856252143679
pt.ine.add.PTCONT.3463092,R STO ANTÓNIO DE CIMA,18,7430-279,GÁFETE,-7.682139289949212,39.410804322102386
pt.ine.add.PTCONT.3463094,BR CARVALHO DE JANEIRO,,7430-171,CRATO,-7.646373457922551,39.29591821759489
pt.ine.add.PTCONT.3463194,R JOSE TAVARES MACHADO,69,7430-029,ALDEIA DA MATA,-7.730704949294489,39.30431972412434
pt.ine.add.PTCONT.3463195,R FONTE DE ORDEM,17,7430-017,ALDEIA DA MATA,-7.727576301009734,39.304038651125666
pt.ine.add.PTCONT.3463196,R S PEDRO,,7430-025,ALDEIA DA MATA,-7.729605302450049,39.30805392000196
pt.ine.add.PTCONT.3463197,R MELO ANTUNES,110,7430-131,CRATO,-7.644431396366438,39.29180278488176
pt.ine.add.PTCONT.3463198,CPO 1 DE MAIO,22,7430-120,CRATO,-7.644329010482349,39.289856792076115
pt.ine.add.PTCONT.3463238,URB FONTE DO CRESPO,17,7430-132,CRATO,-7.651280003134143,39.2903991770335
pt.ine.add.PTCONT.3463239,R 25 DE ABRIL,11,7430-174,CRATO,-7.647402762735256,39.28955440155589
pt.ine.add.PTCONT.3463240,BR AZUL,23,7430-115,CRATO,-7.647729605761736,39.289222496673254
pt.ine.add.PTCONT.3463241,BR AZUL,1,7430-115,CRATO,-7.647152122911496,39.288922848971815
pt.ine.add.PTCONT.3463242,R SOBREIRA,3B,7430-144,CRATO,-7.643771220245308,39.286728936880785
pt.ine.add.PTCONT.3463243,R SOBREIRA,15,7430-144,CRATO,-7.6436478645951755,39.28613394036746
pt.ine.add.PTCONT.3463270,R MOSTEIRO,28,7430-219,FLOR DA ROSA,-7.64807770672712,39.30596838200853
pt.ine.add.PTCONT.3463271,R 25 DE ABRIL,14,7430-225,FLOR DA ROSA,-7.646395587928991,39.306114484436584
pt.ine.add.PTCONT.3463272,R CABINE,3,7430-215,FLOR DA ROSA,-7.645051677246088,39.305973750055834
pt.ine.add.PTCONT.3463302,R NOVA,9,7430-293,GÁFETE,-7.683754304507799,39.41063943716304
pt.ine.add.PTCONT.3463303,R FONTE NOVA,12A,7430-266,GÁFETE,-7.683770086569106,39.40818056977959
pt.ine.add.PTCONT.3463304,R JOSE PEQUITO CRESPO,24,7430-292,GÁFETE,-7.690331218383701,39.41535733267132
pt.ine.add.PTCONT.3463305,ESTR TOLOSA,6,7430-253,GÁFETE,-7.69016280006003,39.41444697881846
pt.ine.add.PTCONT.3463306,R DOMINGOS DE SA NOGUEIRA,31,7430-286,GÁFETE,-7.686010085759425,39.41195415213781
pt.ine.add.PTCONT.3463337,R MOINHO,29,7430-325,MONTE DA PEDRA,-7.750926307089644,39.36570883438921
pt.ine.add.PTCONT.3463338,R PRAIA,11,7430-321,MONTE DA PEDRA,-7.748999084257364,39.365891639301545
pt.ine.add.PTCONT.3463339,R PRAIA,4,7430-321,MONTE DA PEDRA,-7.7493360312898005,39.365811686652044
pt.ine.add.PTCONT.3463340,ESTR NACIONAL,2,7430-259,GÁFETE,-7.686167465653489,39.41276539222563
pt.ine.add.PTCONT.3463341,LG GOUVEIA BOTELHO,10,7430-259,GÁFETE,-7.6857513030723945,39.41247556676901
pt.ine.add.PTCONT.3463342,R CASTELO,17,7430-281,GÁFETE,-7.68571391223027,39.409241887811206
pt.ine.add.PTCONT.3463343,R BOAVISTA,3,7430-264,GÁFETE,-7.685670002426373,39.408845408102145
pt.ine.add.PTCONT.3463375,R MONTE NOVO,23,7430-313,MONTE DA PEDRA,-7.751248971196409,39.3639895284297
pt.ine.add.PTCONT.3463376,R OUTEIRO,15,7430-326,MONTE DA PEDRA,-7.747093917587001,39.36417397758762
pt.ine.add.PTCONT.3463377,CAM ALMINHAS,4,7430-360,VALE DO PESO,-7.653392675636934,39.352764685969156
pt.ine.add.PTCONT.3463378,R APEADEIRO,110,7430-356,VALE DO PESO,-7.650115482139654,39.353570781546885
pt.ine.add.PTCONT.3463393,R APEADEIRO,55F,7430-356,VALE DO PESO,-7.650119451057995,39.3529943409562
pt.ine.add.PTCONT.3463394,R APEADEIRO,109,7430-356,VALE DO PESO,-7.651077928514572,39.35533116408295
pt.ine.add.PTCONT.3463395,R CARLOS CARVALHO COSTA,37,7430-352,VALE DO PESO,-7.648716036278234,39.351259136855035
pt.ine.add.PTCONT.3463734,BR PERO FILHO,18,7430-117,CRATO,-7.638993293862893,39.28874439511981
pt.ine.add.PTCONT.3463836,R PENEDO,27,7430-283,GÁFETE,-7.68284917726486,39.410554874024854
pt.ine.add.PTCONT.3463837,R PROF MANUEL SUBTIL,26,7430-361,VALE DO PESO,-7.648152755571437,39.350509198091935
pt.ine.add.PTCONT.3463838,R APEADEIRO,10,7430-356,VALE DO PESO,-7.648759731463996,39.34997129692274
pt.ine.add.PTCONT.3463863,R CRUZ,35,7430-216,FLOR DA ROSA,-7.646569372330408,39.30445788335211
pt.ine.add.PTCONT.3463847,R JOSE TAVARES MACHADO,57,7430-029,ALDEIA DA MATA,-7.7307192245828205,39.30385139714213
pt.ine.add.PTCONT.3463848,R SOBREIRA,3C,7430-144,CRATO,-7.643668098487434,39.28655736584365
pt.ine.add.PTCONT.3463849,R BOAVISTA,11,7430-264,GÁFETE,-7.685808408734947,39.40899005336635
pt.ine.add.PTCONT.3463851,R S BENTO,40,7430-217,FLOR DA ROSA,-7.64873953005527,39.30582702198933
pt.ine.add.PTCONT.3463853,R 25 DE ABRIL,24,7430-225,FLOR DA ROSA,-7.646661677902758,39.30619666148271
pt.ine.add.PTCONT.3463854,R MOSTEIRO,7,7430-219,FLOR DA ROSA,-7.647439316845258,39.306073807161276
pt.ine.add.PTCONT.3463856,R TAPADA DAS ENCARREIRADAS,29,7430-330,MONTE DA PEDRA,-7.7505859644588675,39.36428458692604
pt.ine.add.PTCONT.3463859,BC 25 DE ABRIL,24,7430-312,MONTE DA PEDRA,-7.748803400430905,39.36348608493788
pt.ine.add.PTCONT.3463860,R DOMINGOS DE SA NOGUEIRA,5,7430-286,GÁFETE,-7.685851903802434,39.41126900750513
pt.ine.add.PTCONT.3463861,R ESCOLA,7,7430-317,MONTE DA PEDRA,-7.749669884670941,39.35993111804453
pt.ine.add.PTCONT.3463865,R APEADEIRO,122,7430-356,VALE DO PESO,-7.650194893603984,39.353832318169935
pt.ine.add.PTCONT.3463868,R 25 DE ABRIL,21,7430-174,CRATO,-7.647806575603356,39.28982630254022
pt.ine.add.PTCONT.3463869,R APEADEIRO,SSD,7430-356,VALE DO PESO,-7.650074410365705,39.35279599690041
pt.ine.add.PTCONT.3463870,R FONTE DE ORDEM,8A,7430-017,ALDEIA DA MATA,-7.727045714974845,39.303568425438144
pt.ine.add.PTCONT.3463871,R MOINHO,16,7430-325,MONTE DA PEDRA,-7.750393331031436,39.36556296848607
pt.ine.add.PTCONT.3463873,BR D MARIA,,7430-132,CRATO,-7.649776078476562,39.28828524954016
pt.ine.add.PTCONT.3463874,R JOÃO RAFAEL MORAIS,2E,7430-290,GÁFETE,-7.6838436078208145,39.41119821985872
pt.ine.add.PTCONT.3463875,R CODECO,16,7430-151,CRATO,-7.650267213049749,39.28765678029691
pt.ine.add.PTCONT.3464468,,,7430-146,CRATO,-7.645547314164872,39.28466472137248
pt.ine.add.PTCONT.3464469,R PROF MANUEL SUBTIL,14,7430-361,VALE DO PESO,-7.647838348538146,39.35067902334232
pt.ine.add.PTCONT.3464470,R PROF MANUEL SUBTIL,21,7430-361,VALE DO PESO,-7.647990592604488,39.35047249369117
pt.ine.add.PTCONT.3464477,R SOBREIRA,44,7430-144,CRATO,-7.643794150187785,39.28676506221436
pt.ine.add.PTCONT.3464478,MTE VALE DO TORGALHO,,7430-322,MONTE DA PEDRA,-7.71794023034424,39.35338213640038
pt.ine.add.PTCONT.3464480,R PORTALEGRE,5A,7430-276,GÁFETE,-7.682149037178723,39.40929117344624
pt.ine.add.PTCONT.3464488,R NUNO ÁLVARES PEREIRA,20,7430-167,CRATO,-7.644998255163833,39.28862560786911
pt.ine.add.PTCONT.3464489,LG FONTE,12,7430-111,CRATO,-7.560902628693604,39.26337371978892
pt.ine.add.PTCONT.3464497,R S PEDRO,4,7430-172,CRATO,-7.644889916198341,39.2875352775254
pt.ine.add.PTCONT.3464498,R FIGUEIRA,12,7430-140,CRATO,-7.644275809624463,39.2875056792023
pt.ine.add.PTCONT.3464499,R TRÁS,CP 165,7430-179,CRATO,-7.559738060639979,39.26267443317384
pt.ine.add.PTCONT.3464506,R RIBEIRINHO,14,7430-026,ALDEIA DA MATA,-7.728659126070958,39.3052493874415
pt.ine.add.PTCONT.3464507,URB FONTE DO CRESPO,7,7430-132,CRATO,-7.650854659721649,39.289884003452386
pt.ine.add.PTCONT.3464508,R FLORES,3,7430-179,CRATO,-7.560213315089667,39.262649750386785
pt.ine.add.PTCONT.3464509,R BOAVISTA,17,7430-214,FLOR DA ROSA,-7.648006687474374,39.30449991004985
pt.ine.add.PTCONT.3464515,R 2B BR DA COOPERATIVA,32,7430-132,CRATO,-7.649650387284469,39.28970787171745
pt.ine.add.PTCONT.3464516,R TRINCHEIRA,22,7430-270,GÁFETE,-7.682981731808947,39.41160921308124
pt.ine.add.PTCONT.3464518,EN 363,,7430-015,ALDEIA DA MATA,-7.727075862966671,39.304370174619464
pt.ine.add.PTCONT.3464520,R CAVALEIRO,5,7430-150,CRATO,-7.646176281469464,39.28589233872455
pt.ine.add.PTCONT.3464521,R NISA,4,7430-275,GÁFETE,-7.683971386316813,39.41118970617737
pt.ine.add.PTCONT.3464522,R APEADEIRO,51,7430-356,VALE DO PESO,-7.649894436208117,39.351975599793256
pt.ine.add.PTCONT.3464526,R S MARTINHO,5A,7430-024,ALDEIA DA MATA,-7.7312896185119175,39.30547466969753
pt.ine.add.PTCONT.3464957,R DR TEIXEIRA GUERRA,20,7430-160,CRATO,-7.643992000475941,39.28498245922412
pt.ine.add.PTCONT.3464975,R S PEDRO,39,7430-025,ALDEIA DA MATA,-7.7302819876202316,39.30731767041774
pt.ine.add.PTCONT.3464986,R D NUNO ÁLVARES PEREIRA,46,7430-221,FLOR DA ROSA,-7.645502792974876,39.304453421108285
pt.ine.add.PTCONT.3464991,R 1 DE MAIO,14,7430-360,VALE DO PESO,-7.650704036476713,39.352339244105295
pt.ine.add.PTCONT.3465072,R STA EULÁLIA,,7430-354,VALE DO PESO,-7.648898916773723,39.35165621220271
pt.ine.add.PTCONT.3465093,R BOAVISTA,22,7430-013,ALDEIA DA MATA,-7.730125515725552,39.302255062406466
pt.ine.add.PTCONT.3465094,R 3 DE MAIO,ILI,7430-135,CRATO,-7.647595971884987,39.29178900224606
pt.ine.add.PTCONT.3465095,R SALGUEIRO MAIA,87,7430-131,CRATO,-7.643635807592356,39.29119595823903
pt.ine.add.PTCONT.3465096,CPO 1 DE MAIO,31,7430-120,CRATO,-7.645511026791341,39.28989777705598
pt.ine.add.PTCONT.3465097,R CODECO,15,7430-151,CRATO,-7.650405927944984,39.287711398903156
pt.ine.add.PTCONT.3465098,LG CODECAL,5,7430-128,CRATO,-7.647540276240896,39.28810480944105
pt.ine.add.PTCONT.3465099,R CODECO,14,7430-151,CRATO,-7.650314007926043,39.287593923640024
pt.ine.add.PTCONT.3465100,R D LEONOR,7,7430-157,CRATO,-7.6501441720036345,39.28700774848524
pt.ine.add.PTCONT.3465115,BR CONVENTO,6,7430-171,CRATO,-7.649456250481336,39.28759937106214
pt.ine.add.PTCONT.3465116,TV OUTEIRO,18,7430-178,CRATO,-7.646942977899695,39.28564333963566
pt.ine.add.PTCONT.3465117,R CAVALEIRO,12,7430-150,CRATO,-7.645733731612891,39.28619673345731
pt.ine.add.PTCONT.3465144,R S BENTO,13,7430-217,FLOR DA ROSA,-7.649080394298935,39.30515289853847
pt.ine.add.PTCONT.3465183,R ALPALHAO,9,7430-252,GÁFETE,-7.682264225641205,39.41123714524786
pt.ine.add.PTCONT.3465184,R ALPALHAO,,7430-252,GÁFETE,-7.681823705273433,39.411127352525824
pt.ine.add.PTCONT.3465185,R S PEDRO,12,7430-280,GÁFETE,-7.683443645536453,39.410196890792214
pt.ine.add.PTCONT.3465186,R PRINCIPAL,2,7430-294,GÁFETE,-7.689698396244038,39.41443620260681
pt.ine.add.PTCONT.3465187,R POÇO NOVO,4,7430-284,GÁFETE,-7.685865356160421,39.41098083325778
pt.ine.add.PTCONT.3465222,TAPADA DAS ENCARREIRADAS,53,7430-330,MONTE DA PEDRA,-7.7506538157437594,39.36460906726062
pt.ine.add.PTCONT.3465223,R NISA,13,7430-275,GÁFETE,-7.684133824399495,39.41120834730373
pt.ine.add.PTCONT.3465224,R TRAVESSA DA FADAGOA,5,7430-332,MONTE DA PEDRA,-7.75181400429514,39.36463989578059
pt.ine.add.PTCONT.3465225,R POÇO,11,7430-328,MONTE DA PEDRA,-7.749071259781213,39.36330682619283
pt.ine.add.PTCONT.3465226,MTE OLIVAL,,7430-356,VALE DO PESO,-7.642084501236823,39.35394249665561
pt.ine.add.PTCONT.3465592,R DE 1 DE DEZEMBRO,11,7430-169,CRATO,-7.649016420511433,39.29087617860531
pt.ine.add.PTCONT.3465887,QTA NAVE,,7430-011,ALDEIA DA MATA,-7.731707776074054,39.32157201899246
pt.ine.add.PTCONT.3465888,R CURVAS,2A,7430-022,ALDEIA DA MATA,-7.727815232046916,39.30281449886345
pt.ine.add.PTCONT.3465889,R RIBEIRINHO,7,7430-026,ALDEIA DA MATA,-7.729056301746372,39.306745967338294
pt.ine.add.PTCONT.3465918,BR BERINGUEL,16,7430-116,CRATO,-7.640425151078661,39.286210420944805
pt.ine.add.PTCONT.3465919,BR AZUL,6,7430-115,CRATO,-7.647878358474803,39.28950234110903
pt.ine.add.PTCONT.3465920,BR AZUL,31,7430-115,CRATO,-7.64792584042125,39.28934040866817
pt.ine.add.PTCONT.3465921,EN 245,4,7430-122,CRATO,-7.647118160166847,39.288805613097246
pt.ine.add.PTCONT.3465946,R RIBEIRA,4,7430-179,CRATO,-7.559280928213137,39.26189755760012
pt.ine.add.PTCONT.3465947,R 5 DE OUTUBRO,8,7430-137,CRATO,-7.645523920605637,39.286366992677436
pt.ine.add.PTCONT.3465948,R GAGO COUTINHO E SACADURA CABRAL,11,7430-161,CRATO,-7.644746371686266,39.2865078499307
pt.ine.add.PTCONT.3465949,R ARCO,15,7430-148,CRATO,-7.6462114262462295,39.285838442226506
pt.ine.add.PTCONT.3465950,R SENHORA DAS NEVES,22,7430-224,FLOR DA ROSA,-7.6464700057337875,39.30708757448391
pt.ine.add.PTCONT.3465981,R ABRANTES,9,7430-274,GÁFETE,-7.683863130517284,39.4117747471106
pt.ine.add.PTCONT.3465982,R PROF DR JOÃO ANTÓNIO MATOS ROMÃO,12,7430-287,GÁFETE,-7.681108420084986,39.41041301784892
pt.ine.add.PTCONT.3466003,R LADEIRA,7,7430-267,GÁFETE,-7.686320252770317,39.40883890008053
pt.ine.add.PTCONT.3466004,LG MONTE NOVO,15,7430-313,MONTE DA PEDRA,-7.751226500459028,39.36385434746068
pt.ine.add.PTCONT.3466005,R IGREJA,3,7430-320,MONTE DA PEDRA,-7.747327717452897,39.363859502686765
pt.ine.add.PTCONT.3466023,R APEADEIRO,85,7430-356,VALE DO PESO,-7.650492874358984,39.35436497551015
pt.ine.add.PTCONT.3466190,R MELO ANTUNES,16,7430-131,CRATO,-7.644220625834892,39.292108146036824
pt.ine.add.PTCONT.3466247,R SANTO ANTÓNIO,22,7430-023,ALDEIA DA MATA,-7.7304334696780765,39.30313883735723
pt.ine.add.PTCONT.3466248,RESIDUAL,,7430-138,CRATO,-7.632429027493351,39.26810776015772
pt.ine.add.PTCONT.3466254,R STO ANTÓNIO DE CIMA,6,7430-279,GÁFETE,-7.6820722358576745,39.41039874439762
pt.ine.add.PTCONT.3466255,R BOAVISTA,24,7430-013,ALDEIA DA MATA,-7.73014818532063,39.30234521326727
pt.ine.add.PTCONT.3466257,TV ESPÍRITO SANTO,6,7430-176,CRATO,-7.6452896132315225,39.290067987132254
pt.ine.add.PTCONT.3466325,R JOSE TAVARES MACHADO,98,7430-029,ALDEIA DA MATA,-7.7305626815585455,39.304868673707766
pt.ine.add.PTCONT.3466326,R ÁLVARO GONÇALVES PEREIRA,21,7430-134,CRATO,-7.645351034029277,39.28455581236572
pt.ine.add.PTCONT.3466327,R JOSE DA GAMA,21,7430-165,CRATO,-7.645140914535798,39.2847711058888
pt.ine.add.PTCONT.3466330,R MISERICÓRDIA,11,7430-142,CRATO,-7.644536982669739,39.284948718267145
pt.ine.add.PTCONT.3466331,R JOSE DA GAMA,11A,7430-165,CRATO,-7.644839574377034,39.284769842638376
pt.ine.add.PTCONT.3466332,R CRATO,28,7430-282,GÁFETE,-7.684547018555667,39.41014710790858
pt.ine.add.PTCONT.3466333,R CASTELO,29,7430-281,GÁFETE,-7.685970554608607,39.4090537261261
pt.ine.add.PTCONT.3466336,R CURVAS,14,7430-022,ALDEIA DA MATA,-7.728210435766356,39.30263572920176
pt.ine.add.PTCONT.3466337,R SENHORA DAS NEVES,4,7430-224,FLOR DA ROSA,-7.645295854225177,39.30754202832533
pt.ine.add.PTCONT.3466338,R SENHORA DAS NEVES,4,7430-224,FLOR DA ROSA,-7.645295854225177,39.30754202832533
pt.ine.add.PTCONT.3466340,R FONTE NOVA,4,7430-266,GÁFETE,-7.683622272969903,39.40769361723274
pt.ine.add.PTCONT.3466343,R S MIGUEL,,7430-276,GÁFETE,-7.680256442587374,39.409292828898245
pt.ine.add.PTCONT.3466351,BR MONTE NOVO,24,7430-011,ALDEIA DA MATA,-7.732335212092053,39.30306433424778
pt.ine.add.PTCONT.3466358,R CRUZ,7,7430-216,FLOR DA ROSA,-7.6457499367938,39.30392303020404
pt.ine.add.PTCONT.3466359,R APEADEIRO,138,7430-356,VALE DO PESO,-7.650903717768685,39.35535746381576
pt.ine.add.PTCONT.3466360,R S PEDRO,,7430-025,ALDEIA DA MATA,-7.729798561096535,39.306703504912036
pt.ine.add.PTCONT.3466361,R NISA,,7430-275,GÁFETE,-7.6836458615359025,39.41306191731584
pt.ine.add.PTCONT.3466362,R APEADEIRO,66,7430-356,VALE DO PESO,-7.649753112910311,39.3522812558169
pt.ine.add.PTCONT.3466367,R ALPALHAO,2,7430-252,GÁFETE,-7.680905683284596,39.41124087956801
pt.ine.add.PTCONT.3466373,TV TORRE SINO,,7430-178,CRATO,-7.646654968719976,39.285389933874654
pt.ine.add.PTCONT.3466374,R APEADEIRO,47D,7430-356,VALE DO PESO,-7.6498256982361506,39.3518492143682
pt.ine.add.PTCONT.3466380,R INDUSTRIAL,48 B,7430-028,ALDEIA DA MATA,-7.732696442244805,39.30477695233117
pt.ine.add.PTCONT.3466794,BR SANTO ANTÓNIO,22,7430-023,ALDEIA DA MATA,-7.7295401232701835,39.30325283820001
pt.ine.add.PTCONT.3466835,TV CUNQUEIRO,21,7430-175,CRATO,-7.645230539247755,39.28688818384615
pt.ine.add.PTCONT.3466844,R JOSE GAMA,24,7430-363,VALE DO PESO,-7.64504631908885,39.285040926786245
pt.ine.add.PTCONT.3466847,R STA EULÁLIA,6,7430-354,VALE DO PESO,-7.648748787113491,39.3515565089159
pt.ine.add.PTCONT.3466896,R JOSE TAVARES MACHADO,102,7430-029,ALDEIA DA MATA,-7.730585404123574,39.30494981739304
pt.ine.add.PTCONT.3466903,R MOSTEIRO,6,7430-219,FLOR DA ROSA,-7.647496413011922,39.30620014632433
pt.ine.add.PTCONT.3466904,R PROF DR JOÃO ANTÓNIO MATOS ROMÃO,,7430-287,GÁFETE,-7.681253272889369,39.40955790965607
pt.ine.add.PTCONT.3466907,R TRAZ,8,7430-180,CRATO,-7.557461987543602,39.27321068961717
pt.ine.add.PTCONT.3466908,R TRAZ,11,7430-180,CRATO,-7.55743232563339,39.274003179863044
pt.ine.add.PTCONT.3466909,R S BENTO,34,7430-217,FLOR DA ROSA,-7.648415036748912,39.305807657049826
pt.ine.add.PTCONT.3466912,R ESTRADA NOVA,15,7430-015,ALDEIA DA MATA,-7.727945365622868,39.30437320383147
pt.ine.add.PTCONT.3466913,R JUNTA DE FREGUESIA,8,7430-222,FLOR DA ROSA,-7.646705869886409,39.3065120985798
pt.ine.add.PTCONT.3466914,R JUNTA DE FREGUESIA,8,7430-222,FLOR DA ROSA,-7.646705869886409,39.3065120985798
pt.ine.add.PTCONT.3466915,R MANUEL BRÁS FERREIRA,30,7430-032,ALDEIA DA MATA,-7.72984133939689,39.30328991089348
pt.ine.add.PTCONT.3466916,R BAIRRO ALTO,28,7430-111,CRATO,-7.560930943299901,39.2641664972214
pt.ine.add.PTCONT.3466924,R LARGA,89,7430-031,ALDEIA DA MATA,-7.730187842215517,39.3075605398815
pt.ine.add.PTCONT.3466925,R FIGUEIRA,14,7430-140,CRATO,-7.644461382107243,39.28748844366482
pt.ine.add.PTCONT.3466926,R TRAS,8,7430-179,CRATO,-7.559537938612059,39.26306075962932
pt.ine.add.PTCONT.3466927,LG ROSSIO,1,7430-213,FLOR DA ROSA,-7.64735192339374,39.30529882212903
pt.ine.add.PTCONT.3466929,R ESTRADA NOVA,52 A,7430-015,ALDEIA DA MATA,-7.727711523698083,39.30471466475371
pt.ine.add.PTCONT.3466930,R S PEDRO,,7430-025,ALDEIA DA MATA,-7.729804881678621,39.30762226447373
pt.ine.add.PTCONT.3466932,R DR MANUEL ARRIAGA,8,7430-159,CRATO,-7.645825829389419,39.28628719135783
pt.ine.add.PTCONT.3466933,R DR MANUEL ARRIAGA,8,7430-159,CRATO,-7.645825829389419,39.28628719135783
pt.ine.add.PTCONT.3466937,R RIBEIRA,10,7430-322,MONTE DA PEDRA,-7.750633074329888,39.3662843283334
pt.ine.add.PTCONT.3466938,R PRAIA,13,7430-321,MONTE DA PEDRA,-7.7488717411995385,39.365837176042845
pt.ine.add.PTCONT.3466939,R CARREIRA DE CIMA,12,7430-265,GÁFETE,-7.684406830178485,39.4120920924857
pt.ine.add.PTCONT.3466940,R NISA,41,7430-275,GÁFETE,-7.684128740923855,39.41200094898443
pt.ine.add.PTCONT.3466941,R APEADEIRO,121,7430-356,VALE DO PESO,-7.651434673234131,39.35575597662209
pt.ine.add.PTCONT.3466945,MATO SILVA,,7430-171,CRATO,-7.567382182569141,39.323555525100566
pt.ine.add.PTCONT.3466946,R JOÃO RAFAEL MORAIS,28,7430-290,GÁFETE,-7.683901951665442,39.41115340984978
pt.ine.add.PTCONT.3466947,LG 25 DE ABRIL,5A,7430-260,GÁFETE,-7.683019923677596,39.411086951345986
pt.ine.add.PTCONT.3466950,R BISCAIAS,21,7430-271,GÁFETE,-7.68515406522033,39.40963604430757
pt.ine.add.PTCONT.3466951,R CARLOS CARVALHO COSTA,7,7430-352,VALE DO PESO,-7.648419015411664,39.35059137155655
pt.ine.add.PTCONT.3466953,R IGREJA,7,7430-018,ALDEIA DA MATA,-7.730497179821786,39.30618350347385
pt.ine.add.PTCONT.3466954,R DR TEIXEIRA GUERRA,14,7430-160,CRATO,-7.6440744461466394,39.28479365337091
pt.ine.add.PTCONT.3467414,R ANDRE AZEVEDO VASCONCELOS,11,7430-135,CRATO,-7.644784413540987,39.287705972685174
pt.ine.add.PTCONT.3467514,R PENEDO,29,7430-283,GÁFETE,-7.682860556417544,39.41059094631093
pt.ine.add.PTCONT.3467515,LG BOAVISTA,17,7430-254,GÁFETE,-7.685682476434526,39.40871035010213
pt.ine.add.PTCONT.3467516,R PROF MANUEL SUBTIL,22,7430-361,VALE DO PESO,-7.647989907509536,39.35057156943368
pt.ine.add.PTCONT.3467517,R SOBREIRA,43,7430-144,CRATO,-7.643955662962771,39.286873827758114
pt.ine.add.PTCONT.3467520,,,7430-127,CRATO,-7.605848358042607,39.264846908173816
pt.ine.add.PTCONT.3467523,LG S PEDRO,3,7430-256,GÁFETE,-7.683879660719704,39.409198791243675
pt.ine.add.PTCONT.3467528,R POSANTO MEDICO,39,7430-111,CRATO,-7.5597184754771805,39.26365612743612
pt.ine.add.PTCONT.3467536,R PRINCIPAL,33,7430-111,CRATO,-7.562282205095914,39.263281410490734
pt.ine.add.PTCONT.3467542,R APEADEIRO,86,7430-356,VALE DO PESO,-7.649899895358406,39.352867329602255
pt.ine.add.PTCONT.3467546,R RIBEIRA,20,7430-322,MONTE DA PEDRA,-7.750864263120245,39.36644721654699
pt.ine.add.PTCONT.3467548,R TRAS,3,7430-355,VALE DO PESO,-7.649398631600098,39.35153219015588
pt.ine.add.PTCONT.3467549,R CASTELO,42,7430-281,GÁFETE,-7.686284846171187,39.408928834748764
pt.ine.add.PTCONT.3467550,R ROMANA,23,7430-269,GÁFETE,-7.683992242556522,39.40974865678414
pt.ine.add.PTCONT.3467950,BR BERINGUEL,26,7430-116,CRATO,-7.640089728922039,39.28610992150475
pt.ine.add.PTCONT.3467962,R D LEONOR,29,7430-157,CRATO,-7.64997602735937,39.28786273900188
pt.ine.add.PTCONT.3467999,R SANTO ANTÓNIO,6,7430-023,ALDEIA DA MATA,-7.730342272973704,39.30286830474192
pt.ine.add.PTCONT.3468027,R FIGUEIRA,5,7430-140,CRATO,-7.644380874978108,39.28739803335534
pt.ine.add.PTCONT.3468094,R SOBREIRA,62,7430-144,CRATO,-7.643848216231821,39.28732373841359
pt.ine.add.PTCONT.3468095,R PENEDO,25,7430-283,GÁFETE,-7.682849466912361,39.41050983983806
pt.ine.add.PTCONT.3468099,LG CASTELO,3,7430-127,CRATO,-7.642797598559677,39.28506750823672
pt.ine.add.PTCONT.3468100,CPO 1 DE MAIO,37,7430-120,CRATO,-7.6452329713486575,39.28987859781193
pt.ine.add.PTCONT.3468101,LG S PEDRO,,7430-256,GÁFETE,-7.68353076308292,39.40928751412589
pt.ine.add.PTCONT.3468102,R IGREJA,8,7430-320,MONTE DA PEDRA,-7.747362031654846,39.36394968791405
pt.ine.add.PTCONT.3468103,R NUNO ÁLVARES PEREIRA,18,7430-167,CRATO,-7.644987289813217,39.28853548950102
pt.ine.add.PTCONT.3468104,R D NUNO ÁLVARES PEREIRA,24,7430-221,FLOR DA ROSA,-7.645506605317602,39.30390399689759
pt.ine.add.PTCONT.3468106,R PRINCIPAL,7,7430-294,GÁFETE,-7.690508867653228,39.41480857824685
pt.ine.add.PTCONT.3468109,R BOAVISTA,2,7430-013,ALDEIA DA MATA,-7.729930604589533,39.30187608351457
pt.ine.add.PTCONT.3468110,R ESTRADA NOVA,30A,7430-015,ALDEIA DA MATA,-7.72578920810713,39.30432965125742
pt.ine.add.PTCONT.3468117,R FORMOSA,52,7430-359,VALE DO PESO,-7.648668761579427,39.35138504010658
pt.ine.add.PTCONT.3468122,R ESTRADA NOVA,1A,7430-015,ALDEIA DA MATA,-7.726833547868422,39.30417117008618
pt.ine.add.PTCONT.3468123,R GAGO COUTINHO E SACADURA CABRAL,29,7430-161,CRATO,-7.6447671127080215,39.28685921939035
pt.ine.add.PTCONT.3468125,AV BOMBEIROS VOLUNTARIOS,,7430-111,CRATO,-7.648680791604379,39.289118371124836
pt.ine.add.PTCONT.3468126,R CMDT RUI LOPES BELO,36,7430-138,CRATO,-7.6468265203392125,39.28739926582345
pt.ine.add.PTCONT.3468131,R CARMELO BEATO NUNO,2,7430-138,CRATO,-7.64639989933726,39.292099261791634
pt.ine.add.PTCONT.3468132,R D SANCHO II,,7430-155,CRATO,-7.649107854101904,39.28769700302785
pt.ine.add.PTCONT.3468513,R BOAVISTA,14,7430-316,MONTE DA PEDRA,-7.7511173120476,39.3647276824989
pt.ine.add.PTCONT.3468521,R CARMELO BEATO NUNO,2,7430-138,CRATO,-7.64639989933726,39.292099261791634
pt.ine.add.PTCONT.3468524,R CONVENTO,25,7430-152,CRATO,-7.649620622932555,39.28729380746303
pt.ine.add.PTCONT.3468580,LG TERREIRO,38,7430-012,ALDEIA DA MATA,-7.730182446300722,39.30647965332791
pt.ine.add.PTCONT.3468672,R JOSE TAVARES MACHADO,100,7430-029,ALDEIA DA MATA,-7.730585662093377,39.304904782106746
pt.ine.add.PTCONT.3468679,R FIGUEIRA,11,7430-140,CRATO,-7.6445896280237875,39.287380894908694
pt.ine.add.PTCONT.3468680,R FONTE NOVA,3,7430-353,VALE DO PESO,-7.649096899635986,39.34986461383697
pt.ine.add.PTCONT.3468686,R CURVAS,10,7430-022,ALDEIA DA MATA,-7.728082340833707,39.30273436326788
pt.ine.add.PTCONT.3468687,R SOBREIRA,17,7430-144,CRATO,-7.643716967162148,39.28619728153489
pt.ine.add.PTCONT.3468690,R D ÁLVARO GONÇALO PEREIRA,7,7430-220,FLOR DA ROSA,-7.645780693711121,39.30617496264309
pt.ine.add.PTCONT.3468691,TAPADA DAS ENCARREIRADAS,22,7430-330,MONTE DA PEDRA,-7.749679478865777,39.36454281107462
pt.ine.add.PTCONT.3468694,R 1 DE MAIO,2,7430-223,FLOR DA ROSA,-7.647126354021569,39.30606349394347
pt.ine.add.PTCONT.3468699,R DOMINGOS DE SA NOGUEIRA,45,7430-286,GÁFETE,-7.686123723794426,39.412341892384845
pt.ine.add.PTCONT.3468700,URB FONTE DO CRESPO,20,7430-132,CRATO,-7.651855481264763,39.29099603482266
pt.ine.add.PTCONT.3468701,LG POÇO NOVO,16,7430-258,GÁFETE,-7.686672197489875,39.410092233073556
pt.ine.add.PTCONT.3468704,R 3 DE MAIO,37,7430-135,CRATO,-7.648322822592398,39.29060307563978
pt.ine.add.PTCONT.3468705,R D EFIGENIA SA NOGUEIRA,20,7430-156,CRATO,-7.645901718977017,39.28704411735048
pt.ine.add.PTCONT.3468707,AV BOMBEIROS VOLUNTARIOS,,7430-111,CRATO,-7.649226795644832,39.288940496707006
pt.ine.add.PTCONT.3468708,R JOGO DA BOLA,15,7430-291,GÁFETE,-7.682433055683236,39.41206644889405
pt.ine.add.PTCONT.3468709,R APEADEIRO,57,7430-356,VALE DO PESO,-7.650175783277064,39.35323776755201
pt.ine.add.PTCONT.3468711,TV ALMEIDA,15,7430-144,CRATO,-7.644201252240517,39.28655960574297
pt.ine.add.PTCONT.3468712,R APEADEIRO,73,7430-356,VALE DO PESO,-7.650300484204699,39.353661620580354
pt.ine.add.PTCONT.3468715,R 2B BR DA COOPERATIVA,26,7430-132,CRATO,-7.649842836238323,39.28869085250048
pt.ine.add.PTCONT.3468716,BR D MARIA,,7430-132,CRATO,-7.649798330980872,39.288420450533785
pt.ine.add.PTCONT.3468719,BR CARVALHO DE JANEIRO,,7430-171,CRATO,-7.646500968233415,39.29591875058841
pt.ine.add.PTCONT.3468720,LG CODECAL,2,7430-128,CRATO,-7.647341929967025,39.28829313417196
pt.ine.add.PTCONT.3468721,R CMDT RUI LOPES BELO,18,7430-138,CRATO,-7.647117962252157,39.287157287093095
pt.ine.add.PTCONT.3468722,R FUNDÃO,20,7430-357,VALE DO PESO,-7.647521882687659,39.351146074911505
pt.ine.add.PTCONT.3468726,R VALE,20,7430-285,GÁFETE,-7.685097164405557,39.40945568392716
pt.ine.add.PTCONT.3468727,R VALE,9,7430-285,GÁFETE,-7.68509872062477,39.40921249919321
pt.ine.add.PTCONT.3468728,R FORMOSA,1 A,7430-359,VALE DO PESO,-7.64769627113555,39.351092759511644
pt.ine.add.PTCONT.3469154,R PICAROTO,,7430-276,GÁFETE,-7.681041219061569,39.40823304749287
pt.ine.add.PTCONT.3469198,BR SANTO ANTÓNIO,28,7430-023,ALDEIA DA MATA,-7.729923628617851,39.30309203665776
pt.ine.add.PTCONT.3469202,R STO ANTÓNIO DE BAIXO,4,7430-278,GÁFETE,-7.68229342179174,39.41030953110014
pt.ine.add.PTCONT.3469500,R 3 DE MAIO,5,7430-135,CRATO,-7.6482941128158295,39.29140460019779
pt.ine.add.PTCONT.3469501,,,7430-363,VALE DO PESO,-7.64280091952195,39.28126646370601
pt.ine.add.PTCONT.3469502,R CMDT RUI LOPES BELO,30,7430-138,CRATO,-7.646942922973205,39.28732769397218
pt.ine.add.PTCONT.3469503,R D LEONOR,20,7430-157,CRATO,-7.649815122016921,39.287663911899806
pt.ine.add.PTCONT.3469558,BR COMEND,3,7430-212,FLOR DA ROSA,-7.647082658798724,39.305676001339585
pt.ine.add.PTCONT.3469559,R CARVALHO DE JANEIRO,19,7430-221,FLOR DA ROSA,-7.6456586727620355,39.29702311624228
pt.ine.add.PTCONT.3469560,R JOGO DA BOLA,14,7430-291,GÁFETE,-7.682457669503646,39.41185037482061
pt.ine.add.PTCONT.3469590,R JOÃO EDUARDO NUNES PEQUITO,8,7430-289,GÁFETE,-7.68921958228451,39.41486671533918
pt.ine.add.PTCONT.3469591,R PRINCIPAL,4,7430-294,GÁFETE,-7.6897212199102984,39.414499338997274
pt.ine.add.PTCONT.3469592,R NISA,23,7430-275,GÁFETE,-7.6841441067931475,39.411415549381275
pt.ine.add.PTCONT.3469593,R POÇO NOVO,5,7430-284,GÁFETE,-7.686571147306584,39.409551421444675
pt.ine.add.PTCONT.3469594,R LADEIRA,3,7430-267,GÁFETE,-7.686262372300924,39.408811656586494
pt.ine.add.PTCONT.3469595,HRD MONTALEGRE,,7430-356,VALE DO PESO,-7.584252063667823,39.35364809903059
pt.ine.add.PTCONT.3469596,HRD MONTALEGRE,,7430-356,VALE DO PESO,-7.584252063667823,39.35364809903059
pt.ine.add.PTCONT.3469597,HRD MONTALEGRE,,7430-356,VALE DO PESO,-7.584252063667823,39.35364809903059
pt.ine.add.PTCONT.3469617,R 1 DE MAIO,11,7430-360,VALE DO PESO,-7.650218275303708,39.3521210581904
pt.ine.add.PTCONT.3469741,R SERPA PINTO,15,7430-173,CRATO,-7.6456425082264685,39.285980177727716
pt.ine.add.PTCONT.3469746,R S PEDRO,8,7430-280,GÁFETE,-7.683525268235126,39.41014316387543
pt.ine.add.PTCONT.3469792,R CURVAS,76,7430-022,ALDEIA DA MATA,-7.729672612241747,39.3023886024679
pt.ine.add.PTCONT.3469814,AV D MANUEL I,79,7430-131,CRATO,-7.643964931940045,39.29053981315231
pt.ine.add.PTCONT.3469828,R MENDO GONÇALVES,22,7430-166,CRATO,-7.650400115518425,39.28855805555911
pt.ine.add.PTCONT.3469853,,,7430-122,CRATO,-7.572157391493246,39.24106341403933
pt.ine.add.PTCONT.3469854,R GAGO COUTINHO E SACADURA CABRAL,8,7430-161,CRATO,-7.644676391984383,39.28657060709795
pt.ine.add.PTCONT.3469855,R SERPA PINTO,23,7430-173,CRATO,-7.645595460500421,39.286079060435064
pt.ine.add.PTCONT.3469892,R DR TEIXEIRA GUERRA,4,7430-160,CRATO,-7.644283817629342,39.28468644558973
pt.ine.add.PTCONT.3469893,R JOSE DA GAMA,15,7430-165,CRATO,-7.64494344674617,39.2848333288907
pt.ine.add.PTCONT.3469894,R SENHORA DAS NEVES,12,7430-224,FLOR DA ROSA,-7.6456675419406475,39.30744450583636
pt.ine.add.PTCONT.3469895,R D ÁLVARO GONÇALO PEREIRA,2,7430-220,FLOR DA ROSA,-7.645480199330124,39.30603859620817
pt.ine.add.PTCONT.3469896,R D ÁLVARO GONÇALO PEREIRA,6,7430-220,FLOR DA ROSA,-7.645213048202272,39.30610953463888
pt.ine.add.PTCONT.3469897,R D ÁLVARO GONÇALO PEREIRA,21,7430-220,FLOR DA ROSA,-7.645604416064621,39.30651649870532
pt.ine.add.PTCONT.3469898,R D NUNO ÁLVARES PEREIRA,6,7430-221,FLOR DA ROSA,-7.645474825848783,39.30347151738831
pt.ine.add.PTCONT.3469899,R CABINE,5,7430-215,FLOR DA ROSA,-7.6452026429429605,39.3059383539829
pt.ine.add.PTCONT.3469900,R CARVALHO DE JANEIRO,15,7430-221,FLOR DA ROSA,-7.646126879256252,39.299718235868404
pt.ine.add.PTCONT.3469929,R TRINCHEIRA,4,7430-270,GÁFETE,-7.6828679965003195,39.41123948349567
pt.ine.add.PTCONT.3469930,R CRATO,36,7430-282,GÁFETE,-7.684604091605437,39.41030044801211
pt.ine.add.PTCONT.3469931,R S MIGUEL,,7430-276,GÁFETE,-7.6809641688640875,39.409376645167164
pt.ine.add.PTCONT.3469932,R JOSE PEQUITO CRESPO,,7430-292,GÁFETE,-7.689055477240897,39.415109279574494
pt.ine.add.PTCONT.3469965,R CARREIRA DE CIMA,1,7430-265,GÁFETE,-7.684268536209271,39.411929431938724
pt.ine.add.PTCONT.3469966,R NISA,29,7430-275,GÁFETE,-7.6841657692366345,39.41165882360749
pt.ine.add.PTCONT.3469967,R PRAÇA,14,7430-268,GÁFETE,-7.685198548815523,39.409942455732526
pt.ine.add.PTCONT.3469968,R BISCAIAS,7,7430-271,GÁFETE,-7.684967659553486,39.40973440410932
pt.ine.add.PTCONT.3469969,R BOAVISTA,33,7430-337,MONTE DA PEDRA,-7.890715132658143,39.335972910835245
pt.ine.add.PTCONT.3469970,R APEADEIRO QTA NOVA,,7430-356,VALE DO PESO,-7.64723772327476,39.34862288807395
pt.ine.add.PTCONT.3470005,R TRAS,16,7430-355,VALE DO PESO,-7.649118094037256,39.35183726674779
pt.ine.add.PTCONT.3470006,R CARLOS CARVALHO COSTA,23,7430-352,VALE DO PESO,-7.648486878578056,39.35084385421952
pt.ine.add.PTCONT.3470346,R DR JOAQUIM TAVARES MACHADO,33,7430-027,ALDEIA DA MATA,-7.730380933368422,39.30623714481005
pt.ine.add.PTCONT.3470383,R NISA,47,7430-275,GÁFETE,-7.684034580905157,39.41219874085946
pt.ine.add.PTCONT.3470414,R FONTE NOVA,22A,7430-266,GÁFETE,-7.683859560446411,39.408712332157755
pt.ine.add.PTCONT.3470545,R CASTELO,5,7430-281,GÁFETE,-7.6854916974100504,39.409493230835125
pt.ine.add.PTCONT.3470546,R APEADEIRO,8,7430-356,VALE DO PESO,-7.6487137014835564,39.349917062476834
pt.ine.add.PTCONT.3470548,LG IGREJA,3,7430-261,GÁFETE,-7.68414999866087,39.41049685187392
pt.ine.add.PTCONT.3470556,LG CASTELO,2,7430-127,CRATO,-7.6426819493144,39.28503099220733
pt.ine.add.PTCONT.3470557,R COMBATENTES DO ULTRAMAR,,7430-251,GÁFETE,-7.681958100964363,39.41009206174388
pt.ine.add.PTCONT.3470558,R MOINHO,3,7430-325,MONTE DA PEDRA,-7.749828106867472,39.36494862230836
pt.ine.add.PTCONT.3470564,R JOSE PEQUITO CRESPO,18,7430-292,GÁFETE,-7.689867378859472,39.415256488713545
pt.ine.add.PTCONT.3470565,R TAPADA DAS ENCARREIRADAS,27,7430-330,MONTE DA PEDRA,-7.750656468505707,39.364122689979986
pt.ine.add.PTCONT.3470566,R PRINCIPAL,15,7430-294,GÁFETE,-7.691019094677678,39.41491860299725
pt.ine.add.PTCONT.3470570,R MONTE NOVO,51,7430-337,MONTE DA PEDRA,-7.889250777165817,39.33680752318125
pt.ine.add.PTCONT.3470572,R JOÃO EDUARDO NUNES PEQUITO,5,7430-289,GÁFETE,-7.68934987935825,39.414461894879224
pt.ine.add.PTCONT.3470586,R FUNDÃO,6,7430-357,VALE DO PESO,-7.647384541881721,39.3508752874757
pt.ine.add.PTCONT.3470588,R LARGA,67,7430-031,ALDEIA DA MATA,-7.730388345663794,39.306966756324705
pt.ine.add.PTCONT.3470963,R S JOÃO BATISTA,,7430-295,GÁFETE,-7.680028845353335,39.410372790178556
pt.ine.add.PTCONT.3470975,R DIAMANTINO VELEZ CASACA,4,7430-323,MONTE DA PEDRA,-7.749661423278128,39.36572268780582
pt.ine.add.PTCONT.3470998,R IGREJA,18,7430-320,MONTE DA PEDRA,-7.747698921661292,39.36387874692524
pt.ine.add.PTCONT.3471032,R SANTO ANTÓNIO,14,7430-277,GÁFETE,-7.682579808795457,39.41091411362663
pt.ine.add.PTCONT.3471064,R GAGO COUTINHO E SACADURA CABRAL,44,7430-161,CRATO,-7.644568887762561,39.28702952545351
pt.ine.add.PTCONT.3471171,R MELO ANTUNES,16,7430-131,CRATO,-7.64355103243804,39.29171802145536
pt.ine.add.PTCONT.3471172,BR PERO FILHO,4,7430-117,CRATO,-7.638653744587146,39.28922934449826
pt.ine.add.PTCONT.3471173,HRD GAMITO,,7430-132,CRATO,-7.683118325430998,39.27998809051713
pt.ine.add.PTCONT.3471214,BR AZUL,9,7430-115,CRATO,-7.6473831901267255,39.2890319000179
pt.ine.add.PTCONT.3471215,AV BOMBEIROS VOLUNTARIOS,,7430-111,CRATO,-7.648275201666346,39.28742332158714
pt.ine.add.PTCONT.3471216,AV BOMBEIROS VOLUNTARIOS,,7430-111,CRATO,-7.648596631027182,39.28787502168171
pt.ine.add.PTCONT.3471217,R CMDT RUI LOPES BELO,22,7430-138,CRATO,-7.647024678642947,39.28723796288236
pt.ine.add.PTCONT.3471218,R CONVENTO,24,7430-152,CRATO,-7.649365261687302,39.28734679027623
pt.ine.add.PTCONT.3471219,R CONVENTO,21,7430-152,CRATO,-7.649435609751049,39.28722998836323
pt.ine.add.PTCONT.3471220,R PRINCIPAL,23,7430-111,CRATO,-7.5627564409240176,39.263382813908585
pt.ine.add.PTCONT.3471253,R MISERICÓRDIA,12,7430-142,CRATO,-7.6444213952912845,39.28490319697749
pt.ine.add.PTCONT.3471254,R ÁLVARO GONÇALVES PEREIRA,25,7430-134,CRATO,-7.6452109545102385,39.28469934142501
pt.ine.add.PTCONT.3471255,R BISPEIRO,10,7430-149,CRATO,-7.645342067983283,39.28417747045349
pt.ine.add.PTCONT.3471256,R PROF DR JOÃO ANTÓNIO MATOS ROMÃO,,7430-287,GÁFETE,-7.681252575293557,39.40966599169776
pt.ine.add.PTCONT.3471285,ESTR TOLOSA,14,7430-253,GÁFETE,-7.690754247765281,39.41456632101007
pt.ine.add.PTCONT.3471286,R MOINHO,22,7430-325,MONTE DA PEDRA,-7.750543930970969,39.36560849939369
pt.ine.add.PTCONT.3471287,R NISA,15,7430-275,GÁFETE,-7.68414503102552,39.41127143997802
pt.ine.add.PTCONT.3471288,R VALE,7,7430-285,GÁFETE,-7.6850296332108705,39.40912216248079
pt.ine.add.PTCONT.3471314,R APEADEIRO,104,7430-356,VALE DO PESO,-7.650058963808664,39.35335437558764
pt.ine.add.PTCONT.3471315,R FORMOSA,40,7430-359,VALE DO PESO,-7.648460316748028,39.35133012941879
pt.ine.add.PTCONT.3471316,R FUNDÃO,5,7430-357,VALE DO PESO,-7.647500551114358,39.3508757715763
pt.ine.add.PTCONT.3471317,R PROF MANUEL SUBTIL,25,7430-361,VALE DO PESO,-7.648037369685947,39.350418645786796
pt.ine.add.PTCONT.3471607,R PRINCIPAL,11,7430-179,CRATO,-7.560510305961331,39.26317363182319
pt.ine.add.PTCONT.3471795,R JOSE TAVARES MACHADO,106,7430-029,ALDEIA DA MATA,-7.730561598021018,39.3050578219085
pt.ine.add.PTCONT.3471796,SEM DESIGNACAO,50,7430-015,ALDEIA DA MATA,-7.7274683737236405,39.304659774408755
pt.ine.add.PTCONT.3471797,MTE VELADAS 1,,7430-171,CRATO,-7.506908084261407,39.32065185499882
pt.ine.add.PTCONT.3471798,BR CARVALHO DE JANEIRO,3,7430-171,CRATO,-7.6461625584741935,39.296241595960495
pt.ine.add.PTCONT.3471799,R CARVALHO DE JANEIRO,17,7430-145,CRATO,-7.645624958602592,39.296869852223125
pt.ine.add.PTCONT.3471848,AV D MANUEL I,62,7430-131,CRATO,-7.643978402769599,39.290269652638536
pt.ine.add.PTCONT.3471849,R ANDRÉ AZEVEDO VASCONCELOS,10,7430-135,CRATO,-7.643752045168181,39.28781873252662
pt.ine.add.PTCONT.3471850,LG CODECAL,8,7430-128,CRATO,-7.647506810868447,39.28791551780462
pt.ine.add.PTCONT.3471880,R BAIRRO ALTO,30,7430-111,CRATO,-7.561185259701494,39.264239804519086
pt.ine.add.PTCONT.3471881,R MOSTEIRO,14,7430-219,FLOR DA ROSA,-7.647693938815967,39.30613791958203
pt.ine.add.PTCONT.3471882,R S BENTO,,7430-217,FLOR DA ROSA,-7.649722621854745,39.306173382149794
pt.ine.add.PTCONT.3471910,R JOGO DA BOLA,2A,7430-291,GÁFETE,-7.682516072751323,39.411796558685
pt.ine.add.PTCONT.3471911,R ALPALHAO,,7430-252,GÁFETE,-7.682565357483704,39.4113554036291
pt.ine.add.PTCONT.3471949,ESTR TOLOSA,2,7430-253,GÁFETE,-7.689629297776454,39.41434586864415
pt.ine.add.PTCONT.3471950,ESTR NACIONAL,17,7430-253,GÁFETE,-7.686965656025912,39.41323682304791
pt.ine.add.PTCONT.3471951,R NISA,9,7430-275,GÁFETE,-7.684099511402783,39.411127151327804
pt.ine.add.PTCONT.3471993,R ESCOLA,13,7430-317,MONTE DA PEDRA,-7.749237943918069,39.362532761222916
pt.ine.add.PTCONT.3471994,R APEADEIRO,128E,7430-356,VALE DO PESO,-7.650410300276972,39.35456279013618
pt.ine.add.PTCONT.3472359,R JOGO DA BOLA,25,7430-291,GÁFETE,-7.682152648252159,39.4123355740487
pt.ine.add.PTCONT.3472368,R 1 DE MAIO,6,7430-360,VALE DO PESO,-7.650437767293157,39.35225707583537
pt.ine.add.PTCONT.3472442,R SANTO ANTÓNIO,43,7430-023,ALDEIA DA MATA,-7.730731952478798,39.303653281907735
pt.ine.add.PTCONT.3472468,AV D MANUEL I,62,7430-131,CRATO,-7.643978402769599,39.290269652638536
pt.ine.add.PTCONT.3472557,R ESTRADA NOVA,55,7430-015,ALDEIA DA MATA,-7.730213741800254,39.30506562585775
pt.ine.add.PTCONT.3472558,AV D MANUEL I,102,7430-131,CRATO,-7.643594021383951,39.29053825433583
pt.ine.add.PTCONT.3472559,R MELO ANTUNES,96,7430-131,CRATO,-7.643220537697369,39.29090598019329
pt.ine.add.PTCONT.3472561,R MISERICÓRDIA,13,7430-142,CRATO,-7.644606335169072,39.28497603098614
pt.ine.add.PTCONT.3472562,R PENEDO,3A,7430-283,GÁFETE,-7.682726093346119,39.40983383262487
pt.ine.add.PTCONT.3472563,R BENAVENTE,3,7430-254,GÁFETE,-7.685487285128819,39.40836733077428
pt.ine.add.PTCONT.3472565,R MOSTEIRO,16,7430-219,FLOR DA ROSA,-7.64775209312869,39.306111140401235
pt.ine.add.PTCONT.3472577,R ANTÓNIO JOSÉ DE ALMEIDA,19,7430-136,CRATO,-7.644708426568858,39.28863339974289
pt.ine.add.PTCONT.3472578,R RIBEIRA,12,7430-179,CRATO,-7.5599615727913445,39.262261199697015
pt.ine.add.PTCONT.3472584,R S PEDRO,,7430-025,ALDEIA DA MATA,-7.729640911919301,39.30790992772531
pt.ine.add.PTCONT.3472585,HRD AZINHAL DO PESO,,7430-356,VALE DO PESO,-7.6369382694732195,39.3581630305569
pt.ine.add.PTCONT.3472586,MTE COURELA TI JOÃO BRANCO,,7430-360,VALE DO PESO,-7.6766240472724165,39.35377685320527
pt.ine.add.PTCONT.3472598,R ALMINHAS,,7430-021,ALDEIA DA MATA,-7.725241038940902,39.302895581524716
pt.ine.add.PTCONT.3472601,R ALPALHAO,13,7430-252,GÁFETE,-7.68233377551139,39.411255428876814
pt.ine.add.PTCONT.3472602,R ALPALHAO,,7430-252,GÁFETE,-7.6817193808765145,39.411099926611094
pt.ine.add.PTCONT.3472604,R CARMELO BEATO NUNO,,7430-138,CRATO,-7.644396442785862,39.29349599806871
pt.ine.add.PTCONT.3472605,R D SANCHO II,,7430-155,CRATO,-7.649547116033753,39.287869965740036
pt.ine.add.PTCONT.3472606,LG LUIS DE CAMÕES,7,7430-129,CRATO,-7.644517882816345,39.28602950746873
pt.ine.add.PTCONT.3472607,R BISCAIAS,1,7430-271,GÁFETE,-7.684629678946566,39.40993125708542
pt.ine.add.PTCONT.3472608,R BISCAIAS,13,7430-271,GÁFETE,-7.685014217782191,39.40971656931831
pt.ine.add.PTCONT.3472612,R INDUSTRIAL,24,7430-028,ALDEIA DA MATA,-7.731755727233618,39.305061944669774
pt.ine.add.PTCONT.3472613,R CASTELO,30,7430-281,GÁFETE,-7.685946412916609,39.409197746368704
pt.ine.add.PTCONT.3473013,URB FONTE DO CRESPO,23,7430-132,CRATO,-7.651823482759461,39.290590576833274
pt.ine.add.PTCONT.3473018,R ESTRADA NOVA,1 C,7430-015,ALDEIA DA MATA,-7.725674475625681,39.30412208337483
pt.ine.add.PTCONT.3473050,R SANTO ANTÓNIO,10,7430-277,GÁFETE,-7.682440245773851,39.41094960131258
pt.ine.add.PTCONT.3473285,R LARGA,75,7430-031,ALDEIA DA MATA,-7.730398545676109,39.30720998687912
pt.ine.add.PTCONT.3473286,R LADEIRA,5,7430-019,ALDEIA DA MATA,-7.7297538405871355,39.30641511852651
pt.ine.add.PTCONT.3473303,R PASSO DA METADE,8,7430-153,CRATO,-7.6459988987223,39.29643907038074
pt.ine.add.PTCONT.3473304,BR PERO FILHO,28,7430-117,CRATO,-7.639285337485377,39.28842137352668
pt.ine.add.PTCONT.3473305,R CODECO,5,7430-151,CRATO,-7.65062831060433,39.287397067112714
pt.ine.add.PTCONT.3473306,R 3 DE MAIO,4,7430-135,CRATO,-7.648134011963156,39.291088680157195
pt.ine.add.PTCONT.3473364,R OLIVENCA,9,7430-146,CRATO,-7.645783857721267,39.28398116086755
pt.ine.add.PTCONT.3473365,R SENHORA DAS NEVES,16,7430-224,FLOR DA ROSA,-7.646225789336024,39.307194639932185
pt.ine.add.PTCONT.3473366,R JOGO DA BOLA,1,7430-291,GÁFETE,-7.6828649262505575,39.41171684579906
pt.ine.add.PTCONT.3473367,LG PRACINHA,13,7430-261,GÁFETE,-7.6841723539867255,39.41063204407085
pt.ine.add.PTCONT.3473393,R S PEDRO,6,7430-280,GÁFETE,-7.683548836863112,39.41008921257897
pt.ine.add.PTCONT.3473394,R D MARIA ROSA DE MATOS ROMÃO,,7430-287,GÁFETE,-7.680451960132531,39.40958181579988
pt.ine.add.PTCONT.3473395,R NISA,33,7430-275,GÁFETE,-7.684153522781418,39.41175785400849
pt.ine.add.PTCONT.3473396,LG PRAÇA,4,7430-255,GÁFETE,-7.68415854817063,39.410974259130164
pt.ine.add.PTCONT.3473397,R AMOREIRA,6,7430-263,GÁFETE,-7.685964341767399,39.410026465143
pt.ine.add.PTCONT.3473398,R VALE,16,7430-285,GÁFETE,-7.684832425501588,39.40909438157376
pt.ine.add.PTCONT.3473399,R BENAVENTE,2,7430-254,GÁFETE,-7.685451589753885,39.408502299410344
pt.ine.add.PTCONT.3473433,R MONTE NOVO,14,7430-313,MONTE DA PEDRA,-7.751086623808719,39.363970981310715
pt.ine.add.PTCONT.3473434,BC 25 DE ABRIL,28,7430-312,MONTE DA PEDRA,-7.748930936561175,39.3635045203274
pt.ine.add.PTCONT.3473435,R BECO DO GRILO,23,7430-337,MONTE DA PEDRA,-7.890644419957654,39.336297023320334
pt.ine.add.PTCONT.3473436,R 1 DE MAIO,13,7430-360,VALE DO PESO,-7.650322561539795,39.35213950512802
pt.ine.add.PTCONT.3473437,R FORMOSA,11,7430-359,VALE DO PESO,-7.648067439584998,39.351103314124224
pt.ine.add.PTCONT.3473438,R APEADEIRO,7,7430-356,VALE DO PESO,-7.6488417451164885,39.34985454529842
pt.ine.add.PTCONT.3473567,TV ESPÍRITO SANTO,12 A,7430-176,CRATO,-7.646112129052106,39.290134480978764
pt.ine.add.PTCONT.3473624,AV SANTO CONDESTÁVEL,22,7430-211,FLOR DA ROSA,-7.646911748312117,39.30524294141437
pt.ine.add.PTCONT.3473625,AV SANTO CONDESTÁVEL,22,7430-211,FLOR DA ROSA,-7.646911748312117,39.30524294141437
pt.ine.add.PTCONT.3473635,R DESCIDA DO CASTELO,14,7430-121,CRATO,-7.642330413404346,39.28557895292733
pt.ine.add.PTCONT.3473643,R PRINCIPAL,,7430-180,CRATO,-7.558004853456957,39.273429545707046
pt.ine.add.PTCONT.3473644,LG FONTE,21,7430-111,CRATO,-7.560181856892506,39.263667415351186
pt.ine.add.PTCONT.3473645,R BAIXO,5,7430-111,CRATO,-7.56494603954915,39.263420539024075
pt.ine.add.PTCONT.3473646,R SENHORA DAS NEVES,10,7430-224,FLOR DA ROSA,-7.645609448226724,39.307462277008504
pt.ine.add.PTCONT.3473677,R PROF AMÉRICO RIBEIRINHO SILVA,,7430-295,GÁFETE,-7.680352667104971,39.41057220620387
pt.ine.add.PTCONT.3473678,R S JOÃO BATISTA,,7430-295,GÁFETE,-7.68005311621297,39.41021075759697
pt.ine.add.PTCONT.3473679,R PORTALEGRE,9,7430-276,GÁFETE,-7.68251941874476,39.40947274982238
pt.ine.add.PTCONT.3473680,R PICAROTO,,7430-276,GÁFETE,-7.68206869103468,39.40914674896033
pt.ine.add.PTCONT.3473681,R JOSE PEQUITO CRESPO,14,7430-292,GÁFETE,-7.689623819423492,39.41521052519747
pt.ine.add.PTCONT.3473682,R DIAMANTINO VELEZ CASACA,18,7430-323,MONTE DA PEDRA,-7.749904949880752,39.36575051140058
pt.ine.add.PTCONT.3473708,R CASTELO,36,7430-281,GÁFETE,-7.686121435180439,39.40906331299008
pt.ine.add.PTCONT.3473709,R APEADEIRO,137B,7430-356,VALE DO PESO,-7.652298691312532,39.35665125602733
pt.ine.add.PTCONT.3474078,R ESTRADA NOVA,42,7430-015,ALDEIA DA MATA,-7.727213786802845,39.30457782197668
pt.ine.add.PTCONT.3474079,BR PERO FILHO,5,7430-117,CRATO,-7.639277542471781,39.28788090612394
pt.ine.add.PTCONT.3474246,R STA EULÁLIA,12,7430-354,VALE DO PESO,-7.6487825331334,39.351709770797626
pt.ine.add.PTCONT.3474110,LG CASTELO,1,7430-127,CRATO,-7.643050194450202,39.28541084692355
pt.ine.add.PTCONT.3474151,R CAVALEIRO,15,7430-150,CRATO,-7.646035577041871,39.286125938568254
pt.ine.add.PTCONT.3474159,R LARGA,73,7430-031,ALDEIA DA MATA,-7.730352480079587,39.3071557841316
pt.ine.add.PTCONT.3474224,R SANTO ANTÓNIO,3,7430-023,ALDEIA DA MATA,-7.730218621365189,39.30219233396066
pt.ine.add.PTCONT.3474323,R ÁLVARO GONÇALVES PEREIRA,5,7430-134,CRATO,-7.6454679955375875,39.28440317907089
pt.ine.add.PTCONT.3474324,R LADEIRA,,7430-267,GÁFETE,-7.6865860324580995,39.409038075907446
pt.ine.add.PTCONT.3474325,R LADEIRA,11,7430-267,GÁFETE,-7.6865055050497695,39.40892067496215
pt.ine.add.PTCONT.3474326,R LADEIRA,1,7430-267,GÁFETE,-7.686192823804105,39.40879337530654
pt.ine.add.PTCONT.3474330,R JOSE TAVARES MACHADO,79,7430-029,ALDEIA DA MATA,-7.730680473045009,39.30454482043262
pt.ine.add.PTCONT.3474331,R D JOÃO DA CAMARA,9,7430-358,VALE DO PESO,-7.647235226977748,39.350658492749034
pt.ine.add.PTCONT.3474333,R RIBEIRA,46,7430-322,MONTE DA PEDRA,-7.751298090339493,39.36775467659157
pt.ine.add.PTCONT.3474339,R FONTE DE ORDEM,9,7430-017,ALDEIA DA MATA,-7.72743816916164,39.303867032400355
pt.ine.add.PTCONT.3474340,CPO 1 DE MAIO,33,7430-120,CRATO,-7.6454182374982125,39.28990639567549
pt.ine.add.PTCONT.3474341,R FADAGOZA,9,7430-318,MONTE DA PEDRA,-7.751965533384514,39.36451429208563
pt.ine.add.PTCONT.3474344,R JOSE TAVARES MACHADO,54,7430-029,ALDEIA DA MATA,-7.730613750049682,39.30404919176323
pt.ine.add.PTCONT.3474345,R NUNO ÁLVARES PEREIRA,9,7430-167,CRATO,-7.645072612881263,39.28793236205307
pt.ine.add.PTCONT.3474349,R FLORES,21,7430-179,CRATO,-7.559897406432155,39.2630265005442
pt.ine.add.PTCONT.3474350,R DOMINGOS DE SA NOGUEIRA,29,7430-286,GÁFETE,-7.6859988198201945,39.41190006647949
pt.ine.add.PTCONT.3474356,R S PEDRO,,7430-025,ALDEIA DA MATA,-7.729992296181445,39.30728964599763
pt.ine.add.PTCONT.3474357,R LARGA,78,7430-031,ALDEIA DA MATA,-7.730236438473581,39.30717339709202
pt.ine.add.PTCONT.3474358,R 5 DE OUTUBRO,15,7430-137,CRATO,-7.645570031888458,39.286403214736374
pt.ine.add.PTCONT.3474359,R CARVALHO JANEIRO,23,7430-221,FLOR DA ROSA,-7.645669140499195,39.297185290152754
pt.ine.add.PTCONT.3474362,BR AZUL,8,7430-115,CRATO,-7.647993644926219,39.28959289389357
pt.ine.add.PTCONT.3474363,R 2B BR DA COOPERATIVA,4,7430-132,CRATO,-7.649549538853824,39.289203047500244
pt.ine.add.PTCONT.3474364,R JOGO DA BOLA,23,7430-291,GÁFETE,-7.682199382973975,39.41229071990493
pt.ine.add.PTCONT.3474367,R RIBEIRA,4,7430-322,MONTE DA PEDRA,-7.7505181192353545,39.36608579326556
pt.ine.add.PTCONT.3474368,R APEADEIRO,93,7430-356,VALE DO PESO,-7.650538041124357,39.354545305598506
pt.ine.add.PTCONT.3474370,R CARREIRA DE CIMA,17,7430-265,GÁFETE,-7.684929561382005,39.4120580792153
pt.ine.add.PTCONT.3474371,R SERPA PINTO,13,7430-173,CRATO,-7.645608112269056,39.28592599025776
pt.ine.add.PTCONT.3474372,R BISCAIAS,8A,7430-271,GÁFETE,-7.684932020116343,39.40986036570357
pt.ine.add.PTCONT.3474377,R CASTELO,40,7430-281,GÁFETE,-7.686226448216123,39.40898265283316
pt.ine.add.PTCONT.3474379,R DR JOAQUIM TAVARES MACHADO,35,7430-027,ALDEIA DA MATA,-7.730357487879126,39.30628209987192
pt.ine.add.PTCONT.3474380,TV OUTEIRO,11,7430-178,CRATO,-7.646583496205465,39.28566885984925
pt.ine.add.PTCONT.3474381,LG S PEDRO,10A,7430-256,GÁFETE,-7.6838320621435745,39.409378748711454
pt.ine.add.PTCONT.3474784,MTE VALENDEIRO,,7430-356,VALE DO PESO,-7.6562908735472455,39.35820790118823
pt.ine.add.PTCONT.3474786,BR AZUL,35,7430-115,CRATO,-7.648029660173789,39.2894128991576
pt.ine.add.PTCONT.3474912,R S PEDRO,78,7430-280,GÁFETE,-7.683349775386597,39.41034964798574
pt.ine.add.PTCONT.3474915,R JOSE TAVARES MACHADO,72,7430-029,ALDEIA DA MATA,-7.730565209773095,39.30442732788203
pt.ine.add.PTCONT.3474916,R FIGUEIRA,3,7430-140,CRATO,-7.6440908634684215,39.28743284466052
pt.ine.add.PTCONT.3474917,R CANTINA,8,7430-014,ALDEIA DA MATA,-7.730702897653887,39.30265337802291
pt.ine.add.PTCONT.3474918,R BOAVISTA,17,7430-316,MONTE DA PEDRA,-7.7513727333813325,39.36470149917891
pt.ine.add.PTCONT.3474920,R CURVAS,58,7430-022,ALDEIA DA MATA,-7.729372538447854,39.3021533740313
pt.ine.add.PTCONT.3474923,CPO 1 DE MAIO,23,7430-120,CRATO,-7.645962882825633,39.28992669016896
pt.ine.add.PTCONT.3474926,BR BERINGUEL,52,7430-116,CRATO,-7.640093391625142,39.28558751693085
pt.ine.add.PTCONT.3474928,HRD AGULHAO,,7430-179,CRATO,-7.568931062439818,39.221592050058206
pt.ine.add.PTCONT.3474929,SIT CABINE LAGAR DE AZEITE,,7430-356,VALE DO PESO,-7.644714632876827,39.34610834021724
pt.ine.add.PTCONT.3474942,AV BOMBEIROS VOLUNTARIOS,,7430-111,CRATO,-7.649216010789093,39.288823357758766
pt.ine.add.PTCONT.3474946,BR AZUL,15,7430-115,CRATO,-7.647556242205804,39.28914971592462
pt.ine.add.PTCONT.3474947,BR AZUL,5,7430-115,CRATO,-7.647384372361346,39.28886076738988
pt.ine.add.PTCONT.3474948,R APEADEIRO,111,7430-356,VALE DO PESO,-7.651135503629353,39.355394452506054
pt.ine.add.PTCONT.3474951,TV CUNQUEIRO,18,7430-175,CRATO,-7.64514859419832,39.287004934611126
pt.ine.add.PTCONT.3474952,R PASSO DA METADE,2,7430-153,CRATO,-7.6459891793298524,39.29616881286786
pt.ine.add.PTCONT.3474958,R CMDT RUI LOPES BELO,12,7430-138,CRATO,-7.647118647033093,39.287058210280975
pt.ine.add.PTCONT.3474959,R DR TEIXEIRA GUERRA,9,7430-160,CRATO,-7.644119741438728,39.28494696677292
pt.ine.add.PTCONT.3474960,R INDUSTRIAL,38,7430-028,ALDEIA DA MATA,-7.732278050774573,39.30495565732381
pt.ine.add.PTCONT.3475360,R 1 DE DEZEMBRO,I6,7430-169,CRATO,-7.646181362508044,39.29017980672501
pt.ine.add.PTCONT.3475395,R MONTE NOVO,20,7430-313,MONTE DA PEDRA,-7.751144247558613,39.36404322764701
pt.ine.add.PTCONT.3475415,R SANTO ANTÓNIO,19,7430-023,ALDEIA DA MATA,-7.730560839762909,39.30316629953867
pt.ine.add.PTCONT.3475420,R STO ANTÓNIO DE CIMA,11,7430-279,GÁFETE,-7.682279780880353,39.41062472539342
pt.ine.add.PTCONT.3475421,R STO ANTÓNIO DE BAIXO,,7430-278,GÁFETE,-7.682289999713405,39.41084093445972
pt.ine.add.PTCONT.3475444,R LAGE,4,7430-141,CRATO,-7.643868956276749,39.286008768146814
pt.ine.add.PTCONT.3475515,R 3 DE MAIO,9,7430-135,CRATO,-7.648060799312884,39.29161980213385
pt.ine.add.PTCONT.3475516,R 3 DE MAIO,16,7430-135,CRATO,-7.647398922040872,39.29178818039508
pt.ine.add.PTCONT.3475517,R INF D LUIS,7,7430-164,CRATO,-7.650041405501781,39.28678214107745
pt.ine.add.PTCONT.3475518,R ÁLVARO GONÇALVES PEREIRA,23,7430-134,CRATO,-7.64523450943217,39.284645396646674
pt.ine.add.PTCONT.3475519,R 3 DE MAIO,29,7430-135,CRATO,-7.647669436998804,39.29122185269121
pt.ine.add.PTCONT.3475524,CPO 1 DE MAIO,35,7430-120,CRATO,-7.6453255731604335,39.28989700026855
pt.ine.add.PTCONT.3475525,BR BERINGUEL,14,7430-116,CRATO,-7.640447700496646,39.28630058878003
pt.ine.add.PTCONT.3475526,R S BENTO,41,7430-217,FLOR DA ROSA,-7.649180206556227,39.30581084016669
pt.ine.add.PTCONT.3475527,R S MIGUEL,,7430-276,GÁFETE,-7.680592860411382,39.40933917324716
pt.ine.add.PTCONT.3475528,LG MONTE NOVO,17,7430-313,MONTE DA PEDRA,-7.751226794764275,39.36380030553199
pt.ine.add.PTCONT.3475529,BR BERINGUEL,72,7430-116,CRATO,-7.640253065189368,39.285957489870995
pt.ine.add.PTCONT.3475530,R D NUNO ÁLVARES PEREIRA,22,7430-221,FLOR DA ROSA,-7.645495324645588,39.3038589135686
pt.ine.add.PTCONT.3475532,R CURVAS,63,7430-022,ALDEIA DA MATA,-7.729696832393268,39.302208541603605
pt.ine.add.PTCONT.3475537,URB FONTE DO CRESPO,3,7430-132,CRATO,-7.651779338725898,39.29026613375205
pt.ine.add.PTCONT.3475538,LG ROSSIO,2,7430-213,FLOR DA ROSA,-7.646231233384541,39.304735693422394
pt.ine.add.PTCONT.3475542,R S PEDRO,,7430-025,ALDEIA DA MATA,-7.72991020887683,39.307451491904374
pt.ine.add.PTCONT.3475543,LG POÇO NOVO,18,7430-258,GÁFETE,-7.6867303663212825,39.41007444215054
pt.ine.add.PTCONT.3475548,R 2B BR DA COOPERATIVA,7,7430-132,CRATO,-7.649723771567403,39.28914972753017
pt.ine.add.PTCONT.3475549,R 2B,,7430-132,CRATO,-7.649989492049909,39.28927693175037
pt.ine.add.PTCONT.3475551,R MENDO GONÇALVES,24,7430-166,CRATO,-7.650098449524126,39.28860184074207
pt.ine.add.PTCONT.3475554,R S MARCOS,,7430-287,GÁFETE,-7.680640959441773,39.410879567873074
pt.ine.add.PTCONT.3475951,R PENEDO,22,7430-283,GÁFETE,-7.682698062172913,39.41058131025201
pt.ine.add.PTCONT.3476107,R 3 DE MAIO,33,7430-135,CRATO,-7.64784603852516,39.29082627043474
pt.ine.add.PTCONT.3476108,R SOBREIRA,10,7430-144,CRATO,-7.64356692111289,39.28610657834911
pt.ine.add.PTCONT.3476110,R BOAVISTA,21,7430-316,MONTE DA PEDRA,-7.751267861628029,39.36478221945639
pt.ine.add.PTCONT.3476112,R CURVAS,50,7430-022,ALDEIA DA MATA,-7.729105951106691,39.30214344201548
pt.ine.add.PTCONT.3476117,BR PERO FILHO,14,7430-117,CRATO,-7.638887585167598,39.28894210570557
pt.ine.add.PTCONT.3476118,R MONTE NOVO,11,7430-313,MONTE DA PEDRA,-7.7512390846732595,39.36367424577133
pt.ine.add.PTCONT.3476120,R OUTEIRO,8,7430-326,MONTE DA PEDRA,-7.746895669726018,39.36435346278162
pt.ine.add.PTCONT.3476122,R JOSE PEQUITO CRESPO,1,7430-292,GÁFETE,-7.690633748220516,39.415259406119226
pt.ine.add.PTCONT.3476123,R IGREJA,5,7430-320,MONTE DA PEDRA,-7.74739738634703,39.36385072646854
pt.ine.add.PTCONT.3476125,R 3 DE MAIO,,7430-135,CRATO,-7.644376492622268,39.28802852183686
pt.ine.add.PTCONT.3476126,R 2B BR DA COOPERATIVA,20,7430-132,CRATO,-7.650467680887875,39.28884656736695
pt.ine.add.PTCONT.3476130,R RIBEIRA,29A,7430-322,MONTE DA PEDRA,-7.751625253142041,39.36734142093908
pt.ine.add.PTCONT.3476131,R RIBEIRA,3,7430-322,MONTE DA PEDRA,-7.750738931421459,39.36602346898233
pt.ine.add.PTCONT.3476139,R CARVALHO DE JANEIRO,5,7430-145,CRATO,-7.645570434576984,39.29637422639507
pt.ine.add.PTCONT.3476142,R DR TEIXEIRA GUERRA,9,7430-160,CRATO,-7.6440924273962425,39.28554133021974
pt.ine.add.PTCONT.3476614,R ALMINHAS,2,7430-021,ALDEIA DA MATA,-7.72628415930518,39.30294426740785
pt.ine.add.PTCONT.3476664,R CARVALHO DE JANEIRO,12,7430-221,FLOR DA ROSA,-7.646083317955384,39.29931272860144
pt.ine.add.PTCONT.3476753,R BISPEIRO,15,7430-149,CRATO,-7.6452494736836725,39.28415906803921
pt.ine.add.PTCONT.3476754,R ROMANA,26,7430-269,GÁFETE,-7.684014597352295,39.40988384902567
pt.ine.add.PTCONT.3476755,CPO 1 MAIO,18E,7430-120,CRATO,-7.644120500592308,39.28983790210298
pt.ine.add.PTCONT.3476756,CPO 1 MAIO,18 D,7430-120,CRATO,-7.644120500592308,39.28983790210298
pt.ine.add.PTCONT.3476757,R SENHORA DAS NEVES,38,7430-224,FLOR DA ROSA,-7.647181331851452,39.30649606966414
pt.ine.add.PTCONT.3476759,R 25 DE ABRIL,10,7430-225,FLOR DA ROSA,-7.646268308736196,39.30607792340337
pt.ine.add.PTCONT.3476761,,,7430-122,CRATO,-7.606132678687171,39.25163452162323
pt.ine.add.PTCONT.3476762,LG S PEDRO,9,7430-256,GÁFETE,-7.684020086169018,39.40902819918043
pt.ine.add.PTCONT.3476764,R BAIRRO ALTO,31,7430-111,CRATO,-7.561243923966123,39.26415002008623
pt.ine.add.PTCONT.3476766,R BAIXO,8,7430-111,CRATO,-7.564644940239614,39.263401055100104
pt.ine.add.PTCONT.3476767,R PONTÃO,16,7430-111,CRATO,-7.563346541609308,39.263484782335574
pt.ine.add.PTCONT.3476769,ESTR NACIONAL,9,7430-253,GÁFETE,-7.686423085298211,39.41273935281314
pt.ine.add.PTCONT.3476774,R CARVALHO DE JANEIRO,21,7430-221,FLOR DA ROSA,-7.645669702645389,39.29710422746411
pt.ine.add.PTCONT.3476775,R 2B BR DA COOPERATIVA,28,7430-132,CRATO,-7.649326030039591,39.289679502743205
pt.ine.add.PTCONT.3476780,R ARCO,20,7430-148,CRATO,-7.646233920617937,39.285937615976344
pt.ine.add.PTCONT.3476781,R CARREIRA DE CIMA,27,7430-265,GÁFETE,-7.685080160041605,39.412112701649185
pt.ine.add.PTCONT.3477204,R LARGA,90,7430-031,ALDEIA DA MATA,-7.73021180471232,39.30742551433745
pt.ine.add.PTCONT.3477205,R JOGO DA BOLA,27,7430-291,GÁFETE,-7.68153307342783,39.412981678899904
pt.ine.add.PTCONT.3477344,R JOSE TAVARES MACHADO,85,7430-029,ALDEIA DA MATA,-7.730691344330138,39.30467095931622
pt.ine.add.PTCONT.3477391,R CANTINA,4,7430-014,ALDEIA DA MATA,-7.730412451070554,39.30276046063449
pt.ine.add.PTCONT.3477392,R MELO ANTUNES,2,7430-131,CRATO,-7.64295268847368,39.29108499762624
pt.ine.add.PTCONT.3477393,R MELO ANTUNES,12,7430-131,CRATO,-7.643793694301994,39.29182712833202
pt.ine.add.PTCONT.3477415,R MENDO GONÇALVES,23,7430-166,CRATO,-7.650132540892726,39.28870106181283
pt.ine.add.PTCONT.3477416,R SOBREIRA,57,7430-144,CRATO,-7.6439873013334445,39.28732432276483
pt.ine.add.PTCONT.3477440,R BISPEIRO,4,7430-149,CRATO,-7.645505888029123,39.2839529754164
pt.ine.add.PTCONT.3477441,R D ÁLVARO GONÇALO PEREIRA,12,7430-220,FLOR DA ROSA,-7.6453737320742,39.30634439545794
pt.ine.add.PTCONT.3477442,R NISA,40,7430-275,GÁFETE,-7.683836324443712,39.412333081279264
pt.ine.add.PTCONT.3477467,,,7430-312,MONTE DA PEDRA,-7.751357911581047,39.363161228090036
pt.ine.add.PTCONT.3477468,R FORMOSA,24,7430-359,VALE DO PESO,-7.647985610018647,39.35119304450688
pt.ine.add.PTCONT.3477469,R FONTE NOVA,,7430-353,VALE DO PESO,-7.6501788702707785,39.34941875104317
pt.ine.add.PTCONT.3477470,R TRAS,9,7430-355,VALE DO PESO,-7.649351482152641,39.35164007991375
pt.ine.add.PTCONT.3477809,R CURVAS,52,7430-022,ALDEIA DA MATA,-7.729222036433113,39.30211682306486
pt.ine.add.PTCONT.3477848,R GAGO COUTINHO E SACADURA CABRAL,48,7430-161,CRATO,-7.644649207010422,39.287146956576315
pt.ine.add.PTCONT.3477900,R SALGUEIRO MAIA,83,7430-131,CRATO,-7.6436962709081495,39.29083592297405
pt.ine.add.PTCONT.3478287,R 25 DE ABRIL,2A,7430-174,CRATO,-7.647781093471399,39.29015946415035
pt.ine.add.PTCONT.3478288,R 3 DE MAIO,32,7430-135,CRATO,-7.647787461725497,39.290916098657604
pt.ine.add.PTCONT.3478289,BR BERINGUEL,4,7430-116,CRATO,-7.640549615231648,39.28664329514845
pt.ine.add.PTCONT.3478290,MTE CHOCANAL,,7430-363,VALE DO PESO,-7.643218659493678,39.27287345829986
pt.ine.add.PTCONT.3478291,URB FONTE DO CRESPO,15,7430-132,CRATO,-7.6512661282181815,39.290732387440535
pt.ine.add.PTCONT.3478292,AV BOMBEIROS VOLUNTARIOS,,7430-111,CRATO,-7.648501529659521,39.28990125499105
pt.ine.add.PTCONT.3478293,R 2B,,7430-132,CRATO,-7.649493753484348,39.28888756239178
pt.ine.add.PTCONT.3478314,LG CODECAL,10B,7430-128,CRATO,-7.647750149806248,39.287925539657664
pt.ine.add.PTCONT.3478315,R BAIXO,13,7430-111,CRATO,-7.564090034205024,39.263245221690994
pt.ine.add.PTCONT.3478316,R PRINCIPAL,36,7430-111,CRATO,-7.561832532424675,39.263008987800745
pt.ine.add.PTCONT.3478344,R SERPA PINTO,16,7430-173,CRATO,-7.64556331270929,39.28570062157247
pt.ine.add.PTCONT.3478345,R STA MARIA,18,7430-171,CRATO,-7.645285180615869,39.28402410893724
pt.ine.add.PTCONT.3478346,R D NUNO ÁLVARES PEREIRA,52,7430-221,FLOR DA ROSA,-7.645536510333759,39.304606684984456
pt.ine.add.PTCONT.3478347,R D NUNO ÁLVARES PEREIRA,86,7430-221,FLOR DA ROSA,-7.64559975883545,39.305516678535525
pt.ine.add.PTCONT.3478367,R IGREJA,4,7430-320,MONTE DA PEDRA,-7.747234396014758,39.36394926477204
pt.ine.add.PTCONT.3478383,R APEADEIRO,89,7430-356,VALE DO PESO,-7.650527059233731,39.35445518866385
pt.ine.add.PTCONT.3478384,R APEADEIRO,23,7430-356,VALE DO PESO,-7.649541693235367,39.350974341691824
pt.ine.add.PTCONT.3478451,R ESTRADA NOVA,48,7430-015,ALDEIA DA MATA,-7.727352387554768,39.30466837746567
pt.ine.add.PTCONT.3478485,R ESTRADA NOVA,41A,7430-015,ALDEIA DA MATA,-7.729924163024731,39.30501958719254
pt.ine.add.PTCONT.3478486,R CURVAS,77,7430-022,ALDEIA DA MATA,-7.729915756134515,39.302443488198776
pt.ine.add.PTCONT.3478488,R ESCOLA,6,7430-317,MONTE DA PEDRA,-7.749088189922591,39.36233410984073
pt.ine.add.PTCONT.3478531,R D LEONOR,5,7430-157,CRATO,-7.650179438038415,39.286935836809874
pt.ine.add.PTCONT.3478532,R CONVENTO,7,7430-152,CRATO,-7.648811340095839,39.28699320515105
pt.ine.add.PTCONT.3478533,R PRINCIPAL,19,7430-363,VALE DO PESO,-7.558443945704313,39.273584836519916
pt.ine.add.PTCONT.3478534,R GAGO COUTINHO E SACADURA CABRAL,23,7430-161,CRATO,-7.6447562104603906,39.28676009399646
pt.ine.add.PTCONT.3478561,R 25 DE ABRIL,8,7430-225,FLOR DA ROSA,-7.6461988724305465,39.30605961859091
pt.ine.add.PTCONT.3478562,R S JOÃO BATISTA,,7430-295,GÁFETE,-7.6801374805427995,39.40973371183393
pt.ine.add.PTCONT.3478563,R PENEDO,24,7430-283,GÁFETE,-7.682755826811468,39.41062656918577
pt.ine.add.PTCONT.3478596,R PRINCIPAL N,16,7430-294,GÁFETE,-7.6905774552150366,39.41497997324892
pt.ine.add.PTCONT.3478597,TV RUA DO MOINHO,1,7430-336,MONTE DA PEDRA,-7.750743401009269,39.3652038333626
pt.ine.add.PTCONT.3478598,R BARÃO DE GAFETE,16,7430-262,GÁFETE,-7.684960798386152,39.410806218114566
pt.ine.add.PTCONT.3478599,R VALE,3B,7430-285,GÁFETE,-7.68424438361764,39.40845261265495
pt.ine.add.PTCONT.3478600,R VALE,,7430-285,GÁFETE,-7.684580857861961,39.40848993862772
pt.ine.add.PTCONT.3478601,R CASTELO,31,7430-281,GÁFETE,-7.686005789114622,39.408990812089115
pt.ine.add.PTCONT.3478627,R PENEDO GORDO,5,7430-327,MONTE DA PEDRA,-7.747293353782361,39.363778324432445
pt.ine.add.PTCONT.3478628,R APEADEIRO,17 A,7430-356,VALE DO PESO,-7.649757705194285,39.351614746266264
pt.ine.add.PTCONT.3478963,R INDUSTRIAL,4,7430-028,ALDEIA DA MATA,-7.730828196649178,39.30506775064448
pt.ine.add.PTCONT.3478990,R ESTRADA NOVA,32,7430-015,ALDEIA DA MATA,-7.727005209669104,39.3045590801359
pt.ine.add.PTCONT.3478991,R 3 DE MAIO,20,7430-135,CRATO,-7.646958395428936,39.29179534908605
pt.ine.add.PTCONT.3478992,R 3 DE MAIO,15,7430-135,CRATO,-7.646997902071665,39.29111096409739
pt.ine.add.PTCONT.3478993,BR AZUL,4A,7430-115,CRATO,-7.647647102372375,39.289420311980166
pt.ine.add.PTCONT.3479046,R PORTELA,33,7430-143,CRATO,-7.644750312614729,39.285940410120496
pt.ine.add.PTCONT.3479075,R ESTRADA NOVA,63,7430-015,ALDEIA DA MATA,-7.730456740537589,39.305147531653795
pt.ine.add.PTCONT.3479094,R STO ANTÓNIO DE BAIXO,9,7430-278,GÁFETE,-7.68246671447315,39.41044530841627
pt.ine.add.PTCONT.3479139,R STA EULÁLIA,16,7430-354,VALE DO PESO,-7.648978010811636,39.351962784124254
pt.ine.add.PTCONT.3479213,R JOSE DA GAMA,12,7430-165,CRATO,-7.644631079410605,39.284750953657145
