id,street,house,postcode,city,lon,lat
pt.ine.add.PTCONT.459134,R IGREJA,,4820-630,REVELHE,-8.157810560755655,41.48554267284103
pt.ine.add.PTCONT.458826,R JOSE CARDOSO VIEIRA DE CASTRO,389,4820-269,FAFE,-8.168519083593658,41.44856984962806
pt.ine.add.PTCONT.458827,R FRANCA,69,4820-183,FAFE,-8.177684679618247,41.44677488058063
pt.ine.add.PTCONT.458828,R CAPELA,102,4820-589,QUINCHÃES,-8.120474751324974,41.42943221429429
pt.ine.add.PTCONT.458829,R ALTO DA SANTA,122,4820-573,QUINCHÃES,-8.136110697032738,41.41847503637281
pt.ine.add.PTCONT.458830,R FERNANDO NAMORA,239,4820-612,REGADAS,-8.151822404675157,41.398106516317775
pt.ine.add.PTCONT.458831,R FERNANDO NAMORA,237,4820-612,REGADAS,-8.151822404675157,41.398106516317775
pt.ine.add.PTCONT.458832,R LUIS DE CAMÕES,451,4820-602,REGADAS,-8.152097805278924,41.39937603664491
pt.ine.add.PTCONT.458833,R ALMADA NEGREIROS,26,4820-602,REGADAS,-8.14913308874336,41.40301410631706
pt.ine.add.PTCONT.458985,R CANCELA,,4820-001,ABOIM FAF,-8.085736718955108,41.55500003472689
pt.ine.add.PTCONT.458986,R RIBEIRO,,4820-001,ABOIM FAF,-8.103670107278573,41.552313897860564
pt.ine.add.PTCONT.458987,AV S JORGE,143,4820-120,FAFE,-8.172477509956893,41.44411161511708
pt.ine.add.PTCONT.458988,AV S JORGE,143,4820-120,FAFE,-8.172477509956893,41.44411161511708
pt.ine.add.PTCONT.458989,AV S JORGE,143,4820-120,FAFE,-8.172477509956893,41.44411161511708
pt.ine.add.PTCONT.458990,AV S JORGE,143,4820-120,FAFE,-8.172477509956893,41.44411161511708
pt.ine.add.PTCONT.458991,AV S JORGE,143,4820-120,FAFE,-8.172477509956893,41.44411161511708
pt.ine.add.PTCONT.458992,AV S JORGE,143,4820-120,FAFE,-8.172477509956893,41.44411161511708
pt.ine.add.PTCONT.458993,TV VASCO DA GAMA I,106,4820-353,FAFE,-8.168719797310251,41.443581607252746
pt.ine.add.PTCONT.458994,URB SOL NASCENTE,165,4820-368,FAFE,-8.177216303595696,41.44430798251131
pt.ine.add.PTCONT.458995,R SANTO ESTEVÃO,605,4820-602,REGADAS,-8.149084711153908,41.40079912773809
pt.ine.add.PTCONT.458996,R D ESTEFANIA,95,4820-617,REGADAS,-8.144838047057213,41.39276805907547
pt.ine.add.PTCONT.459133,URB SOL POENTE,125,4820-122,FAFE,-8.186745808268837,41.434984850524785
pt.ine.add.PTCONT.459129,R CRUZEIRO,,4820-001,ABOIM FAF,-8.09195389139136,41.54232511329506
pt.ine.add.PTCONT.459130,R CARVALHAL,79,4820-005,ANTIME,-8.159276560853383,41.43887508034939
pt.ine.add.PTCONT.459131,R SANTA MARIA,192,4820-005,ANTIME,-8.165619136311193,41.44075528749112
pt.ine.add.PTCONT.459132,R TEIBAES,95,4820-005,ANTIME,-8.170221943763604,41.43375782586537
pt.ine.add.PTCONT.459135,R LIBERDADE,399,4820-630,REVELHE,-8.165475343241036,41.488485037387754
pt.ine.add.PTCONT.459285,TV LAMA,173,4820-010,ARMIL,-8.1892588244495,41.42161276587545
pt.ine.add.PTCONT.459286,TV LAMA,189,4820-010,ARMIL,-8.1892588244495,41.42161276587545
pt.ine.add.PTCONT.459287,R CRUZ DO BARREIRO,158,4820-010,ARMIL,-8.193527794677957,41.4199628758525
pt.ine.add.PTCONT.459288,R FORCA,142,4820-013,ARNOZELA,-8.125635746321926,41.38864457177852
pt.ine.add.PTCONT.459289,R PEGADINHA,504,4820-200,FAFE,-8.179006789200082,41.43796850596332
pt.ine.add.PTCONT.459290,R JOSE RIBEIRO VIEIRA DE CASTRO,802,4820-273,FAFE,-8.172822265761377,41.44039286868926
pt.ine.add.PTCONT.459291,R JOSE RIBEIRO VIEIRA DE CASTRO,1135,4820-273,FAFE,-8.172461523710982,41.43745770594449
pt.ine.add.PTCONT.459292,R S JORGE,324,4820-222,FAFE,-8.173910867304022,41.43996029839502
pt.ine.add.PTCONT.459293,URB ENG JOÃO MENDES RIBEIRO,17,4820-366,FAFE,-8.174424517937346,41.43859151522678
pt.ine.add.PTCONT.459294,R ALMINHAS,3,4820-635,RIBEIROS,-8.13456908731454,41.48260104849533
pt.ine.add.PTCONT.459295,TV CIMO DE VILA II,46,4820-635,RIBEIROS,-8.130091749234039,41.46726739240936
pt.ine.add.PTCONT.459296,R PORINHOS,182,4820-640,ARÕES (SANTA CRISTINA),-8.207063911899821,41.44741703261282
pt.ine.add.PTCONT.459297,AV GAIA,678,4820-640,ARÕES (SANTA CRISTINA),-8.206556285530285,41.44296941321699
pt.ine.add.PTCONT.459298,R BOUCA DA GIESTA,38,4820-640,ARÕES (SANTA CRISTINA),-8.207464228720799,41.44167226248224
pt.ine.add.PTCONT.459299,R BAIRRO DO SOL,144,4820-640,ARÕES (SANTA CRISTINA),-8.209467508810556,41.44592080928936
pt.ine.add.PTCONT.459300,R BOUCINHA,176,4820-640,ARÕES (SANTA CRISTINA),-8.214865092823477,41.43688614605689
pt.ine.add.PTCONT.459414,R SEBASTIÃO GRAÇA ALMEIDA,131,4820-093,CEPÃES,-8.206403656369519,41.43892055258687
pt.ine.add.PTCONT.459415,TV PERREIROS,90,4820-097,CEPÃES,-8.206390627686913,41.433992583707635
pt.ine.add.PTCONT.459416,R CRUZ DO BAIRRO,191,4820-061,ESTORÃOS FAF,-8.144866638384585,41.48499548799242
pt.ine.add.PTCONT.459417,R MONTINHO,95,4820-400,FAREJA,-8.230548508446022,41.41108656457212
pt.ine.add.PTCONT.459418,URB MONTE ALÉM 2,7,4820-419,FORNELOS FAF,-8.179330943987116,41.473227729529015
pt.ine.add.PTCONT.459419,LOTEAM MONTE,32,4820-418,FORNELOS FAF,-8.172133737566611,41.469502783478646
pt.ine.add.PTCONT.459420,LOTEAM MONTE,51,4820-640,ARÕES (SANTA CRISTINA),-8.218088169358213,41.44033232198357
pt.ine.add.PTCONT.459421,TV 1 DE POUSADA,500,4820-645,SÃO CLEMENTE SILVARES,-8.16432203101314,41.43071624017712
pt.ine.add.PTCONT.459538,TV OUTEIRO,11,4820-072,ESTORÃOS FAF,-8.146373870574328,41.477783215761484
pt.ine.add.PTCONT.459539,R RIBEIRA DE CIMA,191,4820-080,ESTORÃOS FAF,-8.149220909962139,41.468022631299654
pt.ine.add.PTCONT.459540,TV CUMIEIRA,57,4820-397,FAFE,-8.16133231622224,41.46121334378318
pt.ine.add.PTCONT.459541,R COVELOS,182,4820-516,FAFE,-8.152642484618447,41.461197139785924
pt.ine.add.PTCONT.459542,R ASSENTO,41,4820-430,FORNELOS FAF,-8.177854095234364,41.466925584923
pt.ine.add.PTCONT.459543,R ASSENTO,39,4820-430,FORNELOS FAF,-8.177854095234364,41.466925584923
pt.ine.add.PTCONT.459544,TV FORNELO,44,4820-427,FORNELOS FAF,-8.168347246325212,41.462742073627155
pt.ine.add.PTCONT.459545,TV MARTINS FREITAS,4,4820-440,FREITAS,-8.210372568682729,41.512774034161
pt.ine.add.PTCONT.459546,TV MARTINS FREITAS,26,4820-440,FREITAS,-8.210372568682729,41.512774034161
pt.ine.add.PTCONT.459547,TV CAPELA,36,4820-667,SÃO GENS,-8.123126378875616,41.45747074437074
pt.ine.add.PTCONT.459548,R REAL,41,4820-665,SÃO GENS,-8.125700400037196,41.451006122091954
pt.ine.add.PTCONT.459549,URB QUINTA DO PASSAL,70,4820-663,SÃO GENS,-8.133670777419447,41.447269727788346
pt.ine.add.PTCONT.459550,R TANQUE,33,4820-664,SÃO GENS,-8.085331632911386,41.453886699852504
pt.ine.add.PTCONT.459551,R PÓVOACAO,194,4820-664,SÃO GENS,-8.088096969128776,41.452870371646746
pt.ine.add.PTCONT.459552,R VILELA,614,4820-672,SÃO GENS,-8.126745166337724,41.41428804767208
pt.ine.add.PTCONT.459553,R PASSAL,335,4820-663,SÃO GENS,-8.131480813951583,41.448134095261096
pt.ine.add.PTCONT.459677,TV DEPOSITO,23,4820-334,FAFE,-8.163641488050073,41.45922288914281
pt.ine.add.PTCONT.459678,TV DEPOSITO,31,4820-334,FAFE,-8.163641488050073,41.45922288914281
pt.ine.add.PTCONT.459679,R CIDADE GUIMARÃES,79,4820-178,FAFE,-8.191905781073062,41.45180168834749
pt.ine.add.PTCONT.459680,R CIDADE GUIMARÃES,343,4820-178,FAFE,-8.18766879233783,41.45130855987755
pt.ine.add.PTCONT.459681,R PEREIRA,1316,4820-440,FREITAS,-8.207764211364836,41.5154318861902
pt.ine.add.PTCONT.459682,R ENTRE-OUTEIROS,60,4820-487,GOLÃES,-8.190725591180838,41.47053942577044
pt.ine.add.PTCONT.459683,R RIBADEIRAS,149,4820-666,SÃO GENS,-8.135609319743503,41.444802623499044
pt.ine.add.PTCONT.459684,LG SANTO AMARO,,4820-668,SÃO GENS,-8.136865647100375,41.44221845854177
pt.ine.add.PTCONT.459774,TV CIDADE DE GUIMARÃES,154,4820-391,FAFE,-8.19221645145881,41.45126129353436
pt.ine.add.PTCONT.459775,R CALVELINHOS,,4820-210,FAFE,-8.181235849314389,41.45894675629854
pt.ine.add.PTCONT.459776,R CALCAS,210,4820-228,FAFE,-8.171492165318147,41.457446765980905
pt.ine.add.PTCONT.459777,BR JOSE L MOTA,,4820-184,FAFE,-8.170701977376003,41.45701483884819
pt.ine.add.PTCONT.459778,R RETIRO,491,4820-239,FAFE,-8.172329246466624,41.4562309545912
pt.ine.add.PTCONT.459779,R VILAR,219,4820-479,GOLÃES,-8.195154172874446,41.4571933315669
pt.ine.add.PTCONT.459780,R EIRA VEDRA,63,4820-453,GOLÃES,-8.197644887745367,41.45842549784177
pt.ine.add.PTCONT.459781,R PEQUITE,405,4820-461,GOLÃES,-8.193260312853983,41.4541600162951
pt.ine.add.PTCONT.459782,BR ENG GERVASIO FERREIRA LEITE,66,4820-710,SÃO MARTINHO SILVARES,-8.15256650803911,41.40720944104724
pt.ine.add.PTCONT.459783,R FONTE,2,4820-739,ARÕES (SÃO ROMÃO),-8.223616032228861,41.46598028392585
pt.ine.add.PTCONT.459784,R LIBERDADE,131,4820-743,ARÕES (SÃO ROMÃO),-8.231847969711815,41.45568204210386
pt.ine.add.PTCONT.459894,R SA,183,4820-218,FAFE,-8.17268737215579,41.4547001653692
pt.ine.add.PTCONT.459895,URB MONTENEGRO,100,4820-399,FAFE,-8.168138813817235,41.45354913820822
pt.ine.add.PTCONT.459896,TV SANTO ANDRÉ,42,4820-470,GOLÃES,-8.198435242976545,41.4469000278439
pt.ine.add.PTCONT.459897,R VAL DE ARADO,6,4820-485,GONTIM,-8.105297965526391,41.52964276793837
pt.ine.add.PTCONT.459898,URB BOUCA DA SARGACA,14,4820-506,MEDELO,-8.154406431642599,41.47475670241477
pt.ine.add.PTCONT.459899,R SUB-NOGUEIRAS,169,4820-732,ARÕES (SÃO ROMÃO),-8.216897899822436,41.463824436282415
pt.ine.add.PTCONT.459900,TV FERREIROS,58,4820-738,ARÕES (SÃO ROMÃO),-8.218950231829446,41.45889778392126
pt.ine.add.PTCONT.459901,R LAMEIRA,,4820-742,ARÕES (SÃO ROMÃO),-8.223108616689363,41.453951454556744
pt.ine.add.PTCONT.459902,LOTEAM MONTE DA PENA,15,4820-761,ARÕES (SÃO ROMÃO),-8.209864014352606,41.45743656701127
pt.ine.add.PTCONT.459903,R BOUCO,12,4820-735,ARÕES (SÃO ROMÃO),-8.212661324882431,41.45467046336995
pt.ine.add.PTCONT.460050,URB MONTENEGRO,100,4820-399,FAFE,-8.168138813817235,41.45354913820822
pt.ine.add.PTCONT.460051,URB MONTENEGRO,100,4820-399,FAFE,-8.168138813817235,41.45354913820822
pt.ine.add.PTCONT.460052,URB MONTENEGRO,100,4820-399,FAFE,-8.168138813817235,41.45354913820822
pt.ine.add.PTCONT.460053,R PARDELHAS,1862,4820-217,FAFE,-8.154747624108646,41.45673082087925
pt.ine.add.PTCONT.460054,R S PEDRO,,4820-224,FAFE,-8.151945812397823,41.452751580128435
pt.ine.add.PTCONT.460055,R FLORBELA ESPANCA,165,4820-260,FAFE,-8.164871233784721,41.452928816010115
pt.ine.add.PTCONT.460056,R JOÃO CRISOSTOMO,30,4820-266,FAFE,-8.167230204804975,41.455386211511524
pt.ine.add.PTCONT.460057,R NOVA,66,4820-509,MEDELO,-8.15418713323803,41.46301565708987
pt.ine.add.PTCONT.460058,R PONTE,106,4820-506,MEDELO,-8.15418713323803,41.46301565708987
pt.ine.add.PTCONT.460059,URB S BENTO,58,4820-496,MEDELO,-8.156389751529217,41.46351044738939
pt.ine.add.PTCONT.460060,R LAMAS,54,4820-520,MONTE FAF,-8.167929920799521,41.53283720846114
pt.ine.add.PTCONT.460061,R CASAL,2,4820-520,MONTE FAF,-8.16854143885804,41.53357533318372
pt.ine.add.PTCONT.460062,R BOUCO,58,4820-735,ARÕES (SÃO ROMÃO),-8.212731702940268,41.453499904777956
pt.ine.add.PTCONT.460063,R TAPADA,153,4820-756,ARÕES (SÃO ROMÃO),-8.211387668359778,41.450493516021304
pt.ine.add.PTCONT.460064,LOTEAM 25 DE ABRIL,25,4820-749,ARÕES (SÃO ROMÃO),-8.23457256073755,41.45297849489727
pt.ine.add.PTCONT.460065,R SANTO ANTÃO,,4820-749,ARÕES (SÃO ROMÃO),-8.22971553277119,41.454297248908254
pt.ine.add.PTCONT.460066,R NOVA DE TALHOS,75,4820-765,SEIDÕES,-8.135296990602267,41.409029872625176
pt.ine.add.PTCONT.460274,TV TOUCEDO,12,4820-520,MONTE FAF,-8.172047411584268,41.5252636876614
pt.ine.add.PTCONT.460267,PC 25 DE ABRIL,286,4820-142,FAFE,-8.171608440065599,41.45167521285949
pt.ine.add.PTCONT.460268,PCT 1 DE MAIO,B8,4820-150,FAFE,-8.173198741996165,41.449396675684454
pt.ine.add.PTCONT.460269,PCT 1 DE MAIO,B8,4820-150,FAFE,-8.173198741996165,41.449396675684454
pt.ine.add.PTCONT.460270,PCT 1 DE MAIO,B8,4820-150,FAFE,-8.173198741996165,41.449396675684454
pt.ine.add.PTCONT.460271,PCT 1 DE MAIO,B8,4820-150,FAFE,-8.173198741996165,41.449396675684454
pt.ine.add.PTCONT.460272,R PICOTO,6,4820-520,MONTE FAF,-8.167627473107347,41.527417009774744
pt.ine.add.PTCONT.460273,R TUDA,,4820-520,MONTE FAF,-8.166678856333595,41.52341959843331
pt.ine.add.PTCONT.460275,TV IGREJA NOVA,17,4820-520,MONTE FAF,-8.167003778804744,41.52617466964581
pt.ine.add.PTCONT.460276,R IGREJA VELHA,233,4820-520,MONTE FAF,-8.168237665471253,41.52580514314169
pt.ine.add.PTCONT.460277,R CANCELA,110,4820-545,MOREIRA DO REI,-8.09790298792636,41.489195509291164
pt.ine.add.PTCONT.460278,TV CENTRO,,4820-528,MOREIRA DO REI,-8.101226287263565,41.476275913181276
pt.ine.add.PTCONT.460279,R AGRO,73,4820-770,SERAFÃO,-8.213278405480962,41.537802638467056
pt.ine.add.PTCONT.460471,PCT 1 DE MAIO,B8,4820-150,FAFE,-8.173198741996165,41.449396675684454
pt.ine.add.PTCONT.460472,PCT 1 DE MAIO,B8,4820-150,FAFE,-8.173198741996165,41.449396675684454
pt.ine.add.PTCONT.460473,PCT 1 DE MAIO,B8,4820-150,FAFE,-8.173198741996165,41.449396675684454
pt.ine.add.PTCONT.460474,PCT 1 DE MAIO,B8,4820-150,FAFE,-8.173198741996165,41.449396675684454
pt.ine.add.PTCONT.460475,R DR MANUEL DE ARRIAGA,111,4820-254,FAFE,-8.18060771799949,41.45107758991981
pt.ine.add.PTCONT.460476,R DR MANUEL DE ARRIAGA,111,4820-254,FAFE,-8.18060771799949,41.45107758991981
pt.ine.add.PTCONT.460477,R DR MANUEL DE ARRIAGA,111,4820-254,FAFE,-8.18060771799949,41.45107758991981
pt.ine.add.PTCONT.460478,R DR MANUEL ARRIAGA,113,4820-254,FAFE,-8.18060771799949,41.45107758991981
pt.ine.add.PTCONT.460479,R MONTELONGO,271,4820-540,MOREIRA DO REI,-8.11742738826378,41.480386499285046
pt.ine.add.PTCONT.460480,AV VISC MOREIRA DO REI,892,4820-533,MOREIRA DO REI,-8.113760681055856,41.480441263533926
pt.ine.add.PTCONT.460481,R BOUCAS,207,4820-779,TRAVASSÓS FAF,-8.188098699860543,41.49270826322175
pt.ine.add.PTCONT.460482,R VIZELA DE CIMA,41,4820-813,TRAVASSÓS FAF,-8.188886895933779,41.490177797849576
pt.ine.add.PTCONT.460483,R VINHAL,191,4820-802,TRAVASSÓS FAF,-8.200715984247276,41.49976956628209
pt.ine.add.PTCONT.460484,R REQUEIXO DE CIMA,119,4820-802,TRAVASSÓS FAF,-8.199038701508863,41.49921230118152
pt.ine.add.PTCONT.460677,R VISC MOREIRA DE REI,,4820-290,FAFE,-8.167228897790825,41.45289212519238
pt.ine.add.PTCONT.460678,R JOÃO CRISOSTOMO,406,4820-540,MOREIRA DO REI,-8.11931644101678,41.47573026744329
pt.ine.add.PTCONT.460679,R PRINCIPAL,,4820-539,MOREIRA DO REI,-8.1184787402545,41.474181494770406
pt.ine.add.PTCONT.460680,TV LAJES,14,4820-114,PASSOS FAF,-8.194027348116878,41.48088319283979
pt.ine.add.PTCONT.460681,R LINHARES,132,4820-792,TRAVASSÓS FAF,-8.19822896544887,41.491910634018176
pt.ine.add.PTCONT.460682,R ESTRADA NACIONAL,274,4820-820,VÁRZEA COVA,-8.072801957754251,41.50453666147585
pt.ine.add.PTCONT.460839,TV GALIZA,27,4820-303,FAFE,-8.168101666090521,41.45123514056732
pt.ine.add.PTCONT.460840,R VISC MOREIRA DE REI,125,4820-290,FAFE,-8.166557648592486,41.45085743489206
pt.ine.add.PTCONT.460841,R VISC MOREIRA DE REI,125,4820-290,FAFE,-8.166557648592486,41.45085743489206
pt.ine.add.PTCONT.460842,R RAMADINHA,235,4820-371,PASSOS FAF,-8.190527555637974,41.476743206473195
pt.ine.add.PTCONT.460843,AV S PEDRO,21,4820-560,QUEIMADELA FAF,-8.158060622957864,41.51312141827506
pt.ine.add.PTCONT.460844,R OUTEIRO DA LINHA,415,4820-830,VINHÓS FAF,-8.175541093787928,41.481152610372355
pt.ine.add.PTCONT.460976,R JOSE MACIEL,129,4820-271,FAFE,-8.178237411073825,41.45003408846153
pt.ine.add.PTCONT.460977,PCT GRANJA,32,4820-153,FAFE,-8.177447446206463,41.44986332097915
pt.ine.add.PTCONT.460978,R FERNANDO PESSOA,174,4820-258,FAFE,-8.180247367149073,41.44924994051558
pt.ine.add.PTCONT.460979,R ABELHEIRA,270,4820-560,QUEIMADELA FAF,-8.173501559969244,41.51309902409525
pt.ine.add.PTCONT.460980,R CRUZEIRO,31,4820-574,QUINCHÃES,-8.152770330724314,41.44855561136962
pt.ine.add.PTCONT.460981,R DOCIM,279,4820-575,QUINCHÃES,-8.15006516126822,41.44626003877581
pt.ine.add.PTCONT.460982,R DOCIM,774,4820-575,QUINCHÃES,-8.14475179572076,41.445441341034
pt.ine.add.PTCONT.461110,R JOSE CARDOSO VIEIRA DE CASTRO,389,4820-269,FAFE,-8.168519083593658,41.44856984962806
pt.ine.add.PTCONT.461111,R JOSE CARDOSO VIEIRA DE CASTRO,389,4820-269,FAFE,-8.168519083593658,41.44856984962806
pt.ine.add.PTCONT.461112,R JOSE CARDOSO VIEIRA DE CASTRO,389,4820-269,FAFE,-8.168519083593658,41.44856984962806
pt.ine.add.PTCONT.461113,R JOSE CARDOSO VIEIRA DE CASTRO,389,4820-269,FAFE,-8.168519083593658,41.44856984962806
pt.ine.add.PTCONT.461114,R JOSE CARDOSO VIEIRA DE CASTRO,389,4820-269,FAFE,-8.168519083593658,41.44856984962806
pt.ine.add.PTCONT.461115,R JOSE CARDOSO VIEIRA DE CASTRO,389,4820-269,FAFE,-8.168519083593658,41.44856984962806
pt.ine.add.PTCONT.461116,R PICA D ALEM,500,4820-583,QUINCHÃES,-8.13600386051766,41.43688814728816
pt.ine.add.PTCONT.461117,R PICA D ALEM,500,4820-583,QUINCHÃES,-8.13600386051766,41.43688814728816
pt.ine.add.PTCONT.461236,R EIDO DE BAIXO,155,4820-062,ESTORÃOS FAF,-8.12731238455449,41.4918748992238
pt.ine.add.PTCONT.461238,R PAULO,31,4820-544,MOREIRA DO REI,-8.083896633600894,41.468166299523
pt.ine.add.PTCONT.461270,R NOGUEIRAS,202,4820-706,SÃO MARTINHO SILVARES,-8.167914346548068,41.414228935197414
pt.ine.add.PTCONT.461274,R SAMORINHA,628,4820-805,TRAVASSÓS FAF,-8.20139481698211,41.496122604498005
pt.ine.add.PTCONT.461284,R S BENTO,125,4820-220,FAFE,-8.182058950713463,41.455272810349996
pt.ine.add.PTCONT.461287,R COTELHE,700,4820-825,VILA COVA FAF,-8.20362223951182,41.50707894345617
pt.ine.add.PTCONT.461294,R ALMEIDA GARRETT,35,4820-623,REGADAS,-8.151810059644484,41.39675591647678
pt.ine.add.PTCONT.461300,R JOSE MACIEL,129,4820-271,FAFE,-8.178237411073825,41.45003408846153
pt.ine.add.PTCONT.461326,R PARDELHAS,1033,4820-217,FAFE,-8.162897636938295,41.45536040325225
pt.ine.add.PTCONT.461360,R FERNANDO NAMORA,122,4820-611,REGADAS,-8.152276552509724,41.39725106042735
pt.ine.add.PTCONT.461376,R POMBAL,14,4820-786,TRAVASSÓS FAF,-8.198695631060243,41.49155021432089
pt.ine.add.PTCONT.461381,R SANTA MARIA,192,4820-005,ANTIME,-8.165619136311193,41.44075528749112
pt.ine.add.PTCONT.461420,R VASCO GAMA,249,4820-496,MEDELO,-8.154870245083325,41.46550961222522
pt.ine.add.PTCONT.461421,R MONTE COUTO,164,4820-765,SEIDÕES,-8.136540773609548,41.40819247072526
pt.ine.add.PTCONT.461426,R ALEMANHA,70,4820-173,FAFE,-8.173890498841422,41.445650796229266
pt.ine.add.PTCONT.461429,R MARTINS,22,4820-027,CEPÃES,-8.207534967083518,41.43027321490025
pt.ine.add.PTCONT.461444,TV RUA NOVA,71,4820-770,SERAFÃO,-8.21697733472414,41.53471169927086
pt.ine.add.PTCONT.461447,R PICA D ALEM,500,4820-583,QUINCHÃES,-8.13600386051766,41.43688814728816
pt.ine.add.PTCONT.461456,R PONTIDO,84,4820-573,QUINCHÃES,-8.134280460878461,41.412352360356685
pt.ine.add.PTCONT.461476,R SARGACA,332,4820-491,MEDELO,-8.1539519331456,41.476116373029406
pt.ine.add.PTCONT.461527,TV CASAS NOVAS,14,4820-419,FORNELOS FAF,-8.182036052589048,41.47257833039865
pt.ine.add.PTCONT.461580,TV PADRE JOSE DE ARAÚJO,87,4820-582,QUINCHÃES,-8.141244430936451,41.43613156415174
pt.ine.add.PTCONT.461597,R S TOMÉ E PRÍNCIPE,72,4820-622,REGADAS,-8.153196340184346,41.394144518344234
pt.ine.add.PTCONT.461627,TV PANELADA,11,4820-422,FORNELOS FAF,-8.17423890008479,41.46676486410233
pt.ine.add.PTCONT.461628,TV PANELADA,11,4820-422,FORNELOS FAF,-8.17423890008479,41.46676486410233
pt.ine.add.PTCONT.461629,TV PANELADA,11,4820-422,FORNELOS FAF,-8.17423890008479,41.46676486410233
pt.ine.add.PTCONT.461671,R SANTIAGO,203,4820-022,CEPÃES,-8.193175082786192,41.439609703323036
pt.ine.add.PTCONT.461674,URB MONTENEGRO,100,4820-399,FAFE,-8.168138813817235,41.45354913820822
pt.ine.add.PTCONT.461769,BR SOL POENTE,I8,4820-016,CEPÃES,-8.187055897219432,41.433787179676955
pt.ine.add.PTCONT.462868,R ANGOLA,585,4820-208,FAFE,-8.181378870887826,41.44198329470663
pt.ine.add.PTCONT.462869,R PARDELHAS,1906,4820-217,FAFE,-8.154915344818459,41.457207996904394
pt.ine.add.PTCONT.462870,R PARDELHAS,1906,4820-217,FAFE,-8.154915344818459,41.457207996904394
pt.ine.add.PTCONT.462871,AV GRANJA,194,4820-117,FAFE,-8.177805793637418,41.44888175388593
pt.ine.add.PTCONT.462872,AV GRANJA,194 BL A,4820-117,FAFE,-8.177805793637418,41.44888175388593
pt.ine.add.PTCONT.462873,AV GRANJA,194,4820-117,FAFE,-8.177805793637418,41.44888175388593
pt.ine.add.PTCONT.462874,AV GRANJA,194,4820-117,FAFE,-8.177805793637418,41.44888175388593
pt.ine.add.PTCONT.462875,AV GRANJA,194,4820-117,FAFE,-8.177805793637418,41.44888175388593
pt.ine.add.PTCONT.462876,R FUNDEVILA,192,4820-407,FAFE,-8.195372003842394,41.44718084846418
pt.ine.add.PTCONT.462877,TV JOSE RIBEIRO VIEIRA DE CASTRO I,59,4820-344,FAFE,-8.171625851898192,41.440645385915374
pt.ine.add.PTCONT.462878,R S MARTINHO,1435,4820-400,FAREJA,-8.224810215695037,41.4129551065351
pt.ine.add.PTCONT.462879,R FAMILIA,549,4820-181,FAFE,-8.189854177115862,41.44592315164961
pt.ine.add.PTCONT.462880,AV FORÇAS ARMADAS,639,4820-119,FAFE,-8.17275356817626,41.44548011885163
pt.ine.add.PTCONT.462881,R JOSE RIBEIRO VIEIRA DE CASTRO,946,4820-273,FAFE,-8.17254627679844,41.43910539940021
pt.ine.add.PTCONT.462882,R URBANIZACAO DA QUINTA,3,4820-422,FORNELOS FAF,-8.173485385714105,41.46777356812805
pt.ine.add.PTCONT.462883,R URBANIZACAO DA QUINTA,3,4820-422,FORNELOS FAF,-8.173485385714105,41.46777356812805
pt.ine.add.PTCONT.462884,R VISC MOREIRA DE REI,16,4820-290,FAFE,-8.167097311698122,41.45300921517017
pt.ine.add.PTCONT.462885,R PARDELHAS,,4820-217,FAFE,-8.159845566672464,41.45503701192327
pt.ine.add.PTCONT.462886,R NOVA,37,4820-281,FAFE,-8.158935117062832,41.4528762782858
pt.ine.add.PTCONT.462887,R GUERRA JUNQUEIRO,639,4820-263,FAFE,-8.165541783400974,41.45362193110197
pt.ine.add.PTCONT.462888,R GUERRA JUNQUEIRO,639,4820-263,FAFE,-8.165541783400974,41.45362193110197
pt.ine.add.PTCONT.462889,R GUERRA JUNQUEIRO,639,4820-263,FAFE,-8.165541783400974,41.45362193110197
pt.ine.add.PTCONT.462890,R GUERRA JUNQUEIRO,639,4820-263,FAFE,-8.165541783400974,41.45362193110197
pt.ine.add.PTCONT.462891,R GUERRA JUNQUEIRO,639,4820-263,FAFE,-8.165541783400974,41.45362193110197
pt.ine.add.PTCONT.462892,TV CASTANHEIRO,1,4820-405,FELGUEIRAS FAF,-8.118576751823667,41.517751174099224
pt.ine.add.PTCONT.462893,R UNIDADE,5,4820-481,FAFE,-8.15272423599006,41.45444418776363
pt.ine.add.PTCONT.462894,R INGLATERRA,113,4820-191,FAFE,-8.17653706153702,41.44856710222974
pt.ine.add.PTCONT.462895,R INGLATERRA,113,4820-191,FAFE,-8.17653706153702,41.44856710222974
pt.ine.add.PTCONT.462896,R INGLATERRA,113,4820-191,FAFE,-8.17653706153702,41.44856710222974
pt.ine.add.PTCONT.462897,R INGLATERRA,113,4820-191,FAFE,-8.17653706153702,41.44856710222974
pt.ine.add.PTCONT.462898,R INGLATERRA,113,4820-191,FAFE,-8.17653706153702,41.44856710222974
pt.ine.add.PTCONT.462920,AV TEN COR MELO ANTUNES,18,4820-398,FAFE,-8.17694588351296,41.4514482046078
pt.ine.add.PTCONT.462899,R JOSE RIBEIRO VIEIRA DE CASTRO,1076,4820-273,FAFE,-8.17283264463737,41.437790724512965
pt.ine.add.PTCONT.462900,URB MONTE ALÉM 2,4,4820-419,FORNELOS FAF,-8.178996004077552,41.473606027123395
pt.ine.add.PTCONT.462901,R RAUL BRANDAO,27,4820-284,FAFE,-8.167768988239546,41.45577321903733
pt.ine.add.PTCONT.462902,TV LIBERDADE,,4820-284,FAFE,-8.167768988239546,41.45577321903733
pt.ine.add.PTCONT.462903,R RAUL BRANDAO,27,4820-284,FAFE,-8.167768988239546,41.45577321903733
pt.ine.add.PTCONT.462904,R RAUL BRANDAO,27,4820-284,FAFE,-8.167768988239546,41.45577321903733
pt.ine.add.PTCONT.462905,R RAUL BRANDAO,27,4820-284,FAFE,-8.167768988239546,41.45577321903733
pt.ine.add.PTCONT.462906,R LAGE,159,4820-482,FAFE,-8.155560537943325,41.45396646124119
pt.ine.add.PTCONT.462907,R LAGE,17,4820-482,FAFE,-8.15532110171802,41.453750413554204
pt.ine.add.PTCONT.462908,AV SANTA COMBA,2281,4820-419,FORNELOS FAF,-8.181114031089795,41.47229059426687
pt.ine.add.PTCONT.462909,R SOUTINHO,209,4820-400,FAREJA,-8.236620508595863,41.416222537675964
pt.ine.add.PTCONT.462910,URB SOL POENTE,70,4820-122,FAFE,-8.187834325217203,41.43466919953233
pt.ine.add.PTCONT.462911,R FIEIS DEUS,122,4820-251,FAFE,-8.178872512179641,41.45121335219971
pt.ine.add.PTCONT.462912,R FIEIS DE DEUS,116,4820-251,FAFE,-8.178872512179641,41.45121335219971
pt.ine.add.PTCONT.462913,AV TEN COR MELO ANTUNES,42,4820-398,FAFE,-8.17694588351296,41.4514482046078
pt.ine.add.PTCONT.462914,AV TEN COR MELO ANTUNES,42,4820-398,FAFE,-8.17694588351296,41.4514482046078
pt.ine.add.PTCONT.462915,AV TEN COR MELO ANTUNES,31C,4820-398,FAFE,-8.17694588351296,41.4514482046078
pt.ine.add.PTCONT.462916,AV TEN COR MELO ANTUNES,31,4820-398,FAFE,-8.17694588351296,41.4514482046078
pt.ine.add.PTCONT.462917,AV TEN COR MELO ANTUNES,18,4820-398,FAFE,-8.17694588351296,41.4514482046078
pt.ine.add.PTCONT.462918,AV TEN COR MELO ANTUNES,18,4820-398,FAFE,-8.17694588351296,41.4514482046078
pt.ine.add.PTCONT.462919,AV TEN COR MELO ANTUNES,42,4820-398,FAFE,-8.17694588351296,41.4514482046078
pt.ine.add.PTCONT.462921,AV TEN COR MELO ANTUNES,31C,4820-398,FAFE,-8.17694588351296,41.4514482046078
pt.ine.add.PTCONT.462922,AV TEN COR MELO ANTUNES,31,4820-398,FAFE,-8.17694588351296,41.4514482046078
pt.ine.add.PTCONT.462923,AV TEN COR MELO ANTUNES,18,4820-398,FAFE,-8.17694588351296,41.4514482046078
pt.ine.add.PTCONT.462924,AV TEN COR MELO ANTUNES,18-31-42,4820-398,FAFE,-8.17694588351296,41.4514482046078
pt.ine.add.PTCONT.462925,AV TEN COR MELO ANTUNES,18-31-42,4820-398,FAFE,-8.17694588351296,41.4514482046078
pt.ine.add.PTCONT.462926,AV TEN COR MELO ANTUNES,42,4820-398,FAFE,-8.17694588351296,41.4514482046078
pt.ine.add.PTCONT.462927,AV TEN COR MELO ANTUNES,31,4820-398,FAFE,-8.17694588351296,41.4514482046078
pt.ine.add.PTCONT.462928,AV TEN COR MELO ANTUNES,28,4820-398,FAFE,-8.17694588351296,41.4514482046078
pt.ine.add.PTCONT.462929,R S MARTINHO,1280,4820-400,FAREJA,-8.226799165118928,41.41538457999512
pt.ine.add.PTCONT.462930,R BACELO,159,4820-400,FAREJA,-8.221365470819189,41.412885768521114
pt.ine.add.PTCONT.462931,TV PAREDES,40,4820-662,SÃO GENS,-8.110812543702128,41.451544435725054
pt.ine.add.PTCONT.462932,R EIRA DONEGA,20,4820-532,MOREIRA DO REI,-8.110623807896616,41.47824098132948
pt.ine.add.PTCONT.462933,R DOCIM,216,4820-575,QUINCHÃES,-8.151154264044084,41.446737081661595
pt.ine.add.PTCONT.462934,R MO,460,4820-500,MEDELO,-8.155530370657212,41.47062370142742
pt.ine.add.PTCONT.462935,R S PEDRO DO SOUTO,16,4820-440,FREITAS,-8.207268512256674,41.51145251436563
pt.ine.add.PTCONT.462936,R SAMOCA,344,4820-469,GOLÃES,-8.205097870939543,41.46593033603541
pt.ine.add.PTCONT.462937,URB SUB REGO,136,4820-511,MEDELO,-8.151340058624406,41.46921082982246
pt.ine.add.PTCONT.462938,R TEIXEIRAS,82,4820-474,GOLÃES,-8.204793112232217,41.450065625683344
pt.ine.add.PTCONT.462939,R TEIXEIRAS,82,4820-474,GOLÃES,-8.204793112232217,41.450065625683344
pt.ine.add.PTCONT.462940,R S JOSE,474,4820-528,MOREIRA DO REI,-8.104003449313717,41.4771590303881
pt.ine.add.PTCONT.462941,R GIESTA,123,4820-581,QUINCHÃES,-8.147932097377465,41.433123576217824
pt.ine.add.PTCONT.462942,R RIBEIRO,40,4820-635,RIBEIROS,-8.132222278557862,41.484338802669406
pt.ine.add.PTCONT.462943,R PORTELA DE CIMA,43,4820-635,RIBEIROS,-8.12471461286497,41.48548199194752
pt.ine.add.PTCONT.462944,TV SOUTO NOVO,72,4820-640,ARÕES (SANTA CRISTINA),-8.219451696381448,41.43088616197488
pt.ine.add.PTCONT.462945,AV S. CLEMENTE,327,4820-645,SÃO CLEMENTE SILVARES,-8.162646524234624,41.4294651319761
pt.ine.add.PTCONT.462946,AV JOÃO PAULO II,827,4820-500,MEDELO,-8.155925056813752,41.46958817552899
pt.ine.add.PTCONT.462947,R VÁRZEADURA,7,4820-371,PASSOS FAF,-8.187974203959573,41.47289078763704
pt.ine.add.PTCONT.462948,R BREIGA,85,4820-520,MONTE FAF,-8.16968037662923,41.534592405745585
pt.ine.add.PTCONT.462949,R AREAL,,4820-525,MOREIRA DO REI,-8.116298799354624,41.47830497782976
pt.ine.add.PTCONT.462950,R PRINCIPAL,272,4820-537,MOREIRA DO REI,-8.125554552434734,41.47028349055971
pt.ine.add.PTCONT.462951,AV ALMINHAS,680,4820-580,QUINCHÃES,-8.116718756943138,41.4271177218235
pt.ine.add.PTCONT.462952,R FONTAINHAS,208,4820-635,RIBEIROS,-8.119267485551617,41.48074542575697
pt.ine.add.PTCONT.462953,R CALINHA,8,4820-520,MONTE FAF,-8.168829149564747,41.533800339131105
pt.ine.add.PTCONT.462954,R CASTELO,131,4820-528,MOREIRA DO REI,-8.10000630656165,41.473943561011424
pt.ine.add.PTCONT.462955,R PRINCIPAL,,4820-544,MOREIRA DO REI,-8.084889510613712,41.46910312561439
pt.ine.add.PTCONT.462956,R PRINCIPAL,32,4820-537,MOREIRA DO REI,-8.123112258681457,41.47148082255798
pt.ine.add.PTCONT.462957,R LEVANDEIRA DE CIMA,60,4820-578,QUINCHÃES,-8.143386823646097,41.44047129572138
pt.ine.add.PTCONT.462958,R LEVANDEIRA DE CIMA,60,4820-578,QUINCHÃES,-8.143386823646097,41.44047129572138
pt.ine.add.PTCONT.462959,R D AFONSO HENRIQUES,1021,4820-602,REGADAS,-8.15013745401182,41.4023566697602
pt.ine.add.PTCONT.462960,R SABUGAL,485,4820-630,REVELHE,-8.154376476852365,41.492989557972244
pt.ine.add.PTCONT.462961,R BERAO,305,4820-635,RIBEIROS,-8.130857376212788,41.48142152752473
pt.ine.add.PTCONT.462962,R CHA,96,4820-635,RIBEIROS,-8.132785049297974,41.48308726674157
pt.ine.add.PTCONT.462963,TV LEVANDEIRA,113,4820-069,GOLÃES,-8.198332620276792,41.46391749601231
pt.ine.add.PTCONT.462964,R ESCOLA,294,4820-590,QUINCHÃES,-8.139509978112383,41.44071468327066
pt.ine.add.PTCONT.462965,R ESCOLA,306,4820-590,QUINCHÃES,-8.139509978112383,41.44071468327066
pt.ine.add.PTCONT.462966,R LUIS CAMOES,564,4820-601,REGADAS,-8.150842417181241,41.40015958572747
pt.ine.add.PTCONT.462967,R LUIS CAMOES,566,4820-601,REGADAS,-8.150842417181241,41.40015958572747
pt.ine.add.PTCONT.462968,R PADRE MANUEL DA SILVA,43,4820-452,GOLÃES,-8.20072749841522,41.46477148431392
pt.ine.add.PTCONT.462969,R EIROS,108,4820-576,QUINCHÃES,-8.141484134223834,41.43929193309046
pt.ine.add.PTCONT.462970,R LUIS CAMOES,568,4820-601,REGADAS,-8.150842417181241,41.40015958572747
pt.ine.add.PTCONT.462971,R JOSE CARDOSO VIEIRA CASTRO,668,4820-371,PASSOS FAF,-8.197531061618356,41.476442369017754
pt.ine.add.PTCONT.462972,R AVIAL,20,4820-371,PASSOS FAF,-8.19294520015089,41.475913616557285
pt.ine.add.PTCONT.462973,R S FRUTUOSO,198,4820-520,MONTE FAF,-8.142263523496215,41.53598444112318
pt.ine.add.PTCONT.462974,R JOSE CARDOSO VIEIRA DE CASTRO,247,4820-371,PASSOS FAF,-8.193100273621774,41.47530127133339
pt.ine.add.PTCONT.462975,R ESTREMADOURO,421,4820-560,QUEIMADELA FAF,-8.150528000005508,41.52124425532044
pt.ine.add.PTCONT.462976,TV CARVALHAS,,4820-630,REVELHE,-8.156529622204415,41.48629926615742
pt.ine.add.PTCONT.462977,R TRAS DO SOLEIRO,46,4820-630,REVELHE,-8.158110244837998,41.48641598379313
pt.ine.add.PTCONT.462978,R LAMA,,4820-645,SÃO CLEMENTE SILVARES,-8.158170795694613,41.42599966760644
pt.ine.add.PTCONT.462979,R RIELHO,242,4820-508,MEDELO,-8.165896969969259,41.46972982774494
pt.ine.add.PTCONT.462980,R MOREIRA,2,4820-555,PEDRAÍDO,-8.118494280074493,41.51158354131938
pt.ine.add.PTCONT.462981,R SUCHIA,80,4820-635,RIBEIROS,-8.135035459962628,41.46269343141849
pt.ine.add.PTCONT.462982,R MONTELONGO,244,4820-540,MOREIRA DO REI,-8.117651177111005,41.48052012287301
pt.ine.add.PTCONT.462983,R FERNANDO NAMORA,20,4820-611,REGADAS,-8.15253931654751,41.396224558827306
pt.ine.add.PTCONT.462984,R FERNANDO NAMORA,20,4820-611,REGADAS,-8.15253931654751,41.396224558827306
pt.ine.add.PTCONT.462985,R SANTO ANTÓNIO,127,4820-630,REVELHE,-8.156097139368056,41.482292628643236
pt.ine.add.PTCONT.462986,AV FONTE DA CRUZ,123,4820-640,ARÕES (SANTA CRISTINA),-8.213388914195066,41.442955844230596
pt.ine.add.PTCONT.462987,R BOUCINHAS,43,4820-667,SÃO GENS,-8.126166209362678,41.459694935313365
pt.ine.add.PTCONT.462988,R BOUCINHAS,65,4820-667,SÃO GENS,-8.126166209362678,41.459694935313365
pt.ine.add.PTCONT.462989,AV LIBERDADE,684,4820-506,MEDELO,-8.162963726464751,41.46898330279752
pt.ine.add.PTCONT.462990,R FERREIRO,2,4820-533,MOREIRA DO REI,-8.11640627537701,41.479385459622854
pt.ine.add.PTCONT.462991,R BAIRRO,1017,4820-377,PASSOS FAF,-8.201431991546356,41.48591219995353
pt.ine.add.PTCONT.462992,R 10 DE JUNHO,547,4820-622,REGADAS,-8.15553988819815,41.39399101705855
pt.ine.add.PTCONT.462993,R CRUZEIRO,326,4820-574,QUINCHÃES,-8.15216022040225,41.44928503247505
pt.ine.add.PTCONT.462994,R PORINHOS,176,4820-640,ARÕES (SANTA CRISTINA),-8.207171747225516,41.44753401436699
pt.ine.add.PTCONT.462995,TV CAPELA,48,4820-667,SÃO GENS,-8.12327001636344,41.457389721481334
pt.ine.add.PTCONT.462996,R SARGACA,600,4820-491,MEDELO,-8.152562525372439,41.47400070215757
pt.ine.add.PTCONT.462997,R FONTE,40,4820-630,REVELHE,-8.166901040270323,41.48989823465454
pt.ine.add.PTCONT.462998,R NSA SRA DE FÁTIMA,535,4820-630,REVELHE,-8.169259011849789,41.48800670535976
pt.ine.add.PTCONT.462999,AV 25 DE ABRIL,194,4820-640,ARÕES (SANTA CRISTINA),-8.204047200406784,41.44645551144981
pt.ine.add.PTCONT.463000,TV RETIRO,31,4820-356,FAFE,-8.170892922412502,41.45606036084255
pt.ine.add.PTCONT.463005,R GRUPO CULTURAL E DESPORTIVO ARMIL,88,4820-010,ARMIL,-8.193800679643278,41.417558670036335
pt.ine.add.PTCONT.463007,R ALMEIDA GARRETT,39,4820-164,FAFE,-8.164538682978504,41.45821420892191
pt.ine.add.PTCONT.463008,R S BENTO,101,4820-220,FAFE,-8.182023201210974,41.45547991573876
pt.ine.add.PTCONT.463012,R CARVALHAL,84-80,4820-005,ANTIME,-8.15909714881975,41.439046196012
pt.ine.add.PTCONT.463013,R CARVALHAL,84-80,4820-005,ANTIME,-8.15909714881975,41.439046196012
pt.ine.add.PTCONT.463014,TV RETORTINHA,14,4820-038,CEPÃES,-8.206102502542977,41.43311938326338
pt.ine.add.PTCONT.463016,R S BENTO,126,4820-220,FAFE,-8.182441876891785,41.455191611481574
pt.ine.add.PTCONT.463018,TV BOAVISTA,333,4820-045,CEPÃES,-8.206944968058224,41.42694212894075
pt.ine.add.PTCONT.463020,R CESTELO,49,4820-005,ANTIME,-8.177062446417203,41.429100369210886
pt.ine.add.PTCONT.463021,R TERRA NOVA,43,4820-095,CEPÃES,-8.206145071491237,41.42840128166794
pt.ine.add.PTCONT.463022,R CANCELO,6,4820-020,CEPÃES,-8.215611641640438,41.421713938559954
pt.ine.add.PTCONT.463023,R CANCELO,6,4820-020,CEPÃES,-8.215611641640438,41.421713938559954
pt.ine.add.PTCONT.463024,TV TRANCADAS,79,4820-096,CEPÃES,-8.209696270760505,41.4267512470891
pt.ine.add.PTCONT.463027,R MOINHO DE VENTO,20,4820-001,ABOIM FAF,-8.085552922294273,41.54409638966897
pt.ine.add.PTCONT.463028,R BAIRRO NOVO,115,4820-055,ESTORÃOS FAF,-8.149413461015504,41.47209236619178
pt.ine.add.PTCONT.463029,TV S JOÃO DA ESTRADA,936,4820-065,ESTORÃOS FAF,-8.146478034033974,41.46031563793274
pt.ine.add.PTCONT.463030,R CUMIEIRA,20,4820-179,FAFE,-8.160961078131312,41.460781246470674
pt.ine.add.PTCONT.463031,R CUMIEIRA,22 A,4820-179,FAFE,-8.160961078131312,41.460781246470674
pt.ine.add.PTCONT.463032,R FOZ,,4820-182,FAFE,-8.185312424737303,41.45287633643744
pt.ine.add.PTCONT.463034,R PORTELINHA,,4820-001,ABOIM FAF,-8.086417247557472,41.54211591154661
pt.ine.add.PTCONT.463035,R RETIRO,835,4820-239,FAFE,-8.174161540124128,41.45798607938493
pt.ine.add.PTCONT.463039,R TRAS OS MONTES,27,4820-013,ARNOZELA,-8.128804336374703,41.385412287609846
pt.ine.add.PTCONT.463040,TV CIDADE GUIMARÃES,385,4820-391,FAFE,-8.191785130247094,41.450721278678394
pt.ine.add.PTCONT.463042,R CALÇADA,61,4820-001,ABOIM FAF,-8.086971066572044,41.517699408825386
pt.ine.add.PTCONT.463043,R CHAMADOURO,4,4820-001,ABOIM FAF,-8.087099390940047,41.518104104635455
pt.ine.add.PTCONT.463046,R FAFOA,685,4820-401,FAFE,-8.193470965250643,41.44900965987584
pt.ine.add.PTCONT.463047,R RETIRO,457,4820-239,FAFE,-8.172089961929725,41.456375098638134
pt.ine.add.PTCONT.463048,R FONTE,18,4820-739,ARÕES (SÃO ROMÃO),-8.222431118795075,41.46608925694469
pt.ine.add.PTCONT.463051,TV VILA NOVA,,4820-770,SERAFÃO,-8.221433042034374,41.54207346339506
pt.ine.add.PTCONT.463054,R PASSAL,75,4820-663,SÃO GENS,-8.134687976635778,41.447809954339895
pt.ine.add.PTCONT.463055,TV BUSTELOS,13,4820-713,SÃO MARTINHO SILVARES,-8.160066238080814,41.40986410682635
pt.ine.add.PTCONT.463056,TV CERCA,270,4820-656,SÃO GENS,-8.125377651573073,41.44783671723963
pt.ine.add.PTCONT.463057,TV SANTO AMARO,44,4820-668,SÃO GENS,-8.136746046761274,41.44328092744905
pt.ine.add.PTCONT.463058,R DR ÁLVARO LEITE,52,4820-713,SÃO MARTINHO SILVARES,-8.158869886752951,41.40898198954569
pt.ine.add.PTCONT.463059,R BONS CAMINHOS,265,4820-754,ARÕES (SÃO ROMÃO),-8.22476447441855,41.45697546424565
pt.ine.add.PTCONT.463060,R POMBAL,116,4820-808,TRAVASSÓS FAF,-8.20129776345697,41.49493415288367
pt.ine.add.PTCONT.463063,R PICA,72,4820-668,SÃO GENS,-8.13631523653771,41.44270468805128
pt.ine.add.PTCONT.463064,R PICA,72,4820-668,SÃO GENS,-8.13631523653771,41.44270468805128
pt.ine.add.PTCONT.463065,R PICA,72,4820-668,SÃO GENS,-8.13631523653771,41.44270468805128
pt.ine.add.PTCONT.463066,R PICA,72,4820-668,SÃO GENS,-8.13631523653771,41.44270468805128
pt.ine.add.PTCONT.463069,R FIGUEIRAS,102,4820-664,SÃO GENS,-8.083273662907281,41.453174516771085
pt.ine.add.PTCONT.463070,PCT 25 DE ABRIL,1,4820-703,SÃO MARTINHO SILVARES,-8.167367095977621,41.419838579852616
pt.ine.add.PTCONT.463071,AV DR ANTÓNIO MARQUES MENDES,09,4820-762,ARÕES (SÃO ROMÃO),-8.21247311464499,41.45736276523874
pt.ine.add.PTCONT.463072,R OUTEIRO ALTO,119,4820-820,VÁRZEA COVA,-8.075858111172286,41.52955985009941
pt.ine.add.PTCONT.463074,TV LAMEIRINHA,155,4820-664,SÃO GENS,-8.094015424862711,41.44237394887229
pt.ine.add.PTCONT.463075,R COSTEIRA,90,4820-783,TRAVASSÓS FAF,-8.189234374450615,41.49042073320102
pt.ine.add.PTCONT.463078,R BURGUEIROS,211,4820-653,SÃO GENS,-8.102075122529026,41.428555338207595
pt.ine.add.PTCONT.463079,LOTEAM TELHADO,11,4820-758,ARÕES (SÃO ROMÃO),-8.209221155095175,41.45015282054062
pt.ine.add.PTCONT.463080,R SARDOAL,186,4820-770,SERAFÃO,-8.212977951784147,41.527358440647454
pt.ine.add.PTCONT.463081,TV CRUZEIRO,97,4820-830,VINHÓS FAF,-8.173015897108709,41.48299930942073
pt.ine.add.PTCONT.463084,TV MOINHOS,96,4820-710,SÃO MARTINHO SILVARES,-8.155520038205372,41.40582228797303
pt.ine.add.PTCONT.463085,R LOTEAMENTO,85,4820-830,VINHÓS FAF,-8.176175693168513,41.48118839004285
pt.ine.add.PTCONT.463086,R SOUTO,73,4820-667,SÃO GENS,-8.127092081380395,41.413738823168124
pt.ine.add.PTCONT.463087,R VILARELHO,753,4820-770,SERAFÃO,-8.190684042456384,41.53178362683741
pt.ine.add.PTCONT.463088,R VILARELHO,753,4820-770,SERAFÃO,-8.190684042456384,41.53178362683741
pt.ine.add.PTCONT.463089,AV LIBERDADE,220,4820-802,TRAVASSÓS FAF,-8.18872601830062,41.4840912589722
pt.ine.add.PTCONT.463090,AV SENHORA DAS NEVES,67,4820-820,VÁRZEA COVA,-8.090858495052307,41.51289126894247
pt.ine.add.PTCONT.463092,R DE ORTEZEDO,263,4820-707,SÃO MARTINHO SILVARES,-8.16877045855646,41.406156788582685
pt.ine.add.PTCONT.463093,R BARREIROS,106,4820-733,ARÕES (SÃO ROMÃO),-8.218542966351245,41.44953400827623
pt.ine.add.PTCONT.463094,R S MAMEDE,111,4820-830,VINHÓS FAF,-8.170057137065905,41.4806863008427
pt.ine.add.PTCONT.463095,R OLEIROS,213,4820-745,ARÕES (SÃO ROMÃO),-8.215381657173749,41.46694088165843
pt.ine.add.PTCONT.463096,R ESPADANAL,118,4820-741,ARÕES (SÃO ROMÃO),-8.221480665898339,41.444921775497924
pt.ine.add.PTCONT.463097,R BOAVISTA,316,4820-820,VÁRZEA COVA,-8.071447474980575,41.50562540826127
pt.ine.add.PTCONT.463098,AV PORTELA,114,4820-743,ARÕES (SÃO ROMÃO),-8.228080608454578,41.45753101717734
pt.ine.add.PTCONT.463099,R PA LEVANDEIRA,34,4820-765,SEIDÕES,-8.117980283284023,41.40388761598528
pt.ine.add.PTCONT.463100,AV LIBERDADE,911,4820-808,TRAVASSÓS FAF,-8.204244346005261,41.49545459202215
pt.ine.add.PTCONT.463101,R OUTEIRO DA VILA,126,4820-820,VÁRZEA COVA,-8.07052471218405,41.506129124972375
pt.ine.add.PTCONT.464334,R GUERRA JUNQUEIRO,639,4820-263,FAFE,-8.165541783400974,41.45362193110197
pt.ine.add.PTCONT.464345,R SARGACA,600,4820-491,MEDELO,-8.152562525372439,41.47400070215757
pt.ine.add.PTCONT.464346,TV ADEGAS,5,4820-830,VINHÓS FAF,-8.167915509725548,41.48357721404756
pt.ine.add.PTCONT.464354,AV TEN COR MELO ANTUNES,18,4820-398,FAFE,-8.17694588351296,41.4514482046078
pt.ine.add.PTCONT.464383,TV SUB REGO,102,4820-511,MEDELO,-8.152070384968383,41.46955285992734
pt.ine.add.PTCONT.464384,R S PAULO,44,4820-602,REGADAS,-8.150329251221086,41.40409441383887
pt.ine.add.PTCONT.464393,R FRANCA,194,4820-183,FAFE,-8.177805793637418,41.44888175388593
pt.ine.add.PTCONT.464401,R CAMINHO NOVO,63,4820-573,QUINCHÃES,-8.134902598130854,41.419330439528395
pt.ine.add.PTCONT.464407,R EIROS,108,4820-576,QUINCHÃES,-8.141484134223834,41.43929193309046
pt.ine.add.PTCONT.464417,R FONTE DO PASSADOURO,765,4820-074,ESTORÃOS FAF,-8.134773037170513,41.4983127923934
pt.ine.add.PTCONT.464437,R OLEIROS,213,4820-745,ARÕES (SÃO ROMÃO),-8.215381657173749,41.46694088165843
pt.ine.add.PTCONT.464439,URB QUINTA DO PASSAL,248,4820-663,SÃO GENS,-8.131768035298878,41.447548843306606
pt.ine.add.PTCONT.464485,R FONTE DA CANA,135,4820-390,FAFE,-8.182315627261364,41.446502874953985
pt.ine.add.PTCONT.464486,LG S FRANCISCO ASSIS,371,4820-618,REGADAS,-8.150924981482499,41.3959727077049
pt.ine.add.PTCONT.464519,R ANTÓNIO SÉRGIO,260,4820-168,FAFE,-8.166690522198758,41.45324343668125
pt.ine.add.PTCONT.464520,R ANTÓNIO SÉRGIO,260,4820-168,FAFE,-8.166690522198758,41.45324343668125
pt.ine.add.PTCONT.464521,R ANTÓNIO SÉRGIO,260,4820-168,FAFE,-8.166690522198758,41.45324343668125
pt.ine.add.PTCONT.464522,R ANTÓNIO SÉRGIO,260,4820-168,FAFE,-8.166690522198758,41.45324343668125
pt.ine.add.PTCONT.464523,R ANTÓNIO SÉRGIO,260,4820-168,FAFE,-8.166690522198758,41.45324343668125
pt.ine.add.PTCONT.464524,R ANTÓNIO SÉRGIO,260,4820-168,FAFE,-8.166690522198758,41.45324343668125
pt.ine.add.PTCONT.464527,R SOARES DOS REIS,144,4820-601,REGADAS,-8.152373320314423,41.40099671228493
pt.ine.add.PTCONT.464528,R SOARES DOS REIS,144,4820-601,REGADAS,-8.152373320314423,41.40099671228493
pt.ine.add.PTCONT.464549,R EÇA DE QUEIROZ,10,4820-256,FAFE,-8.165170254784485,41.45256857604744
pt.ine.add.PTCONT.464550,R EÇA DE QUEIROZ,10,4820-256,FAFE,-8.165170254784485,41.45256857604744
pt.ine.add.PTCONT.464551,R EÇA DE QUEIROZ,10,4820-256,FAFE,-8.165170254784485,41.45256857604744
pt.ine.add.PTCONT.464552,R EÇA DE QUEIROZ,10,4820-256,FAFE,-8.165170254784485,41.45256857604744
pt.ine.add.PTCONT.464553,R EÇA DE QUEIROZ,10,4820-256,FAFE,-8.165170254784485,41.45256857604744
pt.ine.add.PTCONT.464554,R EÇA DE QUEIROZ,10,4820-256,FAFE,-8.165170254784485,41.45256857604744
pt.ine.add.PTCONT.464555,R EÇA DE QUEIROZ,10,4820-256,FAFE,-8.165170254784485,41.45256857604744
pt.ine.add.PTCONT.464556,TV PONTE,143,4820-635,RIBEIROS,-8.12117067692307,41.483599868748314
pt.ine.add.PTCONT.464600,URB DR LEITE LAGE,72,4820-365,FAFE,-8.180582043342747,41.448691559167656
pt.ine.add.PTCONT.464601,URB DR LEITE LAGE,72,4820-365,FAFE,-8.180582043342747,41.448691559167656
pt.ine.add.PTCONT.464602,URB DR LEITE LAGE,72,4820-365,FAFE,-8.180582043342747,41.448691559167656
pt.ine.add.PTCONT.464603,URB DR LEITE LAGE,72,4820-365,FAFE,-8.180582043342747,41.448691559167656
pt.ine.add.PTCONT.464610,URB DR LEITE LAGE,72,4820-365,FAFE,-8.180582043342747,41.448691559167656
pt.ine.add.PTCONT.464690,R RIBEIRA DE BORBA,1301,4820-104,FAFE,-8.182175785874003,41.43560816309486
pt.ine.add.PTCONT.465794,BR MANUEL CARDOSO MARTINS,S2,4820-129,FAFE,-8.173444138392965,41.43984341168888
pt.ine.add.PTCONT.465795,R GEN HUMBERTO DELGADO,31,4820-261,FAFE,-8.167276821469853,41.45299115414347
pt.ine.add.PTCONT.465796,TV GRANJA,201,4820-304,FAFE,-8.178308409282304,41.44887255357461
pt.ine.add.PTCONT.465797,BR EMIGRANTE,1,4820-127,FAFE,-8.156314706331063,41.45446152735006
pt.ine.add.PTCONT.465798,R HOLANDA,9,4820-188,FAFE,-8.174752064886134,41.4456054679018
pt.ine.add.PTCONT.465799,R HOLANDA,9,4820-188,FAFE,-8.174752064886134,41.4456054679018
pt.ine.add.PTCONT.465800,R HOLANDA,9,4820-188,FAFE,-8.174752064886134,41.4456054679018
pt.ine.add.PTCONT.465801,R HOLANDA,9,4820-188,FAFE,-8.174752064886134,41.4456054679018
pt.ine.add.PTCONT.465802,R HOLANDA,9,4820-188,FAFE,-8.174752064886134,41.4456054679018
pt.ine.add.PTCONT.465803,R HOLANDA,9,4820-188,FAFE,-8.174752064886134,41.4456054679018
pt.ine.add.PTCONT.465804,PCT 1 DE MAIO,,4820-150,FAFE,-8.172851795183389,41.44956787074437
pt.ine.add.PTCONT.465805,PCT 1 DE MAIO,,4820-150,FAFE,-8.172851795183389,41.44956787074437
pt.ine.add.PTCONT.465806,PCT 1 DE MAIO,,4820-150,FAFE,-8.172851795183389,41.44956787074437
pt.ine.add.PTCONT.465807,PCT 1 DE MAIO,,4820-150,FAFE,-8.172851795183389,41.44956787074437
pt.ine.add.PTCONT.465808,PCT 1 DE MAIO,,4820-150,FAFE,-8.172851795183389,41.44956787074437
pt.ine.add.PTCONT.465809,PCT 1 DE MAIO,,4820-150,FAFE,-8.172851795183389,41.44956787074437
pt.ine.add.PTCONT.465810,PCT 1 DE MAIO,,4820-150,FAFE,-8.172851795183389,41.44956787074437
pt.ine.add.PTCONT.465811,R VEIGA,39,4820-480,FAFE,-8.159749702204401,41.454748908659255
pt.ine.add.PTCONT.465812,TV TOJAL,7,4820-405,FELGUEIRAS FAF,-8.116947518769912,41.517633906997595
pt.ine.add.PTCONT.465813,R MACAU,88,4820-215,FAFE,-8.175962087945747,41.442038582116254
pt.ine.add.PTCONT.465814,R MOÇAMBIQUE,122,4820-216,FAFE,-8.177442554933407,41.44267818245649
pt.ine.add.PTCONT.465815,R ANTÓNIO SÉRGIO,31,4820-168,FAFE,-8.164715755543765,41.453144953030375
pt.ine.add.PTCONT.465816,BR COVAS,22,4820-125,FAFE,-8.181782314665922,41.43743613220419
pt.ine.add.PTCONT.465817,R BOMBEIROS VOLUNTARIOS,54,4820-249,FAFE,-8.171355404875452,41.44875802419021
pt.ine.add.PTCONT.465818,R DAVID MOURAO FERREIRA,248,4820-392,FAFE,-8.165550817633592,41.44773335926017
pt.ine.add.PTCONT.465819,R ARTUR PINTO BASTOS,141,4820-170,FAFE,-8.182080896387756,41.452625647584505
pt.ine.add.PTCONT.465820,R JOSE RIBEIRO VIEIRA DE CASTRO,488,4820-273,FAFE,-8.1717469827043,41.44313043337513
pt.ine.add.PTCONT.465821,URB SOL POENTE,111,4820-122,FAFE,-8.186100757949925,41.43626371062148
pt.ine.add.PTCONT.465822,R SOUTINHO,8,4820-400,FAREJA,-8.234322606937134,41.415351195811795
pt.ine.add.PTCONT.465823,R CORREDOURA,78,4820-427,FORNELOS FAF,-8.173863485370811,41.45984999588141
pt.ine.add.PTCONT.465824,URB SOL POENTE,132,4820-122,FAFE,-8.186530836142209,41.43546216003197
pt.ine.add.PTCONT.465825,R IMACULADA CONCEIÇÃO,246,4820-190,FAFE,-8.178294143136556,41.44555911152187
pt.ine.add.PTCONT.465826,TV FAFOA,64,4820-297,FAFE,-8.184028583164675,41.44869008527779
pt.ine.add.PTCONT.465827,R DR JOSE SUMMAVIELLE SOARES,400,4820-253,FAFE,-8.16848082016908,41.44422096066136
pt.ine.add.PTCONT.465828,TV CRUZEIRO,50,4820-400,FAREJA,-8.232682435028496,41.4143621887826
pt.ine.add.PTCONT.465829,R S MARTINHO,1098,4820-400,FAREJA,-8.221018031652209,41.412453843120765
pt.ine.add.PTCONT.465830,R REGADAS,410,4820-630,REVELHE,-8.162154143307877,41.478923806906245
pt.ine.add.PTCONT.465831,R REGADAS,410,4820-630,REVELHE,-8.162154143307877,41.478923806906245
pt.ine.add.PTCONT.465832,AV CANCELA,496,4820-560,QUEIMADELA FAF,-8.154276788494915,41.51783117842835
pt.ine.add.PTCONT.465833,R LEVANDEIRA,72,4820-578,QUINCHÃES,-8.142741236644312,41.44424400320944
pt.ine.add.PTCONT.465834,LOTEAM SENRAS,2,4820-630,REVELHE,-8.154347682960005,41.478160183015845
pt.ine.add.PTCONT.465835,R GAIA,525,4820-640,ARÕES (SANTA CRISTINA),-8.205924045246986,41.44472558314274
pt.ine.add.PTCONT.465836,R PONTE NOVA,7,4820-464,GOLÃES,-8.198594858717001,41.45092469416284
pt.ine.add.PTCONT.465837,BR NOVO,436,4820-572,QUINCHÃES,-8.140802644988762,41.44386598375386
pt.ine.add.PTCONT.465838,R SOBREIRA,453,4820-440,FREITAS,-8.225032151587111,41.51089945853565
pt.ine.add.PTCONT.465839,TV ORDEM,26,4820-505,MEDELO,-8.16053055604498,41.461672737198526
pt.ine.add.PTCONT.465840,AV S. CLEMENTE,117,4820-645,SÃO CLEMENTE SILVARES,-8.164729247677323,41.431634532817675
pt.ine.add.PTCONT.465841,TV VÁRZEADURA,73,4820-371,PASSOS FAF,-8.187243921322231,41.47287312585411
pt.ine.add.PTCONT.465842,R PONTE DE PACOS,105,4820-371,PASSOS FAF,-8.186983625226048,41.47659185483187
pt.ine.add.PTCONT.465843,R S MATEUS,556,4820-498,MEDELO,-8.159145420874244,41.470001671025045
pt.ine.add.PTCONT.465844,R NOVA DA ORDEM,326,4820-498,MEDELO,-8.164362806639268,41.46583156535984
pt.ine.add.PTCONT.465845,R CASAL,29,4820-520,MONTE FAF,-8.168864914585653,41.53346718748146
pt.ine.add.PTCONT.465846,R PEREIRO,,4820-528,MOREIRA DO REI,-8.100425093354069,41.474393875347374
pt.ine.add.PTCONT.465847,R FONTE,97,4820-589,QUINCHÃES,-8.123311364797619,41.421211867505384
pt.ine.add.PTCONT.465848,TV BATALHA,36,4820-645,SÃO CLEMENTE SILVARES,-8.163172732602572,41.4290508134112
pt.ine.add.PTCONT.465849,R SANTO ANTÓNIO,220,4820-440,FREITAS,-8.226303741695473,41.512194986945104
pt.ine.add.PTCONT.465850,R TAPADA,120,4820-440,FREITAS,-8.22599258816602,41.512402326758334
pt.ine.add.PTCONT.465851,URB CABREIROS,204,4820-572,QUINCHÃES,-8.14073067562198,41.4423983462259
pt.ine.add.PTCONT.465852,R PADRE MANUEL DA SILVA,119,4820-452,GOLÃES,-8.201457334391046,41.46444691236915
pt.ine.add.PTCONT.465853,R PADRE MANUEL DA SILVA,119,4820-452,GOLÃES,-8.201457334391046,41.46444691236915
pt.ine.add.PTCONT.465854,R RIO,63,4820-491,MEDELO,-8.15099185013837,41.465384225875304
pt.ine.add.PTCONT.465855,R PAREDE,,4820-520,MONTE FAF,-8.136799347829449,41.539127069824346
pt.ine.add.PTCONT.465856,R CAPELA,,4820-520,MONTE FAF,-8.13950771891265,41.53942407605958
pt.ine.add.PTCONT.465857,R S FRUTUOSO,,4820-520,MONTE FAF,-8.13950771891265,41.53942407605958
pt.ine.add.PTCONT.465858,AV VISC MOREIRA DO REI,376,4820-529,MOREIRA DO REI,-8.109831854711196,41.48316594698811
pt.ine.add.PTCONT.465859,R JOSE CARDOSO VIEIRA DE CASTRO,374,4820-371,PASSOS FAF,-8.194669037219489,41.47575063692259
pt.ine.add.PTCONT.465860,R JOSE CARDOSO VIEIRA DE CASTRO,374,4820-371,PASSOS FAF,-8.194669037219489,41.47575063692259
pt.ine.add.PTCONT.465861,R CALÇADA,,4820-520,MONTE FAF,-8.13890848045877,41.53891989561837
pt.ine.add.PTCONT.465862,R CABINE,,4820-520,MONTE FAF,-8.139495640252107,41.53846067118919
pt.ine.add.PTCONT.465863,R ITEIRO,55,4820-537,MOREIRA DO REI,-8.125399504804841,41.46541236940607
pt.ine.add.PTCONT.465864,R RILHADAS,11,4820-640,ARÕES (SANTA CRISTINA),-8.216570444140922,41.4324819886789
pt.ine.add.PTCONT.465865,AV LIBERDADE,,4820-506,MEDELO,-8.162999771465037,41.46927141822513
pt.ine.add.PTCONT.465866,R FORAL,155,4820-536,MOREIRA DO REI,-8.11373592519428,41.48078064267976
pt.ine.add.PTCONT.465867,R LEVANDEIRA,3,4820-555,PEDRAÍDO,-8.12279449478572,41.51252940973369
pt.ine.add.PTCONT.465868,R VILA POUCA,348,4820-640,ARÕES (SANTA CRISTINA),-8.218899019943658,41.447282760540006
pt.ine.add.PTCONT.465869,R TANQUINHOS,40,4820-540,MOREIRA DO REI,-8.116629229398939,41.480869107413525
pt.ine.add.PTCONT.465870,AV LIBERDADE,1002,4820-506,MEDELO,-8.160486794789596,41.47145999092541
pt.ine.add.PTCONT.465871,AV LIBERDADE,,4820-506,MEDELO,-8.160486794789596,41.47145999092541
pt.ine.add.PTCONT.465872,R CRASTO,775,4820-377,PASSOS FAF,-8.197193374734384,41.486094717024706
pt.ine.add.PTCONT.465873,R SOUTO,12,4820-555,PEDRAÍDO,-8.120267353022596,41.510467277539384
pt.ine.add.PTCONT.465874,R FOGUETEIRAS,263,4820-630,REVELHE,-8.154744068585812,41.482040782488355
pt.ine.add.PTCONT.465875,R LIBERDADE,,4820-630,REVELHE,-8.165632263278525,41.49098806821603
pt.ine.add.PTCONT.465876,AV FONTE CRUZ,189,4820-640,ARÕES (SANTA CRISTINA),-8.215985555844002,41.44295400293809
pt.ine.add.PTCONT.465877,R CONEGO VALDEMAR GONCALVES,225,4820-640,ARÕES (SANTA CRISTINA),-8.215985555844002,41.44295400293809
pt.ine.add.PTCONT.465878,AV FONTE DA CRUZ,312,4820-640,ARÕES (SANTA CRISTINA),-8.215063475850245,41.44240542315061
pt.ine.add.PTCONT.465879,AV LIBERDADE,1002,4820-506,MEDELO,-8.160486794789596,41.47145999092541
pt.ine.add.PTCONT.465880,R S MIGUEL,11,4820-520,MONTE FAF,-8.166249574149534,41.52739940748804
pt.ine.add.PTCONT.465881,R BAIRRO,104,4820-377,PASSOS FAF,-8.203500744448212,41.48337185989145
pt.ine.add.PTCONT.465882,R AGRELO,132,4820-640,ARÕES (SANTA CRISTINA),-8.21285063850213,41.44311828950492
pt.ine.add.PTCONT.465883,TV PEQUITE I,101,4820-461,GOLÃES,-8.193858888624359,41.45433978020403
pt.ine.add.PTCONT.465884,URB ASSENTO,17,4820-526,MOREIRA DO REI,-8.111976184099042,41.47986193687159
pt.ine.add.PTCONT.465885,R AGRO MAU,243,4820-370,PASSOS FAF,-8.211100661431711,41.48063878267948
pt.ine.add.PTCONT.465886,R TORNADOIRO,58,4820-573,QUINCHÃES,-8.136601050135429,41.41711542149146
pt.ine.add.PTCONT.465887,R L IBERDADE,438,4820-630,REVELHE,-8.165798500171142,41.48817881443759
pt.ine.add.PTCONT.465889,R CALVELOS,731,4820-211,FAFE,-8.181834874029136,41.45971183688327
pt.ine.add.PTCONT.465890,R CALVELOS,843,4820-211,FAFE,-8.183498513080513,41.4596120771233
pt.ine.add.PTCONT.465891,R BAIXO,365,4820-003,AGRELA FAF,-8.201720465928867,41.543671580120446
pt.ine.add.PTCONT.465892,R MANUEL RIBEIRO,27,4820-044,CEPÃES,-8.20652753471042,41.43869420262264
pt.ine.add.PTCONT.465896,TV BAIRRO NOVO,82,4820-055,ESTORÃOS FAF,-8.148994253326022,41.47124605864804
pt.ine.add.PTCONT.465900,R CARVALHAL,64,4820-005,ANTIME,-8.159180841640564,41.438884106028766
pt.ine.add.PTCONT.465901,R CARVALHAL,,4820-005,ANTIME,-8.159252590401628,41.43877604237927
pt.ine.add.PTCONT.465902,R MONTINHO,1,4820-005,ANTIME,-8.172541769826433,41.43165913221273
pt.ine.add.PTCONT.465903,R OUTEIRO,150,4820-010,ARMIL,-8.187306646192162,41.41879545751341
pt.ine.add.PTCONT.465904,LG NSA SRA DA AJUDA,224,4820-083,ESTORÃOS FAF,-8.137946071756286,41.489155775927415
pt.ine.add.PTCONT.465906,R CASARES,1205,4820-059,ESTORÃOS FAF,-8.146650803357314,41.48530142350628
pt.ine.add.PTCONT.465929,AV SENHORA DAS NEVES,,4820-001,ABOIM FAF,-8.089035193684166,41.51657315027232
pt.ine.add.PTCONT.465909,R CRUZ DO BARREIRO,701,4820-010,ARMIL,-8.196155079344997,41.41548648821532
pt.ine.add.PTCONT.465910,BR PENAS DE GOIVO,134,4820-059,ESTORÃOS FAF,-8.150134288478357,41.481798452440955
pt.ine.add.PTCONT.465911,R S JOÃO DA ESTRADA,394,4820-065,ESTORÃOS FAF,-8.140469647375442,41.462071942212965
pt.ine.add.PTCONT.465912,R CANCELO,706,4820-058,ESTORÃOS FAF,-8.140962618369622,41.4804398583389
pt.ine.add.PTCONT.465913,URB DEVESA,57,4820-004,FAFE,-8.185780156919419,41.45409165295806
pt.ine.add.PTCONT.465914,TV REGEDOURAS,58,4820-037,CEPÃES,-8.208820714421508,41.424815973718964
pt.ine.add.PTCONT.465915,R S JOAO,1013,4820-065,ESTORÃOS FAF,-8.147830384952842,41.45952312836069
pt.ine.add.PTCONT.465919,TV BACEIROS,41,4820-053,ESTORÃOS FAF,-8.152467452794914,41.476359737434336
pt.ine.add.PTCONT.465920,R S JOÃO DA ESTRADA,964,4820-065,ESTORÃOS FAF,-8.146729349624284,41.46012652626128
pt.ine.add.PTCONT.465922,AV CENTRAL,52,4820-001,ABOIM FAF,-8.08373301100608,41.54177264653767
pt.ine.add.PTCONT.465923,R CENTRO,109,4820-013,ARNOZELA,-8.1381058381997,41.386537763376936
pt.ine.add.PTCONT.465924,R REGEDOURA,80,4820-013,ARNOZELA,-8.137496064518972,41.38608758675148
pt.ine.add.PTCONT.465926,R CENTRO,1412,4820-013,ARNOZELA,-8.128146874369087,41.38418771276054
pt.ine.add.PTCONT.465928,AV SANTA MARINHA,474,4820-007,ARDEGÃO FAF,-8.133168119614284,41.39474053687491
pt.ine.add.PTCONT.465930,R BAIRRO,185,4820-652,SÃO GENS,-8.134676081820418,41.45080826349734
pt.ine.add.PTCONT.465931,R TRESMIL,65,4820-714,SÃO MARTINHO SILVARES,-8.164146930199527,41.4147432403538
pt.ine.add.PTCONT.465932,R TRESMIL,65,4820-714,SÃO MARTINHO SILVARES,-8.164146930199527,41.4147432403538
pt.ine.add.PTCONT.465933,LOTEAM SENRAS,,4820-740,ARÕES (SÃO ROMÃO),-8.20922761761496,41.45568122575483
pt.ine.add.PTCONT.465934,R NOVA,41,4820-730,ARÕES (SÃO ROMÃO),-8.23038377288362,41.452973109189216
pt.ine.add.PTCONT.465935,TV CARVALHO LOBO,101,4820-732,ARÕES (SÃO ROMÃO),-8.216152846594525,41.461537983738474
pt.ine.add.PTCONT.465936,R BOUCO,34,4820-735,ARÕES (SÃO ROMÃO),-8.210543406075523,41.45505907708797
pt.ine.add.PTCONT.465937,R BOUCO,34,4820-735,ARÕES (SÃO ROMÃO),-8.210543406075523,41.45505907708797
pt.ine.add.PTCONT.465938,AV 5 DE OUTUBRO,135,4820-770,SERAFÃO,-8.219120159182555,41.54214724683976
pt.ine.add.PTCONT.465939,R VÁRZEA,34,4820-810,TRAVASSÓS FAF,-8.199107059249753,41.495763785703446
pt.ine.add.PTCONT.465940,R BOUCO,,4820-735,ARÕES (SÃO ROMÃO),-8.213726532024703,41.454696733579794
pt.ine.add.PTCONT.465941,R VENDA,,4820-759,ARÕES (SÃO ROMÃO),-8.227523164158177,41.45278641009705
pt.ine.add.PTCONT.465946,R AREEIRO,185,4820-785,TRAVASSÓS FAF,-8.187895864122542,41.49359073844825
pt.ine.add.PTCONT.465947,R POMBAL,,4820-786,TRAVASSÓS FAF,-8.201845188359334,41.491665425491185
pt.ine.add.PTCONT.465951,R PICA D ALEM,995,4820-584,SÃO GENS,-8.131720372047527,41.43795064140452
pt.ine.add.PTCONT.465952,URB SANTO ANTÓNIO,55,4820-770,SERAFÃO,-8.214212054322912,41.53694662360682
pt.ine.add.PTCONT.465953,R ASSENTO,210,4820-830,VINHÓS FAF,-8.183709557988738,41.484741854202845
pt.ine.add.PTCONT.465956,R OUTEIRO ALTO,125,4820-820,VÁRZEA COVA,-8.075630651617223,41.5293346415299
pt.ine.add.PTCONT.465958,TV LAMEIRINHA,159,4820-664,SÃO GENS,-8.094218190903083,41.443472498357835
pt.ine.add.PTCONT.465959,R SANTO ANTONINO,477,4820-749,ARÕES (SÃO ROMÃO),-8.233205172121556,41.450998829300495
pt.ine.add.PTCONT.465960,R ALTO DA PORTELA,,4820-749,ARÕES (SÃO ROMÃO),-8.231579190227556,41.45206269581249
pt.ine.add.PTCONT.465961,R ESCOLAS,94,4820-770,SERAFÃO,-8.215225119964408,41.53257906383634
pt.ine.add.PTCONT.465962,R OUTEIRO,88,4820-830,VINHÓS FAF,-8.167401025949589,41.484297678688336
pt.ine.add.PTCONT.465963,R OUTEIRO,86,4820-830,VINHÓS FAF,-8.167401025949589,41.484297678688336
pt.ine.add.PTCONT.465968,R GRELHEIRA,,4820-712,SÃO MARTINHO SILVARES,-8.169470715308435,41.416848613122575
pt.ine.add.PTCONT.465974,LOTEAM TELHADO,45,4820-758,ARÕES (SÃO ROMÃO),-8.208384185443732,41.450801654069345
pt.ine.add.PTCONT.465975,LG ESCOLA,1,4820-820,VÁRZEA COVA,-8.073725052585523,41.52983788637587
pt.ine.add.PTCONT.465984,TV DAS NOGUEIRAS,106,4820-706,SÃO MARTINHO SILVARES,-8.169149999938266,41.41447862696357
pt.ine.add.PTCONT.465989,R CACHADA,40,4820-830,VINHÓS FAF,-8.183312921982235,41.48279719071192
pt.ine.add.PTCONT.465990,R BAIRRO SOL,198,4820-749,ARÕES (SÃO ROMÃO),-8.233638617668664,41.45269118927978
pt.ine.add.PTCONT.465991,R PATELOS,371,4820-770,SERAFÃO,-8.20840426771704,41.53020672851135
pt.ine.add.PTCONT.465992,R REQUEIXO,23,4820-802,TRAVASSÓS FAF,-8.197529294738967,41.498834994709796
pt.ine.add.PTCONT.465993,AV LIBERDADE,2843,4820-802,TRAVASSÓS FAF,-8.199986730276004,41.501048539313274
pt.ine.add.PTCONT.465994,R REQUEIXO DE CIMA,370,4820-802,TRAVASSÓS FAF,-8.200021159178348,41.49958989558348
pt.ine.add.PTCONT.465995,R COVAS,123,4820-705,SÃO MARTINHO SILVARES,-8.158465751188894,41.41541092752593
pt.ine.add.PTCONT.465996,R ALMINHAS,821,4820-765,SEIDÕES,-8.115446593772402,41.397962618471176
pt.ine.add.PTCONT.467015,AV 5 DE OUTUBRO,,4820-115,FAFE,-8.170843853339154,41.453998478882745
pt.ine.add.PTCONT.467034,R NOVA,267C,4820-580,QUINCHÃES,-8.13720031354503,41.43615879092412
pt.ine.add.PTCONT.467092,R RIBEIRA DE CIMA,253,4820-080,ESTORÃOS FAF,-8.149496102528406,41.46749136221254
pt.ine.add.PTCONT.467129,PCT 1 DE MAIO,,4820-150,FAFE,-8.172851795183389,41.44956787074437
pt.ine.add.PTCONT.467130,R AREAL,52,4820-371,PASSOS FAF,-8.196094068802145,41.47611002099022
pt.ine.add.PTCONT.467152,R BAIRRO SOL,200,4820-749,ARÕES (SÃO ROMÃO),-8.233638617668664,41.45269118927978
pt.ine.add.PTCONT.467177,R SANTA LUZIA,281,4820-573,QUINCHÃES,-8.136397739743034,41.417763714112816
pt.ine.add.PTCONT.467199,R 5 DE OUTUBRO,2011,4820-604,REGADAS,-8.14950148467035,41.39375793128293
pt.ine.add.PTCONT.467220,R SARGAÇA,470,4820-082,ESTORÃOS FAF,-8.15312550790714,41.47500003749881
pt.ine.add.PTCONT.467251,R PEREIRO,18,4820-528,MOREIRA DO REI,-8.100377391536352,41.47402470222744
pt.ine.add.PTCONT.467258,R SANTA RITA,87,4820-613,REGADAS,-8.148387558129134,41.38556442225329
pt.ine.add.PTCONT.467259,R S MIGUEL,49,4820-613,REGADAS,-8.149403471748036,41.38432172646934
pt.ine.add.PTCONT.467260,R S MIGUEL,49,4820-613,REGADAS,-8.149403471748036,41.38432172646934
pt.ine.add.PTCONT.467261,R JOÃO PAULO II,287,4820-601,REGADAS,-8.155804611062154,41.39878110056105
pt.ine.add.PTCONT.467264,AV SANTA COMBA,1343,4820-412,FORNELOS FAF,-8.176670256714957,41.468780843024
pt.ine.add.PTCONT.467335,R NOVA,287,4820-509,MEDELO,-8.156545039010409,41.46261902884414
pt.ine.add.PTCONT.467336,R NOVA,287,4820-509,MEDELO,-8.156545039010409,41.46261902884414
pt.ine.add.PTCONT.467361,R SARGAÇA,470,4820-082,ESTORÃOS FAF,-8.15312550790714,41.47500003749881
pt.ine.add.PTCONT.468723,R EIDO DE ALEM,26,4820-400,FAREJA,-8.222214129806542,41.41248893899226
pt.ine.add.PTCONT.468724,R MONSENHOR VIEIRA DE CASTRO,42,4820-279,FAFE,-8.170929584753003,41.45038872001518
pt.ine.add.PTCONT.468725,R FREIRAS,63,4820-207,FAFE,-8.181329820772026,41.440380613373186
pt.ine.add.PTCONT.468726,R FREIRAS,63,4820-207,FAFE,-8.181329820772026,41.440380613373186
pt.ine.add.PTCONT.468727,R FREIRAS,63,4820-207,FAFE,-8.181329820772026,41.440380613373186
pt.ine.add.PTCONT.468728,R FREIRAS,63,4820-207,FAFE,-8.181329820772026,41.440380613373186
pt.ine.add.PTCONT.468729,R FREIRAS,63,4820-207,FAFE,-8.181329820772026,41.440380613373186
pt.ine.add.PTCONT.468730,R FREIRAS,63,4820-207,FAFE,-8.181329820772026,41.440380613373186
pt.ine.add.PTCONT.468731,R FREIRAS,63,4820-207,FAFE,-8.181329820772026,41.440380613373186
pt.ine.add.PTCONT.468732,URB DR LEITE LAGE,75,4820-365,FAFE,-8.179648277269989,41.44823274018415
pt.ine.add.PTCONT.468733,R FREIRAS,63,4820-207,FAFE,-8.181329820772026,41.440380613373186
pt.ine.add.PTCONT.468734,R S SILVESTRE,305,4820-400,FAREJA,-8.232450103536802,41.411030914536
pt.ine.add.PTCONT.468735,AV S JORGE,9,4820-120,FAFE,-8.171580690678764,41.445219402889144
pt.ine.add.PTCONT.468736,R NOVA,N 25,4820-281,FAFE,-8.157810405411208,41.45359683925979
pt.ine.add.PTCONT.468737,R ANTÓNIO SÉRGIO,286,4820-168,FAFE,-8.166941864049234,41.45327037480907
pt.ine.add.PTCONT.468738,R LUIS DE CAMÕES,,4820-275,FAFE,-8.17578464874151,41.4508813938041
pt.ine.add.PTCONT.468739,R LUIS DE CAMOES,,4820-275,FAFE,-8.175844504247888,41.4509083833685
pt.ine.add.PTCONT.468740,R LUIS CAMOES,34,4820-275,FAFE,-8.175844504247888,41.4509083833685
pt.ine.add.PTCONT.468741,R LUIS CAMOES,32,4820-275,FAFE,-8.175844504247888,41.4509083833685
pt.ine.add.PTCONT.468742,AV S JORGE,401,4820-120,FAFE,-8.174247335617007,41.442229172338536
pt.ine.add.PTCONT.468743,AV S JORGE,401,4820-120,FAFE,-8.174247335617007,41.442229172338536
pt.ine.add.PTCONT.468744,AV S JORGE,401,4820-120,FAFE,-8.174247335617007,41.442229172338536
pt.ine.add.PTCONT.468745,AV S JORGE,401,4820-120,FAFE,-8.174247335617007,41.442229172338536
pt.ine.add.PTCONT.468746,AV S JORGE,401,4820-120,FAFE,-8.174247335617007,41.442229172338536
pt.ine.add.PTCONT.468747,URB MONTE ALEM,13,4820-419,FORNELOS FAF,-8.179773676014634,41.472921418404475
pt.ine.add.PTCONT.468748,R S PEDRO,122,4820-224,FAFE,-8.152700489218223,41.45507446637064
pt.ine.add.PTCONT.468749,URB DR LEITE LAGE,76,4820-365,FAFE,-8.179863561681623,41.44806157817528
pt.ine.add.PTCONT.468750,URB DR LEITE LAGE,76,4820-365,FAFE,-8.179863561681623,41.44806157817528
pt.ine.add.PTCONT.468751,BR COVAS,S,4820-125,FAFE,-8.182057180132292,41.436994822061386
pt.ine.add.PTCONT.468752,R NOVA,27,4820-281,FAFE,-8.157594878801323,41.45332676760845
pt.ine.add.PTCONT.468753,R SOARES VELOSO,53,4820-286,FAFE,-8.17023347360045,41.453989673558276
pt.ine.add.PTCONT.468754,R SOARES VELOSO,53,4820-286,FAFE,-8.17023347360045,41.453989673558276
pt.ine.add.PTCONT.468755,R SOARES VELOSO,53,4820-286,FAFE,-8.17023347360045,41.453989673558276
pt.ine.add.PTCONT.468756,R SOARES VELOSO,53,4820-286,FAFE,-8.17023347360045,41.453989673558276
pt.ine.add.PTCONT.468757,R FIEIS DE DEUS,342,4820-251,FAFE,-8.18128933106747,41.450347988275276
pt.ine.add.PTCONT.468758,R S JORGE,34,4820-222,FAFE,-8.172308951998405,41.44240092404596
pt.ine.add.PTCONT.468759,R RIBEIRA,226,4820-400,FAREJA,-8.236528247044077,41.4183835756785
pt.ine.add.PTCONT.468760,R CORREDOURA,290,4820-427,FORNELOS FAF,-8.17646062884859,41.45958793293573
pt.ine.add.PTCONT.468761,R MONSENHOR VIEIRA DE CASTRO,268,4820-279,FAFE,-8.170768914794634,41.44858714297893
pt.ine.add.PTCONT.468762,AV GRANJA,514,4820-117,FAFE,-8.180568599814464,41.44666567976983
pt.ine.add.PTCONT.468763,AV GRANJA,530,4820-117,FAFE,-8.180568599814464,41.44666567976983
pt.ine.add.PTCONT.468764,R OLIVEIRINHA,91,4820-400,FAREJA,-8.230747840320936,41.416407750788245
pt.ine.add.PTCONT.468765,PC MONTELONGO,3,4820-145,FAFE,-8.178968684311656,41.45182558094304
pt.ine.add.PTCONT.468766,R FIEIS DE DEUS,,4820-251,FAFE,-8.185500760112493,41.448959542175146
pt.ine.add.PTCONT.468767,R S SILVESTRES,222,4820-400,FAREJA,-8.230870800371163,41.41066310367276
pt.ine.add.PTCONT.468768,R MONTE,382,4820-418,FORNELOS FAF,-8.172302432156547,41.471330517316794
pt.ine.add.PTCONT.468769,R MONTE,382,4820-418,FORNELOS FAF,-8.172302432156547,41.471330517316794
pt.ine.add.PTCONT.468770,BR CUMIEIRA,,4820-361,FAFE,-8.16420261614135,41.4562514460603
pt.ine.add.PTCONT.468771,BR CUMIEIRA,,4820-361,FAFE,-8.16420261614135,41.4562514460603
pt.ine.add.PTCONT.468772,R FAFOA,223,4820-401,FAFE,-8.187558787380993,41.448562413523796
pt.ine.add.PTCONT.468773,R PAREDES,304,4820-662,SÃO GENS,-8.111183735805213,41.450968255688565
pt.ine.add.PTCONT.468774,R MO,256,4820-504,MEDELO,-8.153471455858286,41.471038263590955
pt.ine.add.PTCONT.468775,R CAPELA,,4820-545,MOREIRA DO REI,-8.097244325061752,41.48930335222155
pt.ine.add.PTCONT.468776,R BOAVISTA,26,4820-114,PASSOS FAF,-8.194578117855153,41.4808919037094
pt.ine.add.PTCONT.468777,AV GAIA,589B,4820-640,ARÕES (SANTA CRISTINA),-8.205826997025609,41.44354612863272
pt.ine.add.PTCONT.468778,TV SOUTELO,48,4820-541,MOREIRA DO REI,-8.103210395628272,41.48341652505728
pt.ine.add.PTCONT.468779,R 5 DE OUTUBRO,1332,4820-617,REGADAS,-8.146021090074655,41.38928337572682
pt.ine.add.PTCONT.468780,R SEARA,,4820-635,RIBEIROS,-8.133096359654955,41.48414972468453
pt.ine.add.PTCONT.468781,R CORETO,15,4820-520,MONTE FAF,-8.168805867054921,41.5350428703474
pt.ine.add.PTCONT.468782,R VÁRZEADURA,181,4820-371,PASSOS FAF,-8.18614262238427,41.472981685595656
pt.ine.add.PTCONT.468783,R MIGUEL,,4820-630,REVELHE,-8.161206116642967,41.50158677428814
pt.ine.add.PTCONT.468784,R MIRA FAFE,297,4820-550,PASSOS FAF,-8.19966398307824,41.47825993967764
pt.ine.add.PTCONT.468785,BR NOVO,465,4820-572,QUINCHÃES,-8.140443636609598,41.44368592841269
pt.ine.add.PTCONT.468786,R ITEIRO,,4820-537,MOREIRA DO REI,-8.124585440700047,41.466087604853456
pt.ine.add.PTCONT.468787,R JOSE CARDOSO VIEIRA DE CASTRO,959,4820-371,PASSOS FAF,-8.199830805118914,41.47748550889749
pt.ine.add.PTCONT.468788,R COVELAS,141,4820-560,QUEIMADELA FAF,-8.160265186854978,41.514138351616545
pt.ine.add.PTCONT.468789,R ESCOLA,135,4820-572,QUINCHÃES,-8.140240008487956,41.44184013327252
pt.ine.add.PTCONT.468790,R ESCOLA,135,4820-572,QUINCHÃES,-8.140240008487956,41.44184013327252
pt.ine.add.PTCONT.468791,R DO CAMINHO NOVO,119,4820-573,QUINCHÃES,-8.134699259546714,41.41979864935625
pt.ine.add.PTCONT.468792,R PELAME,12,4820-485,GONTIM,-8.10496350580602,41.52724767404938
pt.ine.add.PTCONT.468793,R RIBEIRA,1021,4820-491,MEDELO,-8.148921368736149,41.4668971850706
pt.ine.add.PTCONT.468794,R CALINHA,75,4820-520,MONTE FAF,-8.168985214885138,41.534322510808344
pt.ine.add.PTCONT.468795,R VALONGOS,,4820-520,MONTE FAF,-8.136979136167453,41.539649283699354
pt.ine.add.PTCONT.468796,R CASARES,690,4820-630,REVELHE,-8.14358618375438,41.489623601561725
pt.ine.add.PTCONT.468797,R BOUCINHA,281,4820-640,ARÕES (SANTA CRISTINA),-8.214409468692176,41.43612113319629
pt.ine.add.PTCONT.468798,R EIRAS,117,4820-486,GOLÃES,-8.18747037368595,41.47166649721563
pt.ine.add.PTCONT.468799,R PAREDE,64,4820-520,MONTE FAF,-8.137278707879796,41.53924410270618
pt.ine.add.PTCONT.468800,R RILHADAS,82,4820-640,ARÕES (SANTA CRISTINA),-8.21715568952693,41.43170722235001
pt.ine.add.PTCONT.468801,R CASAL DE GRILO,255,4820-450,GOLÃES,-8.196688128916126,41.4592003673252
pt.ine.add.PTCONT.468802,R BICO DO RIBEIRO,,4820-506,MEDELO,-8.157196539040795,41.47649390264939
pt.ine.add.PTCONT.468803,R CALCADA,5,4820-635,RIBEIROS,-8.131085059507532,41.475217854748564
pt.ine.add.PTCONT.468804,R ASSENTO,415,4820-635,RIBEIROS,-8.13170760995209,41.475001770644674
pt.ine.add.PTCONT.468805,AV LIBERDADE,1163,4820-506,MEDELO,-8.160666963606877,41.472873559399424
pt.ine.add.PTCONT.468806,AV LIBERDADE,1163,4820-506,MEDELO,-8.160666963606877,41.472873559399424
pt.ine.add.PTCONT.468807,AV LIBERDADE,1163,4820-506,MEDELO,-8.160666963606877,41.472873559399424
pt.ine.add.PTCONT.468808,TV CARVALHAS,73,4820-630,REVELHE,-8.15661333658619,41.48601112514656
pt.ine.add.PTCONT.468809,R VILAR,178,4820-479,GOLÃES,-8.196123716993913,41.45727383981653
pt.ine.add.PTCONT.468810,R CAPELA,306,4820-537,MOREIRA DO REI,-8.124920711441472,41.46528628164409
pt.ine.add.PTCONT.468811,R PRINCIPAL,,4820-537,MOREIRA DO REI,-8.132282403983371,41.46410705827469
pt.ine.add.PTCONT.468812,R NSA SRA SOCORRO,228,4820-574,QUINCHÃES,-8.15749639316717,41.44600659323489
pt.ine.add.PTCONT.468813,R OUTEIRINHO COSTA,524,4820-615,REGADAS,-8.137927691536117,41.402645957094784
pt.ine.add.PTCONT.468814,R SUCHIA,351,4820-635,RIBEIROS,-8.132833022445539,41.464368174226884
pt.ine.add.PTCONT.468815,R PORIL,40,4820-645,SÃO CLEMENTE SILVARES,-8.167262095229896,41.424907847876085
pt.ine.add.PTCONT.468816,TV PONTE SOEIRO,55,4820-507,MEDELO,-8.151936732132796,41.46273692624076
pt.ine.add.PTCONT.468817,TV PONTE SOEIRO,55,4820-507,MEDELO,-8.151936732132796,41.46273692624076
pt.ine.add.PTCONT.468818,R FONTELAS,136,4820-454,GOLÃES,-8.195054276863132,41.45283548749607
pt.ine.add.PTCONT.468819,R PORTELO ALTO,33,4820-520,MONTE FAF,-8.170873568221511,41.52581331158395
pt.ine.add.PTCONT.468820,R SUPICO,135,4820-630,REVELHE,-8.162614015670856,41.489746348519766
pt.ine.add.PTCONT.468821,R IGREJA VELHA,,4820-520,MONTE FAF,-8.16738707497141,41.525967468404644
pt.ine.add.PTCONT.468822,URB ASSENTO,3,4820-526,MOREIRA DO REI,-8.113676291217455,41.48000629876643
pt.ine.add.PTCONT.468823,TV FERREIROS,64,4820-370,PASSOS FAF,-8.20479029332756,41.480111659259414
pt.ine.add.PTCONT.468824,TV FERREIROS,24,4820-370,PASSOS FAF,-8.205125365789693,41.47995838397216
pt.ine.add.PTCONT.468825,AV CAMPO DIANTEIRO,18,4820-555,PEDRAÍDO,-8.111056758899558,41.50783676002271
pt.ine.add.PTCONT.468826,R FUNDO DO LUGAR,4,4820-573,QUINCHÃES,-8.139890456602101,41.41743041395921
pt.ine.add.PTCONT.468827,R S JOSE,16,4820-617,REGADAS,-8.147540139904423,41.39202041822862
pt.ine.add.PTCONT.468828,R AZENHA,192,4820-018,CEPÃES,-8.204413112451066,41.44183626496699
pt.ine.add.PTCONT.468829,R TAPADOS,59,4820-040,CEPÃES,-8.19595798447603,41.43436791803144
pt.ine.add.PTCONT.468830,R TAPADOS,59,4820-040,CEPÃES,-8.19595798447603,41.43436791803144
pt.ine.add.PTCONT.468831,R NOVA,160,4820-003,AGRELA FAF,-8.205328755176966,41.54448871472747
pt.ine.add.PTCONT.468832,R NOVA,65,4820-003,AGRELA FAF,-8.20728134013696,41.54366812779538
pt.ine.add.PTCONT.468833,R SEBASTIAO GRACA ALMEIDA,288,4820-093,CEPÃES,-8.206577841321598,41.440862477120234
pt.ine.add.PTCONT.468835,R MANUEL RIBEIRO,76,4820-044,CEPÃES,-8.207245311068704,41.43889258637643
pt.ine.add.PTCONT.468836,R ALMEIDA GARRETT,26,4820-164,FAFE,-8.164682410278864,41.45842125964489
pt.ine.add.PTCONT.468837,R ALMEIDA GARRETT,26,4820-164,FAFE,-8.164682410278864,41.45842125964489
pt.ine.add.PTCONT.468840,R FOJO,99,4820-003,AGRELA FAF,-8.19752616206678,41.543998142285915
pt.ine.add.PTCONT.468841,R CUMIEIRA,126,4820-179,FAFE,-8.162995086874023,41.459069992334435
pt.ine.add.PTCONT.468843,R DEVEZINHA,98,4820-023,CEPÃES,-8.207440499710003,41.43136275501117
pt.ine.add.PTCONT.468844,R CABECEIROS,276,4820-056,ESTORÃOS FAF,-8.128378053239251,41.49345962784112
pt.ine.add.PTCONT.468845,R S PAIO DE CIMA,124,4820-074,ESTORÃOS FAF,-8.129803129080258,41.493378642865295
pt.ine.add.PTCONT.468848,R GRUPO CULTURAL DESPORTIVO ARMIL,237,4820-010,ARMIL,-8.192532505048776,41.417271204632904
pt.ine.add.PTCONT.468852,R S BENTO,184,4820-220,FAFE,-8.182728780978866,41.45475029592886
pt.ine.add.PTCONT.468854,R ESTRADA NACIONAL 207,173 171,4820-005,ANTIME,-8.167222511359679,41.44070079955575
pt.ine.add.PTCONT.468855,R ESTRADA NACIONAL 207,173 171,4820-005,ANTIME,-8.167222511359679,41.44070079955575
pt.ine.add.PTCONT.468856,R ESTRADA NACIONAL 207,173 171,4820-005,ANTIME,-8.167222511359679,41.44070079955575
pt.ine.add.PTCONT.468857,R CASARES,1699,4820-059,ESTORÃOS FAF,-8.149415812513391,41.48147441686119
pt.ine.add.PTCONT.468858,R CASARES,1699,4820-059,ESTORÃOS FAF,-8.149415812513391,41.48147441686119
pt.ine.add.PTCONT.468859,R S JOÃO DA ESTRADA,115,4820-065,ESTORÃOS FAF,-8.137225880792037,41.462063100142196
pt.ine.add.PTCONT.468864,TV REGEDOURAS,221,4820-037,CEPÃES,-8.208675198778588,41.42312332307822
pt.ine.add.PTCONT.468865,URB DEVESA,113,4820-004,FAFE,-8.186342195920187,41.45352414707877
pt.ine.add.PTCONT.468871,R RETIRO,798,4820-239,FAFE,-8.173455265658852,41.457806250920484
pt.ine.add.PTCONT.468872,R RETIRO,798,4820-239,FAFE,-8.173455265658852,41.457806250920484
pt.ine.add.PTCONT.468873,R RETIRO,798,4820-239,FAFE,-8.173455265658852,41.457806250920484
pt.ine.add.PTCONT.468874,R RETIRO,798,4820-239,FAFE,-8.173455265658852,41.457806250920484
pt.ine.add.PTCONT.468876,AV SEIDOES,556,4820-765,SEIDÕES,-8.130142335326648,41.40790435583166
pt.ine.add.PTCONT.468878,R ADONELA,214,4820-005,ANTIME,-8.163965886938124,41.43656890722928
pt.ine.add.PTCONT.468879,R AZENHA,44,4820-018,CEPÃES,-8.205825629971448,41.44232159365486
pt.ine.add.PTCONT.468880,R CIDADE GUIMARAES,867,4820-178,FAFE,-8.194071525637783,41.451359368636425
pt.ine.add.PTCONT.468881,R CIDADE GUIMARAES,863,4820-178,FAFE,-8.194071525637783,41.451359368636425
pt.ine.add.PTCONT.468883,R FERREIROS,5,4820-738,ARÕES (SÃO ROMÃO),-8.220177599062692,41.46377698111028
pt.ine.add.PTCONT.468885,R COTELHE,383,4820-825,VILA COVA FAF,-8.204890523744895,41.50583562893189
pt.ine.add.PTCONT.468887,R ALMINHAS,75,4820-651,SÃO GENS,-8.139115449082178,41.444388312688424
pt.ine.add.PTCONT.468888,LOTEAM TELHADO,24,4820-758,ARÕES (SÃO ROMÃO),-8.209869072419766,41.451575010584044
pt.ine.add.PTCONT.468890,LOTEAM 25 DE ABRIL,5,4820-749,ARÕES (SÃO ROMÃO),-8.233936183267906,41.45163746967314
pt.ine.add.PTCONT.468891,R TANQUE,33,4820-664,SÃO GENS,-8.085188287312336,41.45351747936232
pt.ine.add.PTCONT.468892,TV PICADOURO,6,4820-747,ARÕES (SÃO ROMÃO),-8.215414692409826,41.45519975771815
pt.ine.add.PTCONT.468895,TV SOBRADELO,74,4820-712,SÃO MARTINHO SILVARES,-8.16838266501083,41.41764130217381
pt.ine.add.PTCONT.468896,R BARRO,43,4820-830,VINHÓS FAF,-8.175387304206739,41.4840159003163
pt.ine.add.PTCONT.468897,R CARVALHOS,18,4820-653,SÃO GENS,-8.102589597546329,41.42845643223012
pt.ine.add.PTCONT.468898,R ALENTEJANA,21,4820-820,VÁRZEA COVA,-8.074395593885194,41.53034244365648
pt.ine.add.PTCONT.468899,AV BOUCO,206,4820-735,ARÕES (SÃO ROMÃO),-8.215209924939987,41.454164453088644
pt.ine.add.PTCONT.468900,BR ENG GERVASIO FERREIRA LEITE,34,4820-710,SÃO MARTINHO SILVARES,-8.153068814282307,41.40722736299983
pt.ine.add.PTCONT.468901,URB CMDT GERVASIO LEITE,59,4820-710,SÃO MARTINHO SILVARES,-8.154527908274318,41.407317140600334
pt.ine.add.PTCONT.468902,R SURRIBAS,272,4820-765,SEIDÕES,-8.125286699868818,41.40798516417466
pt.ine.add.PTCONT.468903,AV SEIDOES,1423,4820-765,SEIDÕES,-8.121291969646904,41.40906530267069
pt.ine.add.PTCONT.468907,R MONTE COUTO,42,4820-765,SEIDÕES,-8.135285014498137,41.40854365714666
pt.ine.add.PTCONT.468908,R ESPADANAL,8,4820-741,ARÕES (SÃO ROMÃO),-8.221015189592183,41.445822525693956
pt.ine.add.PTCONT.468909,R ESPADANAL,8,4820-741,ARÕES (SÃO ROMÃO),-8.221015189592183,41.445822525693956
pt.ine.add.PTCONT.468910,LOTEAM 25 DE ABRIL,,4820-749,ARÕES (SÃO ROMÃO),-8.23523024591317,41.45262675992277
pt.ine.add.PTCONT.468911,R PATELOS,489,4820-770,SERAFÃO,-8.20718120445897,41.52943319568224
pt.ine.add.PTCONT.468912,R JOSE DIAS DE CASTRO,8 28,4820-749,ARÕES (SÃO ROMÃO),-8.231248408474315,41.4549262258887
pt.ine.add.PTCONT.468913,R JOSE DIAS DE CASTRO,8 28,4820-749,ARÕES (SÃO ROMÃO),-8.231248408474315,41.4549262258887
pt.ine.add.PTCONT.468916,AV LIBERDADE,1906,4820-808,TRAVASSÓS FAF,-8.19310783482428,41.49647837632271
pt.ine.add.PTCONT.470020,R VALONGOS,,4820-520,MONTE FAF,-8.137638192768193,41.5388119071887
pt.ine.add.PTCONT.470045,R S JOÃO DA ESTRADA,442,4820-065,ESTORÃOS FAF,-8.141068106166047,41.46189182413988
pt.ine.add.PTCONT.470049,AV S JORGE,401,4820-120,FAFE,-8.174247335617007,41.442229172338536
pt.ine.add.PTCONT.470050,BR COVAS,2,4820-125,FAFE,-8.181423328737546,41.437391263776846
pt.ine.add.PTCONT.470051,R BAIRRO,176,4820-652,SÃO GENS,-8.134436727232915,41.450628187936154
pt.ine.add.PTCONT.470056,BR COVAS,18,4820-125,FAFE,-8.182081468855092,41.43747202104647
pt.ine.add.PTCONT.470089,R GERVIDE,29,4820-652,SÃO GENS,-8.13329981525604,41.45121345079132
pt.ine.add.PTCONT.470090,R PONTE DE PACOS,98,4820-830,VINHÓS FAF,-8.184146003588372,41.476350043902016
pt.ine.add.PTCONT.470091,R AGRELINHOS,202,4820-076,ESTORÃOS FAF,-8.14585632906234,41.46388125718542
pt.ine.add.PTCONT.470100,BR NOVO,480,4820-572,QUINCHÃES,-8.140742770369744,41.44349682621328
pt.ine.add.PTCONT.470118,URB DR LEITE LAGE,75,4820-365,FAFE,-8.179648277269989,41.44823274018415
pt.ine.add.PTCONT.470149,BR CUMIEIRA,,4820-361,FAFE,-8.16420261614135,41.4562514460603
pt.ine.add.PTCONT.470196,BR CUMIEIRA,,4820-361,FAFE,-8.16420261614135,41.4562514460603
pt.ine.add.PTCONT.470197,URB DR LEITE LAGE,75,4820-365,FAFE,-8.179648277269989,41.44823274018415
pt.ine.add.PTCONT.470198,URB DR LEITE LAGE,75,4820-365,FAFE,-8.179648277269989,41.44823274018415
pt.ine.add.PTCONT.470199,URB DR LEITE LAGE,75,4820-365,FAFE,-8.179648277269989,41.44823274018415
pt.ine.add.PTCONT.470200,URB DR LEITE LAGE,76,4820-365,FAFE,-8.179863561681623,41.44806157817528
pt.ine.add.PTCONT.470201,URB DR LEITE LAGE,76,4820-365,FAFE,-8.179863561681623,41.44806157817528
pt.ine.add.PTCONT.470202,URB DR LEITE LAGE,76,4820-365,FAFE,-8.179863561681623,41.44806157817528
pt.ine.add.PTCONT.470203,URB DR LEITE LAGE,76,4820-365,FAFE,-8.179863561681623,41.44806157817528
pt.ine.add.PTCONT.470204,BR CUMIEIRA,,4820-361,FAFE,-8.16420261614135,41.4562514460603
pt.ine.add.PTCONT.470242,R RAMALHO ORTIGÃO,66,4820-611,REGADAS,-8.145924676159806,41.385393646323294
pt.ine.add.PTCONT.470243,R D MARIA,106,4820-608,REGADAS,-8.154520637759916,41.385167267099966
pt.ine.add.PTCONT.470244,R FRANCISCO MARTO,35,4820-610,REGADAS,-8.15494331592348,41.39782684206517
pt.ine.add.PTCONT.470245,R VITORINO NEMESIO,304,4820-610,REGADAS,-8.154871439844635,41.397439683166645
pt.ine.add.PTCONT.470246,R VITORINO NEMESIO,304,4820-610,REGADAS,-8.154871439844635,41.397439683166645
pt.ine.add.PTCONT.470266,R FONTAÍNHAS,34,4820-635,RIBEIROS,-8.119315522849723,41.48006113649167
pt.ine.add.PTCONT.470281,AV VISC MOREIRA DO REI,415,4820-529,MOREIRA DO REI,-8.109700256421823,41.48285978843455
pt.ine.add.PTCONT.470297,BR CUMIEIRA,,4820-361,FAFE,-8.16420261614135,41.4562514460603
pt.ine.add.PTCONT.470342,TV SOUTELO,7,4820-541,MOREIRA DO REI,-8.103785170285716,41.48331763036945
pt.ine.add.PTCONT.471714,R HORTO,105,4820-234,FAFE,-8.170406549026364,41.44273470237046
pt.ine.add.PTCONT.471715,R HORTO,105,4820-234,FAFE,-8.170406549026364,41.44273470237046
pt.ine.add.PTCONT.471716,R HORTO,105,4820-234,FAFE,-8.170406549026364,41.44273470237046
pt.ine.add.PTCONT.471717,R SENHOR DO BONFIM,87,4820-402,FAFE,-8.195181821169287,41.44853154111789
pt.ine.add.PTCONT.471725,R FAMILIA,453,4820-181,FAFE,-8.188872920157102,41.445932635411296
pt.ine.add.PTCONT.471726,R FAMILIA,453,4820-181,FAFE,-8.188872920157102,41.445932635411296
pt.ine.add.PTCONT.471727,R FAMILIA,453,4820-181,FAFE,-8.188872920157102,41.445932635411296
pt.ine.add.PTCONT.471728,R FAMILIA,433,4820-181,FAFE,-8.188872920157102,41.445932635411296
pt.ine.add.PTCONT.471729,R FAMILIA,103,4820-181,FAFE,-8.184864251605504,41.44613259526145
pt.ine.add.PTCONT.471730,R FAMILIA,99,4820-181,FAFE,-8.184864251605504,41.44613259526145
pt.ine.add.PTCONT.471731,R POUSA,211,4820-400,FAREJA,-8.240401202866448,41.41680433297436
pt.ine.add.PTCONT.471732,PCT SA,,4820-155,FAFE,-8.173716451418406,41.45439367335155
pt.ine.add.PTCONT.471733,R FONTE CANA,369,4820-390,FAFE,-8.18421688499088,41.44464723513639
pt.ine.add.PTCONT.471734,R FONTE CANA,400,4820-390,FAFE,-8.18421688499088,41.44464723513639
pt.ine.add.PTCONT.471735,URB CAP SALGUEIRO MAIA,9,4820-360,FAFE,-8.17135056735395,41.44051942253043
pt.ine.add.PTCONT.471736,TV PEGADINHA II,51,4820-200,FAFE,-8.176027903448714,41.438644951923294
pt.ine.add.PTCONT.471737,R S SILVESTRE,331,4820-400,FAREJA,-8.231995355567097,41.41086023046151
pt.ine.add.PTCONT.471738,TV PEDREIRA II,10B,4820-311,FAFE,-8.179199327798502,41.439517107896854
pt.ine.add.PTCONT.471739,URB MONTE ALÉM 2,14,4820-419,FORNELOS FAF,-8.178373574124034,41.47375033601531
pt.ine.add.PTCONT.471740,R ALEXANDRE HERCULANO,79,4820-163,FAFE,-8.180393968639583,41.45337367909365
pt.ine.add.PTCONT.471741,R 9 DE DEZEMBRO,124,4820-161,FAFE,-8.182563032107621,41.44137052367532
pt.ine.add.PTCONT.471742,R DAMÃO,52,4820-212,FAFE,-8.172250085091601,41.444003645452284
pt.ine.add.PTCONT.471743,R FOJO,301,4820-232,FAFE,-8.182810185436606,41.435959044895746
pt.ine.add.PTCONT.471744,R DR MANUEL DE ARRIAGA,39,4820-254,FAFE,-8.180907304328667,41.45161770147238
pt.ine.add.PTCONT.471745,R CÂNDIDO MOTA,76,4820-172,FAFE,-8.178620197960155,41.44979083156345
pt.ine.add.PTCONT.471746,TV GOA,41,4820-323,FAFE,-8.172584682893271,41.44324720020081
pt.ine.add.PTCONT.471747,TV S JORGE,174,4820-329,FAFE,-8.174366710129002,41.4417789324848
pt.ine.add.PTCONT.471748,AV S JORGE,174,4820-120,FAFE,-8.174366710129002,41.4417789324848
pt.ine.add.PTCONT.471749,TV S JORGE,174,4820-329,FAFE,-8.174366710129002,41.4417789324848
pt.ine.add.PTCONT.471750,TV S JORGE,174,4820-329,FAFE,-8.174366710129002,41.4417789324848
pt.ine.add.PTCONT.471751,TV S JORGE,174,4820-329,FAFE,-8.174366710129002,41.4417789324848
pt.ine.add.PTCONT.471752,TV S JORGE,174,4820-329,FAFE,-8.174366710129002,41.4417789324848
pt.ine.add.PTCONT.471753,AV S JORGE,174,4820-120,FAFE,-8.174366710129002,41.4417789324848
pt.ine.add.PTCONT.471754,TV S JORGE,174,4820-329,FAFE,-8.174366710129002,41.4417789324848
pt.ine.add.PTCONT.471755,TV SOARES VELOSO,9,4820-351,FAFE,-8.169646999960856,41.45392683386435
pt.ine.add.PTCONT.471756,TV SOARES VELOSO,9,4820-351,FAFE,-8.169646999960856,41.45392683386435
pt.ine.add.PTCONT.471757,R VATICANO,45,4820-244,FAFE,-8.177852697333044,41.44747712220709
pt.ine.add.PTCONT.471758,TV S JORGE,192,4820-329,FAFE,-8.174366710129002,41.4417789324848
pt.ine.add.PTCONT.471759,AV S JORGE,192,4820-120,FAFE,-8.174366710129002,41.4417789324848
pt.ine.add.PTCONT.471760,TV S JORGE,174,4820-329,FAFE,-8.174366710129002,41.4417789324848
pt.ine.add.PTCONT.471761,AV S JORGE,192,4820-120,FAFE,-8.174366710129002,41.4417789324848
pt.ine.add.PTCONT.471762,R TIMOR,14,4820-226,FAFE,-8.176436921739176,41.4419492463285
pt.ine.add.PTCONT.471763,URB DR LEITE LAGE,4,4820-365,FAFE,-8.180724398359972,41.44698075309566
pt.ine.add.PTCONT.471764,R S SILVESTRE,1018,4820-400,FAREJA,-8.235949603372521,41.41553883670259
pt.ine.add.PTCONT.471765,URB DR LEITE LAGE,19,4820-365,FAFE,-8.179002550496929,41.44893530627022
pt.ine.add.PTCONT.471766,R ANGOLA,209,4820-208,FAFE,-8.178363346366767,41.441822449475076
pt.ine.add.PTCONT.471767,R S APOLONIA,78,4820-440,FREITAS,-8.21671253418503,41.52449257498146
pt.ine.add.PTCONT.471768,TV MONTE,136,4820-418,FORNELOS FAF,-8.174780062152996,41.470654354198786
pt.ine.add.PTCONT.471769,R SANTA CLARA,56,4820-370,PASSOS FAF,-8.211418502787227,41.47612762074657
pt.ine.add.PTCONT.471770,R TOUTINHAL,78,4820-573,QUINCHÃES,-8.137928749653355,41.41696230584
pt.ine.add.PTCONT.471771,URB S BENTO,63,4820-496,MEDELO,-8.156138521040853,41.463897666013814
pt.ine.add.PTCONT.471772,LOTEAM BOUCA,183,4820-496,MEDELO,-8.159788953762627,41.462915451226294
pt.ine.add.PTCONT.471773,R SANTA RITA,,4820-560,QUEIMADELA FAF,-8.136115429789562,41.52097542070629
pt.ine.add.PTCONT.471774,AV LIBERDADE,215,4820-640,ARÕES (SANTA CRISTINA),-8.208986703441836,41.4440843243319
pt.ine.add.PTCONT.471775,R CAPAREIRA,172,4820-640,ARÕES (SANTA CRISTINA),-8.223982176770486,41.43671723482433
pt.ine.add.PTCONT.471776,R LOURIDO,61,4820-457,GOLÃES,-8.205263249369738,41.46394036930965
pt.ine.add.PTCONT.471777,R S GIDOS,15,4820-470,GOLÃES,-8.201355524273747,41.44725848984764
pt.ine.add.PTCONT.471778,R S GIDOS,15,4820-470,GOLÃES,-8.201355524273747,41.44725848984764
pt.ine.add.PTCONT.471779,R SAMOCA,417,4820-469,GOLÃES,-8.206042900349997,41.46537149867325
pt.ine.add.PTCONT.471780,R JOÃO CRISOSTOMO,,4820-540,MOREIRA DO REI,-8.119125080475044,41.474829855330896
pt.ine.add.PTCONT.471781,TV CALVÁRIO,68,4820-449,GOLÃES,-8.193953647576901,41.466089836786225
pt.ine.add.PTCONT.471782,R LEVANDEIRA DE CIMA,118,4820-578,QUINCHÃES,-8.143087798355271,41.44122765335986
pt.ine.add.PTCONT.471783,R COVELOS,129,4820-572,QUINCHÃES,-8.119708809407003,41.430746705954036
pt.ine.add.PTCONT.471784,AV S CLEMENTE,60,4820-645,SÃO CLEMENTE SILVARES,-8.16563838747515,41.43138216851077
pt.ine.add.PTCONT.471785,R BATOCA CASAL DA BATOCA,532,4820-494,MEDELO,-8.158630516395906,41.46962362267844
pt.ine.add.PTCONT.471786,R CENTRO,,4820-528,MOREIRA DO REI,-8.1012500685863,41.47660906363087
pt.ine.add.PTCONT.471787,R RESTELA,,4820-560,QUEIMADELA FAF,-8.138654979855604,41.51736479397432
pt.ine.add.PTCONT.471788,R FONTE,540,4820-560,QUEIMADELA FAF,-8.163129672184148,41.517288978829015
pt.ine.add.PTCONT.471789,R SUB-DEVESA,,4820-475,GOLÃES,-8.194623697738146,41.46578334768058
pt.ine.add.PTCONT.471790,R PRINCIPAL,344,4820-537,MOREIRA DO REI,-8.125734224423498,41.46935610065258
pt.ine.add.PTCONT.471791,R MIRA FAFE,62,4820-550,PASSOS FAF,-8.201854852103464,41.47815060454832
pt.ine.add.PTCONT.471792,R SANTO ANTÓNIO,551,4820-560,QUEIMADELA FAF,-8.163656045962993,41.51572217463623
pt.ine.add.PTCONT.471793,AV S PEDRO,24,4820-560,QUEIMADELA FAF,-8.15807222145363,41.51213099430899
pt.ine.add.PTCONT.471794,R LEVANDEIRA DE CIMA,100,4820-578,QUINCHÃES,-8.142800519034452,41.440552382111676
pt.ine.add.PTCONT.471795,TV SABUGAL,,4820-630,REVELHE,-8.155058370175741,41.4909185411779
pt.ine.add.PTCONT.471796,TV 2 OUTEIRO LONGO,2-54,4820-645,SÃO CLEMENTE SILVARES,-8.160266108276536,41.430294082935696
pt.ine.add.PTCONT.471797,R COSTA,,4820-485,GONTIM,-8.104615252716684,41.52903934587709
pt.ine.add.PTCONT.471798,R PRINCIPAL,754,4820-537,MOREIRA DO REI,-8.127242813200928,41.466600993582354
pt.ine.add.PTCONT.471799,R ABERGOA,180,4820-573,QUINCHÃES,-8.14225902434566,41.41890690265095
pt.ine.add.PTCONT.471800,R BOUCINHA,274,4820-640,ARÕES (SANTA CRISTINA),-8.214792399866278,41.43616588170504
pt.ine.add.PTCONT.471801,R PONTE,142,4820-463,GOLÃES,-8.186733219643868,41.463293214471236
pt.ine.add.PTCONT.471802,R CORTINHAL,12,4820-485,GONTIM,-8.10351331954567,41.52814769076782
pt.ine.add.PTCONT.471803,R SERRINHA DE BAIXO,166,4820-590,QUINCHÃES,-8.13774855288787,41.44069647898763
pt.ine.add.PTCONT.471804,R QUELHA DA RIBEIRA,,4820-560,QUEIMADELA FAF,-8.143972625003633,41.50908089051584
pt.ine.add.PTCONT.471805,R PROF JOSE MÁRIO DE OLIVEIRA,516,4820-590,QUINCHÃES,-8.139976447358366,41.43888685536314
pt.ine.add.PTCONT.471806,R PROF JOSE MÁRIO DE OLIVEIRA,516,4820-590,QUINCHÃES,-8.139976447358366,41.43888685536314
pt.ine.add.PTCONT.471807,R ASSENTO,163,4820-635,RIBEIROS,-8.130354785220312,41.47474963727486
pt.ine.add.PTCONT.471808,TV 2 POUSADA,41,4820-645,SÃO CLEMENTE SILVARES,-8.163255973439902,41.42796131205445
pt.ine.add.PTCONT.471809,R VALE,120,4820-635,RIBEIROS,-8.135311173653234,41.47480367248481
pt.ine.add.PTCONT.471810,R AGRO,214,4820-635,RIBEIROS,-8.136124923692767,41.46740245094824
pt.ine.add.PTCONT.471811,R ALMEIDA GARRETT,11,4820-623,REGADAS,-8.151929635893502,41.39675589698016
pt.ine.add.PTCONT.471812,R COSTA,75,4820-645,SÃO CLEMENTE SILVARES,-8.15625617715212,41.42447839804692
pt.ine.add.PTCONT.471813,R CRASTO,779,4820-377,PASSOS FAF,-8.196941831754373,41.486004818170485
pt.ine.add.PTCONT.471814,R MADEIROS,16,4820-555,PEDRAÍDO,-8.126124954943132,41.50951337579597
pt.ine.add.PTCONT.471815,R FERNANDO NAMORA,54,4820-611,REGADAS,-8.15232418712802,41.39658475551128
pt.ine.add.PTCONT.471816,R FERNANDO NAMORA,54,4820-611,REGADAS,-8.15232418712802,41.39658475551128
pt.ine.add.PTCONT.471817,R LATA,89,4820-377,PASSOS FAF,-8.198019205298676,41.48571609129844
pt.ine.add.PTCONT.471818,R OUTEIRO,235,4820-667,SÃO GENS,-8.122507124453369,41.457748952350904
pt.ine.add.PTCONT.471819,R CAPELA,210,4820-667,SÃO GENS,-8.121618323375381,41.457416580121766
pt.ine.add.PTCONT.471820,R PEQUITE,355,4820-461,GOLÃES,-8.192698114454297,41.45449345401421
pt.ine.add.PTCONT.471821,TV PEQUITE II,18,4820-461,GOLÃES,-8.192494465889306,41.4542864691094
pt.ine.add.PTCONT.471822,AV JOGO PAULO II,1336,4820-505,MEDELO,-8.154884926874807,41.47361311857043
pt.ine.add.PTCONT.471823,R PONTE VELHA,145,4820-574,QUINCHÃES,-8.15013766311104,41.448943200263585
pt.ine.add.PTCONT.471824,R L IBERDADE,,4820-630,REVELHE,-8.165954158512708,41.48816076235391
pt.ine.add.PTCONT.471825,AV 25 DE ABRIL,495,4820-640,ARÕES (SANTA CRISTINA),-8.20249157256526,41.446501479849104
pt.ine.add.PTCONT.471826,AV SOUTO NOVO,16,4820-640,ARÕES (SANTA CRISTINA),-8.221306039936628,41.43968161609097
pt.ine.add.PTCONT.471827,R RIBEIRO,16,4820-005,ANTIME,-8.16458793267735,41.436298620176956
pt.ine.add.PTCONT.471831,AV SANTA CRISTINA,149,4820-003,AGRELA FAF,-8.210335131071025,41.54173930793807
pt.ine.add.PTCONT.471832,R CRUZEIRO,145,4820-003,AGRELA FAF,-8.210240080625383,41.54243266311198
pt.ine.add.PTCONT.471833,TV II,30,4820-055,ESTORÃOS FAF,-8.149916127397171,41.47157006790396
pt.ine.add.PTCONT.471835,R NOVA,400,4820-003,AGRELA FAF,-8.20230868302599,41.544580609557
pt.ine.add.PTCONT.471836,R DEPOSITO,49,4820-230,FAFE,-8.16330642033502,41.459367040229836
pt.ine.add.PTCONT.471837,R DEPOSITO,35,4820-230,FAFE,-8.163019157382045,41.45935811136494
pt.ine.add.PTCONT.471841,R SOUTO,160,4820-010,ARMIL,-8.186291131606753,41.420299595583536
pt.ine.add.PTCONT.471843,TV MARTINS,157,4820-027,CEPÃES,-8.206207645802854,41.43085932325173
pt.ine.add.PTCONT.471845,R MARTINS,35,4820-027,CEPÃES,-8.207379366322234,41.43021028773399
pt.ine.add.PTCONT.471846,R BAIRRO,23,4820-054,ESTORÃOS FAF,-8.143369741529275,41.48393317394121
pt.ine.add.PTCONT.471847,R AGRELINHOS,954,4820-076,ESTORÃOS FAF,-8.1471369233963,41.46299872509224
pt.ine.add.PTCONT.471849,R PORINHAS,73,4820-005,ANTIME,-8.16279518669657,41.440657007464445
pt.ine.add.PTCONT.471850,R QUINTELA,21,4820-079,ESTORÃOS FAF,-8.142387790145145,41.4831409161615
pt.ine.add.PTCONT.471851,R ALIADOS,318,4820-248,FAFE,-8.179221294637216,41.45364427284793
pt.ine.add.PTCONT.471852,R ALIADOS,318,4820-248,FAFE,-8.179221294637216,41.45364427284793
pt.ine.add.PTCONT.471853,R ALIADOS,318,4820-248,FAFE,-8.179221294637216,41.45364427284793
pt.ine.add.PTCONT.471854,R ALIADOS,318,4820-248,FAFE,-8.179221294637216,41.45364427284793
pt.ine.add.PTCONT.471856,R COUTO,17,4820-007,ARDEGÃO FAF,-8.133658409097754,41.399719754597236
pt.ine.add.PTCONT.471857,TV TRANCADAS,37,4820-096,CEPÃES,-8.209253772203086,41.426868592347304
pt.ine.add.PTCONT.471859,BR ANTIME,22,4820-005,ANTIME,-8.168214183410853,41.437954297579296
pt.ine.add.PTCONT.471860,R DAS LAGINHAS,315,4820-087,CEPÃES,-8.207590319722913,41.426365459173454
pt.ine.add.PTCONT.471862,R COUTO,181,4820-007,ARDEGÃO FAF,-8.132916998380862,41.401169400984614
pt.ine.add.PTCONT.471863,R COUTO,117,4820-007,ARDEGÃO FAF,-8.133311624896438,41.40058414051097
pt.ine.add.PTCONT.471864,TV FOZ I,91,4820-300,FAFE,-8.184438702627869,41.45279569428214
pt.ine.add.PTCONT.471866,R POCINHO,293,4820-007,ARDEGÃO FAF,-8.128743589681733,41.39989975330214
pt.ine.add.PTCONT.471868,R RIBEIRA,293,4820-005,ANTIME,-8.175905287104374,41.43413401820622
pt.ine.add.PTCONT.471869,R CARVALHINHOS,24,4820-001,ABOIM FAF,-8.088052594007701,41.51695993398775
pt.ine.add.PTCONT.471870,R PROF CÂNDIDO MOTA,176,4820-022,CEPÃES,-8.204585566670374,41.43542534782812
pt.ine.add.PTCONT.471872,R BOAVISTA,75,4820-003,AGRELA FAF,-8.200812168872968,41.546103139066915
pt.ine.add.PTCONT.471873,R BOAVISTA,75,4820-003,AGRELA FAF,-8.200812168872968,41.546103139066915
pt.ine.add.PTCONT.471874,R AZENHA,148,4820-018,CEPÃES,-8.204496942740521,41.44189924057074
pt.ine.add.PTCONT.471875,R S PAIO,402,4820-081,ESTORÃOS FAF,-8.117491761991303,41.49620484206994
pt.ine.add.PTCONT.471876,R PEDREGAL,67,4820-654,SÃO GENS,-8.131061946681324,41.44878237169485
pt.ine.add.PTCONT.471877,R LOBO MANSO,42,4820-763,ARÕES (SÃO ROMÃO),-8.215187903543857,41.46517625499386
pt.ine.add.PTCONT.471878,AV LIBERDADE,2349,4820-802,TRAVASSÓS FAF,-8.19605523283509,41.49783638317033
pt.ine.add.PTCONT.471879,R CEMITÉRIO,85,4820-663,SÃO GENS,-8.1344127557756,41.44880939429555
pt.ine.add.PTCONT.471880,AV 5 DE OUTUBRO,351,4820-770,SERAFÃO,-8.220200974243667,41.543803129349236
pt.ine.add.PTCONT.471882,R CASALHOS,112,4820-655,SÃO GENS,-8.120040001259294,41.44967303681009
pt.ine.add.PTCONT.471883,R CRUZ,1,4820-661,SÃO GENS,-8.13503498725209,41.44672047302266
pt.ine.add.PTCONT.471884,TV ASSENTO I,137,4820-762,ARÕES (SÃO ROMÃO),-8.216053155421976,41.458449713520096
pt.ine.add.PTCONT.471885,R IGREJA,63,4820-825,VILA COVA FAF,-8.198846147473073,41.510134073223135
pt.ine.add.PTCONT.471886,R BOUCO,47,4820-735,ARÕES (SÃO ROMÃO),-8.211225427237927,41.45491455324859
pt.ine.add.PTCONT.471887,R SA,67,4820-804,TRAVASSÓS FAF,-8.194879196330895,41.495342952663115
pt.ine.add.PTCONT.471888,URB QUINTA DO PASSAL,190,4820-663,SÃO GENS,-8.132785226977516,41.44730574444588
pt.ine.add.PTCONT.471889,R BONS CAMINHOS,179,4820-754,ARÕES (SÃO ROMÃO),-8.22369945123521,41.457111366629796
pt.ine.add.PTCONT.471890,LOTEAM TELHADO,28,4820-758,ARÕES (SÃO ROMÃO),-8.209342452513049,41.45153934505975
pt.ine.add.PTCONT.471891,TV CARVALHO DE CIMA,47,4820-830,VINHÓS FAF,-8.180407288633901,41.48817373482534
pt.ine.add.PTCONT.471892,R LIBERDADE,80,4820-743,ARÕES (SÃO ROMÃO),-8.231645365010868,41.456249462708385
pt.ine.add.PTCONT.471894,R NOVA,285,4820-770,SERAFÃO,-8.218632848753336,41.536124075727216
pt.ine.add.PTCONT.471895,R LAMAS,101,4820-830,VINHÓS FAF,-8.175782830472336,41.48461901392175
pt.ine.add.PTCONT.471896,R BOAVISTA,605,4820-703,SÃO MARTINHO SILVARES,-8.165943548881582,41.419667919351184
pt.ine.add.PTCONT.471897,R NOVA,235,4820-820,VÁRZEA COVA,-8.072010029212962,41.531520699075834
pt.ine.add.PTCONT.471898,R RIO,129,4820-765,SEIDÕES,-8.118264848827888,41.41464742558708
pt.ine.add.PTCONT.471899,R VIRGILIO DE CASTRO,31,4820-770,SERAFÃO,-8.214863431571555,41.53082358045893
pt.ine.add.PTCONT.471901,R ARLINDO CASTRO DIAS,61,4820-712,SÃO MARTINHO SILVARES,-8.170139535940043,41.41506561116265
pt.ine.add.PTCONT.471902,R CASAIS,130,4820-706,SÃO MARTINHO SILVARES,-8.171813854019984,41.41469589673326
pt.ine.add.PTCONT.471903,AV BOUCO,172,4820-735,ARÕES (SÃO ROMÃO),-8.214898198827566,41.453723482938074
pt.ine.add.PTCONT.471904,R VIZELA DE BAIXO,207,4820-813,TRAVASSÓS FAF,-8.187318702291611,41.49078180664157
pt.ine.add.PTCONT.471906,R D MARIA AMADA,52,4820-770,SERAFÃO,-8.20589791648244,41.539041066071306
pt.ine.add.PTCONT.471907,R ENTRE CAMINHOS,4,4820-820,VÁRZEA COVA,-8.08873639735171,41.51555560307423
pt.ine.add.PTCONT.471910,R NOGUEIRAS,214,4820-706,SÃO MARTINHO SILVARES,-8.167926220830333,41.414066859858174
pt.ine.add.PTCONT.471911,R CARVALHO DA FONTE,570,4820-770,SERAFÃO,-8.189042454273938,41.53179344078166
pt.ine.add.PTCONT.471912,R CARVALHO FONTE,599,4820-770,SERAFÃO,-8.191007962054638,41.532224650433356
pt.ine.add.PTCONT.471913,AV LIBERDADE,172,4820-802,TRAVASSÓS FAF,-8.188187058641963,41.483920444669074
pt.ine.add.PTCONT.471915,R S ANTÃO,72,4820-749,ARÕES (SÃO ROMÃO),-8.229859699365505,41.45466628851868
pt.ine.add.PTCONT.471916,R PENEDO,150,4820-746,ARÕES (SÃO ROMÃO),-8.221410769271818,41.4551502918644
pt.ine.add.PTCONT.471917,R PENEDO,150,4820-746,ARÕES (SÃO ROMÃO),-8.221410769271818,41.4551502918644
pt.ine.add.PTCONT.471918,R PENEDO,150,4820-746,ARÕES (SÃO ROMÃO),-8.221410769271818,41.4551502918644
pt.ine.add.PTCONT.471919,R OUTEIRO DA VILA,213,4820-820,VÁRZEA COVA,-8.070728886498804,41.505552990036655
pt.ine.add.PTCONT.471921,R ESPADANAL,236,4820-741,ARÕES (SÃO ROMÃO),-8.221922344107984,41.44412908890774
pt.ine.add.PTCONT.471922,R LORDELO,6,4820-770,SERAFÃO,-8.211707430430764,41.52697215227201
pt.ine.add.PTCONT.471923,R VIOLANTE,17,4820-820,VÁRZEA COVA,-8.070256466603771,41.505810419192144
pt.ine.add.PTCONT.471925,TV OUTEIRINHO,2,4820-705,SÃO MARTINHO SILVARES,-8.1613354976099,41.41332133461066
pt.ine.add.PTCONT.471926,R PRELADA,139,4820-752,ARÕES (SÃO ROMÃO),-8.229080330566243,41.4536945178102
pt.ine.add.PTCONT.473138,R TEIXEIRAS,316,4820-757,ARÕES (SÃO ROMÃO),-8.205094248081549,41.45183020742487
pt.ine.add.PTCONT.473140,R BATOCA CASAL DA BATOCA,532,4820-494,MEDELO,-8.158630516395906,41.46962362267844
pt.ine.add.PTCONT.473165,R PENEDO,150,4820-746,ARÕES (SÃO ROMÃO),-8.221410769271818,41.4551502918644
pt.ine.add.PTCONT.473170,AV AGRAS,89,4820-640,ARÕES (SANTA CRISTINA),-8.207733986773675,41.44735357237054
pt.ine.add.PTCONT.473202,TV 2 POUSADA,41,4820-645,SÃO CLEMENTE SILVARES,-8.163255973439902,41.42796131205445
pt.ine.add.PTCONT.473212,R TAPAGEM,116,4820-472,GOLÃES,-8.197713221640768,41.46697917319111
pt.ine.add.PTCONT.473219,AV SANTA COMBA,141,4820-427,FORNELOS FAF,-8.174258742325563,41.4602820430299
pt.ine.add.PTCONT.473235,R RIO,129,4820-765,SEIDÕES,-8.118264848827888,41.41464742558708
pt.ine.add.PTCONT.473243,R PEREIRA,1086,4820-440,FREITAS,-8.20753455998488,41.513649277185436
pt.ine.add.PTCONT.473244,R MONTE COUTO,255,4820-765,SEIDÕES,-8.137497508966163,41.40756215848872
pt.ine.add.PTCONT.473250,R MARTINS,35,4820-027,CEPÃES,-8.207379366322234,41.43021028773399
pt.ine.add.PTCONT.473265,AV BOAVISTA,1041,4820-640,ARÕES (SANTA CRISTINA),-8.230651838698483,41.44017829260798
pt.ine.add.PTCONT.473271,R CIMO DE VILA,473,4820-451,GOLÃES,-8.198407675715185,41.45521066851989
pt.ine.add.PTCONT.473333,R DE FUNDEVILLA,307,4820-400,FAREJA,-8.227628451042484,41.4136334317934
pt.ine.add.PTCONT.473340,LOTEAM DA MOURISCA,27,4820-071,ESTORÃOS FAF,-8.146672490535558,41.474460745978995
pt.ine.add.PTCONT.473375,R FERNANDO NAMORA,259,4820-611,REGADAS,-8.151535410649661,41.398088554613004
pt.ine.add.PTCONT.473376,R FERNANDO NAMORA,295,4820-611,REGADAS,-8.151535410649661,41.398088554613004
pt.ine.add.PTCONT.473437,R SANTA MARIA,350,4820-608,REGADAS,-8.15832184367015,41.38350075093254
pt.ine.add.PTCONT.473455,R MONTENEGRO,141,4820-280,FAFE,-8.16862921394979,41.45301775628943
pt.ine.add.PTCONT.473456,R MONTENEGRO,141,4820-280,FAFE,-8.16862921394979,41.45301775628943
pt.ine.add.PTCONT.473457,R MONTENEGRO,141,4820-280,FAFE,-8.16862921394979,41.45301775628943
pt.ine.add.PTCONT.473458,R MONTENEGRO,141,4820-280,FAFE,-8.16862921394979,41.45301775628943
pt.ine.add.PTCONT.473459,R MONTENEGRO,141,4820-280,FAFE,-8.16862921394979,41.45301775628943
pt.ine.add.PTCONT.473460,R MONTENEGRO,141,4820-280,FAFE,-8.16862921394979,41.45301775628943
pt.ine.add.PTCONT.473461,R MONTENEGRO,141,4820-280,FAFE,-8.16862921394979,41.45301775628943
pt.ine.add.PTCONT.473462,R MONTENEGRO,141,4820-280,FAFE,-8.16862921394979,41.45301775628943
pt.ine.add.PTCONT.473557,R VALE,43,4820-543,MOREIRA DO REI,-8.106623537012307,41.48174264017052
pt.ine.add.PTCONT.473558,R VALE,207,4820-543,MOREIRA DO REI,-8.107593704482067,41.4808874908098
pt.ine.add.PTCONT.474981,R CUMIEIRA,,4820-361,FAFE,-8.165088102672232,41.45587303866436
pt.ine.add.PTCONT.474982,R CUMIEIRA,,4820-361,FAFE,-8.165088102672232,41.45587303866436
pt.ine.add.PTCONT.474983,R CUMIEIRA,,4820-361,FAFE,-8.165088102672232,41.45587303866436
pt.ine.add.PTCONT.474984,R CUMIEIRA,,4820-361,FAFE,-8.165088102672232,41.45587303866436
pt.ine.add.PTCONT.474985,R CUMIEIRA,,4820-361,FAFE,-8.165088102672232,41.45587303866436
pt.ine.add.PTCONT.474986,R CUMIEIRA,,4820-361,FAFE,-8.165088102672232,41.45587303866436
pt.ine.add.PTCONT.474987,R CUMIEIRA,,4820-361,FAFE,-8.165088102672232,41.45587303866436
pt.ine.add.PTCONT.474988,R DR JOSE SUMMAVIELLE SOARES,608,4820-253,FAFE,-8.168001173227148,41.4423662954664
