id,street,house,postcode,city,lon,lat
pt.ine.add.PTCONT.857883,,,5340-482,VALE DE PRADOS,-6.9415849206541855,41.551276174635795
pt.ine.add.PTCONT.859663,,,5340-470,VALE DA PORCA,-6.8986234064150995,41.542701749650874
pt.ine.add.PTCONT.871963,,,5340-470,VALE DA PORCA,-6.902285316385313,41.538554364962195
pt.ine.add.PTCONT.885524,,,5340-351,MORAIS,-6.817657106959843,41.50197233730871
pt.ine.add.PTCONT.849744,R CARDAL,,5340-520,VINHAS,-6.8160820689846995,41.56487981936973
pt.ine.add.PTCONT.849745,,,5340-520,VINHAS,-6.812541279686087,41.53741460529414
pt.ine.add.PTCONT.849453,R CANGALHAS,,5340-440,TALHAS,-6.696821466478501,41.49187421022281
pt.ine.add.PTCONT.849407,R TRAS DAS EIRAS,,5340-021,AMENDOEIRA,-6.985571302754388,41.56286998307362
pt.ine.add.PTCONT.849408,R SANTA RITA,,5340-031,ARCAS,-7.032083930610876,41.64474335668349
pt.ine.add.PTCONT.849409,R OUTEIRO,21,5340-102,CORTIÇOS,-7.023984607508524,41.51845415539276
pt.ine.add.PTCONT.849410,R EIRAS,,5340-102,CORTIÇOS,-7.0217752999370795,41.51594782740776
pt.ine.add.PTCONT.849411,R LOREIRO,1,5340-101,CORTIÇOS,-7.040234199693234,41.508894821169115
pt.ine.add.PTCONT.849412,R LADEIRA,,5340-101,CORTIÇOS,-7.042391099241587,41.508843269591424
pt.ine.add.PTCONT.849413,R PRADO,16,5340-110,CORUJAS,-6.971051109245381,41.60181732759372
pt.ine.add.PTCONT.849414,R PRADO,38,5340-110,CORUJAS,-6.973141427621784,41.60164036317191
pt.ine.add.PTCONT.849415,,,5340-120,EDROSO,-6.9387219703491345,41.62860431618944
pt.ine.add.PTCONT.849416,R CENTRAL,,5340-132,ESPADANEDO MCD,-6.942952049192802,41.663491317849356
pt.ine.add.PTCONT.849417,R VALE MIGUEL,,5340-132,ESPADANEDO MCD,-6.945830142541286,41.65845219025006
pt.ine.add.PTCONT.849418,R CIMO DO POVO,,5340-142,FERREIRA MCD,-6.98295670138183,41.638590089173604
pt.ine.add.PTCONT.849419,R ESCOLA,,5340-142,FERREIRA MCD,-6.98361908327319,41.635760638338496
pt.ine.add.PTCONT.849420,R S SEBASTIÃO,8,5340-180,LAMAS MCD,-6.950433002874143,41.590568797703355
pt.ine.add.PTCONT.849421,,,5340-290,MACEDO DE CAVALEIROS,-6.95774372027714,41.5564574652201
pt.ine.add.PTCONT.849422,R FRANCISCO MALTA,,5340-196,MACEDO DE CAVALEIROS,-6.956284899463325,41.543045273439674
pt.ine.add.PTCONT.849423,PC DQ DE LOULE,1C8,5340-251,MACEDO DE CAVALEIROS,-6.95736410466661,41.541687774014065
pt.ine.add.PTCONT.849424,R ENG CAMILO MENDONÇA,,5340-295,MACEDO DE CAVALEIROS,-6.9776007398078,41.536544805402116
pt.ine.add.PTCONT.849425,R FONTE,,5340-295,MACEDO DE CAVALEIROS,-6.977779171496602,41.53661862692749
pt.ine.add.PTCONT.849426,R BELA VISTA,19,5340-208,MACEDO DE CAVALEIROS,-6.9690283637470865,41.541473323867024
pt.ine.add.PTCONT.849427,URB BOMBEIROS VOLUNTARIOS,,5340-236,MACEDO DE CAVALEIROS,-6.9652141309727345,41.53966094407179
pt.ine.add.PTCONT.849428,URB BOMBEIROS VOLUNTARIOS,,5340-236,MACEDO DE CAVALEIROS,-6.9652141309727345,41.53966094407179
pt.ine.add.PTCONT.849429,URB BOMBEIROS VOLUNTARIOS,,5340-236,MACEDO DE CAVALEIROS,-6.9652141309727345,41.53966094407179
pt.ine.add.PTCONT.849430,URB BOMBEIROS VOLUNTARIOS,,5340-236,MACEDO DE CAVALEIROS,-6.9652141309727345,41.53966094407179
pt.ine.add.PTCONT.849431,URB BOMBEIROS VOLUNTARIOS,,5340-236,MACEDO DE CAVALEIROS,-6.9652141309727345,41.53966094407179
pt.ine.add.PTCONT.849432,URB BOMBEIROS VOLUNTARIOS,,5340-236,MACEDO DE CAVALEIROS,-6.9652141309727345,41.53966094407179
pt.ine.add.PTCONT.849433,URB BOMBEIROS VOLUNTARIOS,,5340-236,MACEDO DE CAVALEIROS,-6.9652141309727345,41.53966094407179
pt.ine.add.PTCONT.849434,R PADRAO SUL SN,SN,5340-308,MACEDO DE CAVALEIROS,-6.955546323273814,41.53619500912693
pt.ine.add.PTCONT.849435,R JOÃO LOPES,38,5340-319,MACEDO DE CAVALEIROS,-6.9653343015838765,41.531648990943715
pt.ine.add.PTCONT.849436,R DR JOÃO GONÇALVES,22A,5340-261,MACEDO DE CAVALEIROS,-6.964184214123533,41.53230356941268
pt.ine.add.PTCONT.849437,R DR DUARTE MORENO,21B,5340-264,MACEDO DE CAVALEIROS,-6.964524192547584,41.53205492508298
pt.ine.add.PTCONT.849438,R MEROUCOS,2B,5340-252,MACEDO DE CAVALEIROS,-6.965074605892394,41.534761588284674
pt.ine.add.PTCONT.849439,AV DR URZE PIRES,,5340-263,MACEDO DE CAVALEIROS,-6.962522333886781,41.533430116306675
pt.ine.add.PTCONT.849440,AV DR URZE PIRES,,5340-263,MACEDO DE CAVALEIROS,-6.962522333886781,41.533430116306675
pt.ine.add.PTCONT.849441,AV DR URZE PIRES,,5340-263,MACEDO DE CAVALEIROS,-6.962522333886781,41.533430116306675
pt.ine.add.PTCONT.849442,AV DR URZE PIRES,,5340-263,MACEDO DE CAVALEIROS,-6.962522333886781,41.533430116306675
pt.ine.add.PTCONT.849443,AV DR URZE PIRES,,5340-263,MACEDO DE CAVALEIROS,-6.962522333886781,41.533430116306675
pt.ine.add.PTCONT.849444,R DR RAUL REGO,3A,5340-351,MORAIS,-6.774992008676053,41.491302365869245
pt.ine.add.PTCONT.849445,R DR RAUL REGO,16A,5340-351,MORAIS,-6.773446087449616,41.49193235414773
pt.ine.add.PTCONT.849446,R DIREITA,,5340-360,MURÇÓS,-6.982595379826171,41.67912872371465
pt.ine.add.PTCONT.849447,R IGREJA,,5340-372,OLMOS,-6.8962089701648175,41.49203974972974
pt.ine.add.PTCONT.849448,R LAMADONA,,5340-392,PODENCE,-6.924956066110916,41.59077205036367
pt.ine.add.PTCONT.849449,R PORTO,,5340-392,PODENCE,-6.935650487456727,41.58381621769493
pt.ine.add.PTCONT.849450,R SANTINHO,,5340-400,SALSELAS,-6.859436712375222,41.574984010438136
pt.ine.add.PTCONT.849451,R FREIXO,,5340-400,SALSELAS,-6.874651075012641,41.55341714785049
pt.ine.add.PTCONT.849452,R ABSEDO,,5340-422,SESULFE,-7.004436764270119,41.5541162098696
pt.ine.add.PTCONT.849668,R IGREJA,,5340-014,ALA,-7.0578240035997934,41.61625702090888
pt.ine.add.PTCONT.849669,R FUNDO DO POVO,36,5340-051,BORNES,-7.0047576004604,41.46115694698714
pt.ine.add.PTCONT.849670,R FUNDO DO POVO,42,5340-051,BORNES,-7.005182176719405,41.46152125901442
pt.ine.add.PTCONT.849671,R EIRA,,5340-082,CASTELÃOS,-6.935549497870239,41.5172070378884
pt.ine.add.PTCONT.849672,R NOGUEIRA,29,5340-160,LAGOA MCD,-6.76897089057506,41.447239604593335
pt.ine.add.PTCONT.849673,R NOGUEIRA,,5340-160,LAGOA MCD,-6.767433473478644,41.4486529349454
pt.ine.add.PTCONT.849674,BR CARRASCAL,6,5340-160,LAGOA MCD,-6.769798088504081,41.44373800171951
pt.ine.add.PTCONT.849675,R S SEBASTIÃO,,5340-171,LAMALONGA,-7.080827794473964,41.69492576685229
pt.ine.add.PTCONT.849676,R SOUTO,8,5340-172,LAMALONGA,-7.104850205647,41.69282036110773
pt.ine.add.PTCONT.849677,ESTR FORNOS DE LEDRA,,5340-174,LAMALONGA,-7.101511751420325,41.68073490571887
pt.ine.add.PTCONT.849678,BR S FRANCISCO DE ASSIS,35,5340-214,MACEDO DE CAVALEIROS,-6.960717920584974,41.54310856695448
pt.ine.add.PTCONT.849679,R OLIVEIRAS,,5340-206,MACEDO DE CAVALEIROS,-6.953003728799429,41.53829378184762
pt.ine.add.PTCONT.849680,R COMBATENTES DA GRANDE GUERRA,48,5340-295,MACEDO DE CAVALEIROS,-6.98278983203791,41.539902285396785
pt.ine.add.PTCONT.849681,URB BOMBEIROS VOLUNTARIOS,,5340-236,MACEDO DE CAVALEIROS,-6.9652141309727345,41.53966094407179
pt.ine.add.PTCONT.849682,URB BOMBEIROS VOLUNTARIOS,,5340-236,MACEDO DE CAVALEIROS,-6.9652141309727345,41.53966094407179
pt.ine.add.PTCONT.849683,URB BOMBEIROS VOLUNTARIOS,,5340-236,MACEDO DE CAVALEIROS,-6.9652141309727345,41.53966094407179
pt.ine.add.PTCONT.849684,URB BOMBEIROS VOLUNTARIOS,,5340-236,MACEDO DE CAVALEIROS,-6.9652141309727345,41.53966094407179
pt.ine.add.PTCONT.849685,R D ABILIO VAZ DAS NEVES,33,5340-248,MACEDO DE CAVALEIROS,-6.94814476592453,41.533354877565074
pt.ine.add.PTCONT.849686,R PADRAO,11,5340-247,MACEDO DE CAVALEIROS,-6.956736566824055,41.53663936333395
pt.ine.add.PTCONT.849706,R EIRINHA,31,5340-440,TALHAS,-6.697744507494829,41.490202077871025
pt.ine.add.PTCONT.849707,R DIRECTOR JOÃO DE DEUS CANEDO,37,5340-440,TALHAS,-6.697776398168078,41.48984233527136
pt.ine.add.PTCONT.849708,R SANTIAGO,8,5340-451,TALHINHAS,-6.73636166131694,41.53477674660403
pt.ine.add.PTCONT.849709,R PRINCIPAL,,5340-460,VALE BENFEITO,-6.980854428995687,41.48823709054315
pt.ine.add.PTCONT.849710,R PRINCIPAL,31,5340-460,VALE BENFEITO,-6.980245772114643,41.48812294710459
pt.ine.add.PTCONT.849729,,,5340-470,VALE DA PORCA,-6.8988210976073745,41.54427948929384
pt.ine.add.PTCONT.849730,,,5340-470,VALE DA PORCA,-6.896456704057098,41.54446116438973
pt.ine.add.PTCONT.849731,,,5340-470,VALE DA PORCA,-6.897674810696798,41.54216935638815
pt.ine.add.PTCONT.849732,EN 102,,5340-482,VALE DE PRADOS,-6.945151047545054,41.55812874750036
pt.ine.add.PTCONT.849733,R CANELHA,,5340-482,VALE DE PRADOS,-6.937378935128312,41.55187176084621
pt.ine.add.PTCONT.849743,R CABO,,5340-520,VINHAS,-6.817436944551155,41.56664200365392
pt.ine.add.PTCONT.850045,R EIRAS,3,5340-102,CORTIÇOS,-7.021923613264531,41.516381434256225
pt.ine.add.PTCONT.850048,,,5340-091,CHACIM,-6.856602839631187,41.47402291893869
pt.ine.add.PTCONT.850053,R IGREJA SN,SN,5340-520,VINHAS,-6.818127673401149,41.567460217526055
pt.ine.add.PTCONT.850054,URB BOMBEIROS VOLUNTARIOS,,5340-236,MACEDO DE CAVALEIROS,-6.9652141309727345,41.53966094407179
pt.ine.add.PTCONT.850057,AV DR URZE PIRES,,5340-263,MACEDO DE CAVALEIROS,-6.962522333886781,41.533430116306675
pt.ine.add.PTCONT.850058,BR ROUPETA,25,5340-380,PEREDO,-6.86902515600795,41.42491913283465
pt.ine.add.PTCONT.850072,R PORFRANCAL,SU,5340-295,MACEDO DE CAVALEIROS,-6.9728692920883235,41.54113399592784
pt.ine.add.PTCONT.850073,URB BOMBEIROS VOLUNTARIOS,,5340-236,MACEDO DE CAVALEIROS,-6.9652141309727345,41.53966094407179
pt.ine.add.PTCONT.850077,QTA DO SEIXINHO,,5340-293,MACEDO DE CAVALEIROS,-6.953013971112117,41.53641214324261
pt.ine.add.PTCONT.850086,R FONTE,,5340-031,ARCAS,-7.0335693507574435,41.64703544323808
pt.ine.add.PTCONT.850088,R PRADO,,5340-102,CORTIÇOS,-7.0212112195610645,41.52230792855862
pt.ine.add.PTCONT.850089,R POULO,,5340-132,ESPADANEDO MCD,-6.9449143599642795,41.66190002016218
pt.ine.add.PTCONT.850093,R MOUREL RUA DO MEIO,6,5340-051,BORNES,-7.005673575627646,41.45664607292558
pt.ine.add.PTCONT.850094,R PESSARNA,,5340-351,MORAIS,-6.777021034765733,41.49104720009643
pt.ine.add.PTCONT.850095,R IGREJA,,5340-400,SALSELAS,-6.842396123215464,41.52692238515496
pt.ine.add.PTCONT.850096,R SANTOS,5,5340-460,VALE BENFEITO,-6.982627107974691,41.484824447882936
pt.ine.add.PTCONT.850099,,,5340-470,VALE DA PORCA,-6.897999361671094,41.540858327806376
pt.ine.add.PTCONT.873870,,,5340-031,ARCAS,-7.072429247340884,41.646032110514625
pt.ine.add.PTCONT.850123,R SANTO ANTÓNIO,7,5340-160,LAGOA MCD,-6.772299003635768,41.444307833890434
pt.ine.add.PTCONT.850391,R AMOREIRAS,,5340-040,BAGUEIXE,-6.780508842331378,41.56451181236136
pt.ine.add.PTCONT.850342,AV D NUNO ÁLVARES PEREIRA,78,5340-202,MACEDO DE CAVALEIROS,-6.956340858124469,41.53334901361668
pt.ine.add.PTCONT.850343,R TRAS DAS EIRAS,,5340-021,AMENDOEIRA,-6.986000243631903,41.563018320063485
pt.ine.add.PTCONT.850344,R NOGUEIRA,,5340-141,FERREIRA MCD,-6.961550126801876,41.62175356588623
pt.ine.add.PTCONT.850345,R FREIXO,20,5340-082,CASTELÃOS,-6.937678780549685,41.51737325039228
pt.ine.add.PTCONT.850346,R CEMITÉRIO,4,5340-110,CORUJAS,-6.9672890608311215,41.60223841248127
pt.ine.add.PTCONT.850348,R CIMO DE VILA,23,5340-239,MACEDO DE CAVALEIROS,-6.958765044710022,41.539766326368344
pt.ine.add.PTCONT.850349,R GIL VICENTE,9,5340-271,MACEDO DE CAVALEIROS,-6.96567152955004,41.53754975205733
pt.ine.add.PTCONT.850352,R ALMINHAS,1,5340-051,BORNES,-7.009071234640678,41.455337774134634
pt.ine.add.PTCONT.850353,BR BOAVIDA,,5340-092,CHACIM,-6.892118576465555,41.47546504799602
pt.ine.add.PTCONT.850354,R NORTE,21,5340-110,CORUJAS,-6.969227860833434,41.60181688894866
pt.ine.add.PTCONT.850355,R ESTRADA,,5340-024,AMENDOEIRA,-6.992863249193422,41.54154109076561
pt.ine.add.PTCONT.850356,R JOAQUIM SALSELAS,13,5340-152,GRIJÓ MCD,-6.976472058418347,41.501689544036736
pt.ine.add.PTCONT.850357,TV RIBEIRINHA,4,5340-152,GRIJÓ MCD,-6.978851268558368,41.503271075119514
pt.ine.add.PTCONT.850358,BC CANTO,1,5340-172,LAMALONGA,-7.106577993595964,41.69218756501499
pt.ine.add.PTCONT.850359,R URZEDO,12,5340-190,LOMBO,-6.845420991639252,41.458322004774935
pt.ine.add.PTCONT.850360,CARVALHEIRA,5,5340-288,MACEDO DE CAVALEIROS,-6.9752410037995825,41.549927365966035
pt.ine.add.PTCONT.850361,R COELHO,,5340-253,MACEDO DE CAVALEIROS,-6.973614264511352,41.533129911820744
pt.ine.add.PTCONT.850362,R CAPELA,,5340-031,ARCAS,-7.0377142743935215,41.64752519288725
pt.ine.add.PTCONT.850363,R CAPELA,,5340-031,ARCAS,-7.037720679309431,41.647147110107746
pt.ine.add.PTCONT.850364,R RIBEIRA,1,5340-092,CHACIM,-6.9017577807221215,41.47030152667867
pt.ine.add.PTCONT.850365,R PRADO,13,5340-110,CORUJAS,-6.971390625240584,41.60161367945998
pt.ine.add.PTCONT.850366,R CACADOR,52,5340-253,MACEDO DE CAVALEIROS,-6.974581483775001,41.53248982806893
pt.ine.add.PTCONT.850367,R BELA VISTA,51,5340-208,MACEDO DE CAVALEIROS,-6.969005435902627,41.54275159692394
pt.ine.add.PTCONT.850368,R BELA VISTA,35,5340-208,MACEDO DE CAVALEIROS,-6.968965904517626,41.54228301172566
pt.ine.add.PTCONT.850372,R IRMA MARTA,,5340-092,CHACIM,-6.902689388308941,41.46978028210002
pt.ine.add.PTCONT.850373,R RIBEIRO,,5340-173,LAMALONGA,-7.079511544933008,41.677681237324144
pt.ine.add.PTCONT.850374,,,5340-290,MACEDO DE CAVALEIROS,-6.957358005964682,41.557236828658134
pt.ine.add.PTCONT.850375,R CASTANHEIRA,,5340-295,MACEDO DE CAVALEIROS,-6.977945074350229,41.53806986824768
pt.ine.add.PTCONT.850377,R CIMO DO POVO,,5340-131,ESPADANEDO MCD,-6.9185150496756185,41.65282776109295
pt.ine.add.PTCONT.850378,R NOGUEIRA,31,5340-160,LAGOA MCD,-6.768973153489928,41.44713158806947
pt.ine.add.PTCONT.850379,R DAMIÃO DE GOIS,13A,5340-244,MACEDO DE CAVALEIROS,-6.970894620442279,41.539646472859665
pt.ine.add.PTCONT.850380,R DAMIÃO DE GOIS,13A,5340-244,MACEDO DE CAVALEIROS,-6.970894620442279,41.539646472859665
pt.ine.add.PTCONT.850382,R EIRAS,7,5340-070,CARRAPATAS,-6.998100557029306,41.51410494689933
pt.ine.add.PTCONT.850383,R CENTRAL,,5340-133,ESPADANEDO MCD,-6.951144526156234,41.64817108500909
pt.ine.add.PTCONT.850385,R MADALENA,,5340-040,BAGUEIXE,-6.7812220846001185,41.565951749262375
pt.ine.add.PTCONT.850386,R VIA CENTRAL,12,5340-070,CARRAPATAS,-6.991933247963932,41.51195507236629
pt.ine.add.PTCONT.850387,R VIA CENTRAL,79,5340-070,CARRAPATAS,-7.001089380985706,41.5137562560952
pt.ine.add.PTCONT.850388,R CENTRAL,,5340-102,CORTIÇOS,-7.02235307593501,41.51718690515729
pt.ine.add.PTCONT.850389,R OUTEIRO,,5340-102,CORTIÇOS,-7.023768085568561,41.51850608850827
pt.ine.add.PTCONT.850390,R SANTA CATARINA,,5340-174,LAMALONGA,-7.104730274862418,41.679233174447965
pt.ine.add.PTCONT.850392,TV CALÇADA,8,5340-070,CARRAPATAS,-6.999000829822231,41.513312507617464
pt.ine.add.PTCONT.850393,R VIA CENTRAL,13,5340-070,CARRAPATAS,-6.993414376733483,41.51219485123893
pt.ine.add.PTCONT.850394,R SANTA BARBARA,52,5340-234,MACEDO DE CAVALEIROS,-6.975780334474234,41.53783201455238
pt.ine.add.PTCONT.850395,R LAGAR,,5340-082,CASTELÃOS,-6.934233261906758,41.521019843551045
pt.ine.add.PTCONT.850396,R ESCOLA,,5340-142,FERREIRA MCD,-6.984187845830461,41.6354962224234
pt.ine.add.PTCONT.850401,R FLORES,17,5340-180,LAMAS MCD,-6.948791915116193,41.5852128385441
pt.ine.add.PTCONT.850500,R ANTERO DE QUENTAL,13,5340-232,MACEDO DE CAVALEIROS,-6.959018039568121,41.53571730786846
pt.ine.add.PTCONT.850501,R IGREJA,5,5340-351,MORAIS,-6.776916715690935,41.49030767858936
pt.ine.add.PTCONT.850502,R S SEBASTIÃO,,5340-400,SALSELAS,-6.841414422493308,41.52688435072909
pt.ine.add.PTCONT.850503,,,5340-470,VALE DA PORCA,-6.897965795062312,41.5419924120178
pt.ine.add.PTCONT.850505,R CARRASQUEIRAS,,5340-400,SALSELAS,-6.8435934338244255,41.525153119869465
pt.ine.add.PTCONT.850508,R JOÃO PINELA,,5340-400,SALSELAS,-6.84326108272161,41.525599568758174
pt.ine.add.PTCONT.850509,R NSA SRA DE FÁTIMA,36,5340-336,MACEDO DE CAVALEIROS,-6.948663864287986,41.53248688024923
pt.ine.add.PTCONT.850510,TV FLORES,,5340-282,MACEDO DE CAVALEIROS,-6.963206059838707,41.536714372822
pt.ine.add.PTCONT.850511,EN 102,,5340-296,MACEDO DE CAVALEIROS,-6.967318374469175,41.523917042512984
pt.ine.add.PTCONT.850512,R QUEIROGAL,,5340-360,MURÇÓS,-6.9798250970947215,41.682945386844075
pt.ine.add.PTCONT.850513,R CABO,,5340-520,VINHAS,-6.8174900012277835,41.56639051399438
pt.ine.add.PTCONT.850514,R CABEÇO DA ADREIRA,,5340-422,SESULFE,-7.008399627452165,41.561294857621995
pt.ine.add.PTCONT.850516,R SENHORA DA ASSUNÇAO,63,5340-452,TALHINHAS,-6.7031121918955305,41.528695845630175
pt.ine.add.PTCONT.850517,R ESTADIO,,5340-520,VINHAS,-6.820985813538297,41.56366640266788
pt.ine.add.PTCONT.850518,R BAIRRO,,5340-422,SESULFE,-7.0016458981342975,41.55675383018801
pt.ine.add.PTCONT.850521,R CAMILO PESSANHA,19A,5340-254,MACEDO DE CAVALEIROS,-6.968293657843842,41.53470378403104
pt.ine.add.PTCONT.850522,R MEROUCOS,14A,5340-252,MACEDO DE CAVALEIROS,-6.967223143523802,41.53389204011692
pt.ine.add.PTCONT.850523,R MALHADA,,5340-520,VINHAS,-6.818350837764934,41.56414049325034
pt.ine.add.PTCONT.850527,R V FREIXO,,5340-520,VINHAS,-6.812646355668584,41.53755086456468
pt.ine.add.PTCONT.850528,R MEROUCOS,35,5340-252,MACEDO DE CAVALEIROS,-6.9653584160515845,41.534305288977606
pt.ine.add.PTCONT.850532,,,5340-351,MORAIS,-6.775476888678521,41.49101997750485
pt.ine.add.PTCONT.850535,R SOL NASCENTE,,5340-400,SALSELAS,-6.839458012408588,41.52946437528182
pt.ine.add.PTCONT.850536,R IGREJA,,5340-400,SALSELAS,-6.842862569887821,41.52696363421428
pt.ine.add.PTCONT.850783,R NSA SRA DE FÁTIMA,,5340-142,FERREIRA MCD,-6.983165520725982,41.632920022823306
pt.ine.add.PTCONT.850797,R VALE COLMEIAS,1,5340-190,LOMBO,-6.850329162301241,41.4570533152986
pt.ine.add.PTCONT.850814,,,5340-520,VINHAS,-6.817914848805227,41.567313727705525
pt.ine.add.PTCONT.850822,R 13 DE MAIO,3,5340-500,VILARINHO DE AGROCHÃO,-7.059059653550936,41.67407963021034
pt.ine.add.PTCONT.850847,R ESTAÇÃO,18,5340-152,GRIJÓ MCD,-6.9777819941343,41.503458417456095
pt.ine.add.PTCONT.873871,,,5340-031,ARCAS,-7.020726809912323,41.62951723434193
pt.ine.add.PTCONT.850848,R ESTAÇÃO,,5340-102,CORTIÇOS,-7.0246216056551685,41.51412055369337
pt.ine.add.PTCONT.850874,R PROF DR CORREIA DE ARAÚJO,40,5340-253,MACEDO DE CAVALEIROS,-6.972862684018505,41.534129154997174
pt.ine.add.PTCONT.851148,R IGREJA,,5340-014,ALA,-7.058278056543276,41.61636930917194
pt.ine.add.PTCONT.851134,R MINA,15,5340-153,GRIJÓ MCD,-6.98059432549327,41.51168892915103
pt.ine.add.PTCONT.851135,TV FONTOZE,2,5340-160,LAGOA MCD,-6.77055947721398,41.44452133479799
pt.ine.add.PTCONT.851138,R FUNDO DO POVO,25,5340-051,BORNES,-7.004735588840362,41.46035540226686
pt.ine.add.PTCONT.851139,BC CANTO,1,5340-051,BORNES,-7.004514303900306,41.46000208712011
pt.ine.add.PTCONT.851140,R CASTELO,15,5340-190,LOMBO,-6.8452195957402315,41.45942719646132
pt.ine.add.PTCONT.851141,R MANUEL SA,18,5340-276,MACEDO DE CAVALEIROS,-6.966120016171109,41.53859871796609
pt.ine.add.PTCONT.851142,R ROSEIRA,,5340-082,CASTELÃOS,-6.94022909647119,41.51744475245414
pt.ine.add.PTCONT.851143,R CAPELA,10,5340-190,LOMBO,-6.846393076745043,41.458188825562615
pt.ine.add.PTCONT.851144,R COOPERATIVA,,5340-315,MACEDO DE CAVALEIROS,-6.967658220018598,41.54102727349103
pt.ine.add.PTCONT.851145,R BELA VISTA,40,5340-208,MACEDO DE CAVALEIROS,-6.968835848044363,41.54151639245911
pt.ine.add.PTCONT.851149,LG DR BENTO RACHADO,2,5340-172,LAMALONGA,-7.105758288663067,41.69236931070099
pt.ine.add.PTCONT.851150,R ADRO,1,5340-172,LAMALONGA,-7.1051444745424135,41.692444851937054
pt.ine.add.PTCONT.851151,R PERDIZ,,5340-253,MACEDO DE CAVALEIROS,-6.97272514475044,41.533226322280456
pt.ine.add.PTCONT.851152,R PERDIZ,,5340-253,MACEDO DE CAVALEIROS,-6.97272514475044,41.533226322280456
pt.ine.add.PTCONT.851153,R PERDIZ,,5340-253,MACEDO DE CAVALEIROS,-6.97272514475044,41.533226322280456
pt.ine.add.PTCONT.851154,R PERDIZ,,5340-253,MACEDO DE CAVALEIROS,-6.97272514475044,41.533226322280456
pt.ine.add.PTCONT.851155,R PERDIZ,,5340-253,MACEDO DE CAVALEIROS,-6.97272514475044,41.533226322280456
pt.ine.add.PTCONT.851156,R PERDIZ,,5340-253,MACEDO DE CAVALEIROS,-6.97272514475044,41.533226322280456
pt.ine.add.PTCONT.851157,R RIBEIRA,,5340-092,CHACIM,-6.901506656145649,41.47092008883378
pt.ine.add.PTCONT.851158,EN 206,,5340-173,LAMALONGA,-7.078707947099078,41.67982567758493
pt.ine.add.PTCONT.851159,R CRUZ,1,5340-190,LOMBO,-6.850061736627269,41.457869663241745
pt.ine.add.PTCONT.851160,R EIRAS,9,5340-190,LOMBO,-6.845865293296045,41.45764270204262
pt.ine.add.PTCONT.851162,ESTR VALE DE SAIAS,,5340-290,MACEDO DE CAVALEIROS,-6.959817526566763,41.56307823232852
pt.ine.add.PTCONT.851163,ESTR VALE DE SAIAS,,5340-290,MACEDO DE CAVALEIROS,-6.959758900912969,41.563005605853775
pt.ine.add.PTCONT.851164,R CASTELO,,5340-011,ALA,-7.019774886543638,41.59765374477862
pt.ine.add.PTCONT.851165,R BERTA BELMAR COSTA,,5340-092,CHACIM,-6.900155671612891,41.468933817372026
pt.ine.add.PTCONT.851167,R EIRAS,18,5340-070,CARRAPATAS,-6.997928004957892,41.514382355612625
pt.ine.add.PTCONT.851168,R PRINCIPAL,20,5340-152,GRIJÓ MCD,-6.976674844137515,41.49567716119681
pt.ine.add.PTCONT.851169,,,5340-290,MACEDO DE CAVALEIROS,-6.9567987687154496,41.55502524312867
pt.ine.add.PTCONT.851173,R AMOREIRA,11,5340-070,CARRAPATAS,-6.99929289978712,41.51442283195591
pt.ine.add.PTCONT.851174,R VIA CENTRAL,100,5340-070,CARRAPATAS,-7.001289065618365,41.51398331193759
pt.ine.add.PTCONT.851175,AV ANTÓNIO MARIA DA COSTA,,5340-092,CHACIM,-6.8992614589015755,41.468113900364294
pt.ine.add.PTCONT.851176,R PADRAO SUL,22,5340-203,MACEDO DE CAVALEIROS,-6.957239435326949,41.536662514094175
pt.ine.add.PTCONT.851178,R PRINCIPAL,,5340-013,ALA,-7.031667727729972,41.58669399756128
pt.ine.add.PTCONT.851179,R PRINCIPAL,,5340-013,ALA,-7.029308873206656,41.587184573613385
pt.ine.add.PTCONT.851180,R CENTRAL,,5340-133,ESPADANEDO MCD,-6.949670465511156,41.64869611960052
pt.ine.add.PTCONT.851182,R VALE,,5340-142,FERREIRA MCD,-6.983231423919132,41.63663909600342
pt.ine.add.PTCONT.851183,R FRANCISCO MALTA,30,5340-196,MACEDO DE CAVALEIROS,-6.956168834194289,41.542837003774686
pt.ine.add.PTCONT.851184,TV CHOUPADA,5,5340-082,CASTELÃOS,-6.941211229144032,41.533121151624364
pt.ine.add.PTCONT.851185,R CRUZEIRO,15,5340-160,LAGOA MCD,-6.77281282255101,41.44606061357802
pt.ine.add.PTCONT.851190,R LADEIRA,,5340-101,CORTIÇOS,-7.041787609673709,41.50911665686227
pt.ine.add.PTCONT.851314,R SOL,17,5340-200,MACEDO DE CAVALEIROS,-6.966202217521458,41.53335947694527
pt.ine.add.PTCONT.851297,PC PADRE CALADO,8,5340-351,MORAIS,-6.776191290000879,41.49064125640446
pt.ine.add.PTCONT.851298,,,5340-470,VALE DA PORCA,-6.899465037271218,41.54318796983468
pt.ine.add.PTCONT.851302,R ÁLVARO BARROSO,1,5340-295,MACEDO DE CAVALEIROS,-6.9803332107211995,41.534501410731124
pt.ine.add.PTCONT.851303,AV IGREJA,10,5340-380,PEREDO,-6.868182763791582,41.42825924533943
pt.ine.add.PTCONT.851304,R S SEBASTIÃO,8,5340-351,MORAIS,-6.773016475238192,41.49014457097621
pt.ine.add.PTCONT.851305,R ESCOLA,,5340-400,SALSELAS,-6.844058439202238,41.52526637613798
pt.ine.add.PTCONT.851309,R CASTELO,,5340-392,PODENCE,-6.9294739671006385,41.59418673917933
pt.ine.add.PTCONT.851312,R D ABILIO VAZ DAS NEVES,6,5340-248,MACEDO DE CAVALEIROS,-6.94962439955406,41.53237972421
pt.ine.add.PTCONT.851313,R SOL,17,5340-200,MACEDO DE CAVALEIROS,-6.966202217521458,41.53335947694527
pt.ine.add.PTCONT.851315,R SOL,15,5340-200,MACEDO DE CAVALEIROS,-6.966081605835512,41.53340327072662
pt.ine.add.PTCONT.851316,R SOL,15,5340-200,MACEDO DE CAVALEIROS,-6.966081605835512,41.53340327072662
pt.ine.add.PTCONT.851317,R SOL,15,5340-200,MACEDO DE CAVALEIROS,-6.966081605835512,41.53340327072662
pt.ine.add.PTCONT.851318,R CASTELO,72,5340-451,TALHINHAS,-6.7334216749551885,41.53275122755893
pt.ine.add.PTCONT.851319,BR FLORESTA,15,5340-324,MACEDO DE CAVALEIROS,-6.950324643876632,41.53143255136733
pt.ine.add.PTCONT.851322,R CAMILO CASTELO BRANCO,14,5340-237,MACEDO DE CAVALEIROS,-6.955045740510399,41.53208425626448
pt.ine.add.PTCONT.851323,R CAMILO CASTELO BRANCO,14,5340-237,MACEDO DE CAVALEIROS,-6.955045740510399,41.53208425626448
pt.ine.add.PTCONT.851324,R CAMILO CASTELO BRANCO,14,5340-237,MACEDO DE CAVALEIROS,-6.955045740510399,41.53208425626448
pt.ine.add.PTCONT.851325,R CAMILO CASTELO BRANCO,14,5340-237,MACEDO DE CAVALEIROS,-6.955045740510399,41.53208425626448
pt.ine.add.PTCONT.851348,R DR DUARTE MORENO,331,5340-264,MACEDO DE CAVALEIROS,-6.964558207669196,41.53083078498357
pt.ine.add.PTCONT.851326,R CAMILO CASTELO BRANCO,14,5340-237,MACEDO DE CAVALEIROS,-6.955045740510399,41.53208425626448
pt.ine.add.PTCONT.851327,R CAMILO CASTELO BRANCO,14,5340-237,MACEDO DE CAVALEIROS,-6.955045740510399,41.53208425626448
pt.ine.add.PTCONT.851328,R CAMILO CASTELO BRANCO,14,5340-237,MACEDO DE CAVALEIROS,-6.955045740510399,41.53208425626448
pt.ine.add.PTCONT.851329,R CAMILO CASTELO BRANCO,14,5340-237,MACEDO DE CAVALEIROS,-6.955045740510399,41.53208425626448
pt.ine.add.PTCONT.851330,R BRAGA,,5340-392,PODENCE,-6.924957839877467,41.59003378466394
pt.ine.add.PTCONT.851331,R VINHAIS,,5340-482,VALE DE PRADOS,-6.947071959553374,41.54944216437256
pt.ine.add.PTCONT.851335,R DIREITA,,5340-360,MURÇÓS,-6.982927256718271,41.679375136465175
pt.ine.add.PTCONT.851336,R BAIRRO,,5340-422,SESULFE,-7.0022047859827055,41.557011428146104
pt.ine.add.PTCONT.851337,R CANELHA,,5340-482,VALE DE PRADOS,-6.938253568778464,41.55188985709355
pt.ine.add.PTCONT.851341,R FONTE PACO,,5340-268,MACEDO DE CAVALEIROS,-6.961112752088397,41.53982629438818
pt.ine.add.PTCONT.851342,AV COMEND ANTÓNIO JOAQUIM FERREIRA,30 A,5340-241,MACEDO DE CAVALEIROS,-6.9633942011492636,41.531593257059306
pt.ine.add.PTCONT.851343,AV COMEND ANTÓNIO JOAQUIM FERREIRA,30 A,5340-241,MACEDO DE CAVALEIROS,-6.9633942011492636,41.531593257059306
pt.ine.add.PTCONT.851345,R PRINCIPAL,,5340-433,SOUTELO MOURISCO,-6.899633442572033,41.681680449454944
pt.ine.add.PTCONT.851347,R DR DUARTE MORENO,331,5340-264,MACEDO DE CAVALEIROS,-6.964558207669196,41.53083078498357
pt.ine.add.PTCONT.851349,R VINHAIS,,5340-482,VALE DE PRADOS,-6.947002152733495,41.546704368112295
pt.ine.add.PTCONT.851350,R MEROUCOS,29,5340-252,MACEDO DE CAVALEIROS,-6.965179519377031,41.534258454181575
pt.ine.add.PTCONT.851351,R VINHAIS,,5340-482,VALE DE PRADOS,-6.947002152733495,41.546704368112295
pt.ine.add.PTCONT.851353,R CORREIAS,9,5340-460,VALE BENFEITO,-6.9852119711924745,41.48286947285809
pt.ine.add.PTCONT.851354,R ALEXANDRE HERCULANO,,5340-228,MACEDO DE CAVALEIROS,-6.962474642538582,41.5387327300637
pt.ine.add.PTCONT.851355,R ALEXANDRE HERCULANO,,5340-228,MACEDO DE CAVALEIROS,-6.962474642538582,41.5387327300637
pt.ine.add.PTCONT.851356,R ALEXANDRE HERCULANO,,5340-228,MACEDO DE CAVALEIROS,-6.962474642538582,41.5387327300637
pt.ine.add.PTCONT.851357,R ALEXANDRE HERCULANO,,5340-228,MACEDO DE CAVALEIROS,-6.962474642538582,41.5387327300637
pt.ine.add.PTCONT.851358,R ALEXANDRE HERCULANO,,5340-228,MACEDO DE CAVALEIROS,-6.962474642538582,41.5387327300637
pt.ine.add.PTCONT.851359,R ALEXANDRE HERCULANO,,5340-228,MACEDO DE CAVALEIROS,-6.962474642538582,41.5387327300637
pt.ine.add.PTCONT.851360,R PESSARNA,,5340-351,MORAIS,-6.777715723792017,41.491613610045825
pt.ine.add.PTCONT.851361,R GNR,8,5340-351,MORAIS,-6.7784073334349975,41.490604357849556
pt.ine.add.PTCONT.851362,R S MARTINHO,,5340-490,VILAR DO MONTE MCD,-6.947541232878414,41.50537452279484
pt.ine.add.PTCONT.851365,R DR RAUL REGO,12,5340-351,MORAIS,-6.773859713252102,41.49162211954851
pt.ine.add.PTCONT.851366,BR CARRIS VIA DIREITA,,5340-351,MORAIS,-6.782743463237473,41.491114536922304
pt.ine.add.PTCONT.851607,R ALEXANDRE HERCULANO,,5340-228,MACEDO DE CAVALEIROS,-6.962474642538582,41.5387327300637
pt.ine.add.PTCONT.851620,R ALEXANDRE HERCULANO,,5340-228,MACEDO DE CAVALEIROS,-6.962474642538582,41.5387327300637
pt.ine.add.PTCONT.851633,R PACO,,5340-021,AMENDOEIRA,-6.9865975158512965,41.563816588511955
pt.ine.add.PTCONT.851655,R 13 DE MAIO,11,5340-500,VILARINHO DE AGROCHÃO,-7.059794646253643,41.6746537106359
pt.ine.add.PTCONT.851656,AV NSA SRA DE FÁTIMA,6,5340-500,VILARINHO DE AGROCHÃO,-7.060315852751281,41.67661893473953
pt.ine.add.PTCONT.851657,R MOITA,5,5340-500,VILARINHO DE AGROCHÃO,-7.057792376546578,41.6751841997991
pt.ine.add.PTCONT.851660,R ESTAÇÃO,,5340-102,CORTIÇOS,-7.034629892250631,41.51306412729504
pt.ine.add.PTCONT.851661,R ESTAÇÃO,,5340-102,CORTIÇOS,-7.0338581023249285,41.51266059281051
pt.ine.add.PTCONT.851923,R CABEÇO DAS VINHAS,,5340-021,AMENDOEIRA,-6.983086649655881,41.55899164399569
pt.ine.add.PTCONT.851924,LG BARREIRA,,5340-021,AMENDOEIRA,-6.986462438289086,41.563320047160815
pt.ine.add.PTCONT.851925,R FONTE,8,5340-082,CASTELÃOS,-6.937279887556839,41.51756718171673
pt.ine.add.PTCONT.851926,R ÁLVARO DE CASTRO,16,5340-231,MACEDO DE CAVALEIROS,-6.960357486940643,41.54116912710611
pt.ine.add.PTCONT.851928,R FUNDO DO POVO,14,5340-051,BORNES,-7.004383136231695,41.459973788940395
pt.ine.add.PTCONT.851931,R TERREIRO,,5340-021,AMENDOEIRA,-6.98676744329955,41.56234170353283
pt.ine.add.PTCONT.851933,R ENG CAMILO MENDONÇA,,5340-295,MACEDO DE CAVALEIROS,-6.977955714808468,41.536125204314104
pt.ine.add.PTCONT.851935,ESTR PRINCIPAL,,5340-014,ALA,-7.064435869812599,41.61619263236375
pt.ine.add.PTCONT.851937,R CENTRAL,,5340-132,ESPADANEDO MCD,-6.942697970170768,41.66359672669838
pt.ine.add.PTCONT.851938,,,5340-011,ALA,-7.021176663862554,41.59704607109903
pt.ine.add.PTCONT.851939,BR EIRAS,,5340-031,ARCAS,-7.036329530545913,41.64565728151256
pt.ine.add.PTCONT.851940,R S CAETANO,,5340-031,ARCAS,-7.036274806853658,41.64605291003945
pt.ine.add.PTCONT.851941,R CENTRAL,,5340-132,ESPADANEDO MCD,-6.943039228577121,41.663321156713
pt.ine.add.PTCONT.851944,R PRINCIPAL,22,5340-013,ALA,-7.060423526400241,41.589702977773875
pt.ine.add.PTCONT.851946,R PRINCIPAL,,5340-013,ALA,-7.061149394026685,41.58932259705621
pt.ine.add.PTCONT.851947,R EIRAS,32,5340-070,CARRAPATAS,-6.998344549377248,41.51522380253688
pt.ine.add.PTCONT.851948,R PRINCIPAL,,5340-131,ESPADANEDO MCD,-6.920019702693398,41.651970325677155
pt.ine.add.PTCONT.851949,EN 206,,5340-174,LAMALONGA,-7.107664622842663,41.68049286078603
pt.ine.add.PTCONT.851950,R PADRAO SUL,1,5340-308,MACEDO DE CAVALEIROS,-6.957718342567567,41.53668541772004
pt.ine.add.PTCONT.851951,R PADRAO SUL,34,5340-203,MACEDO DE CAVALEIROS,-6.956709668668399,41.53680115223799
pt.ine.add.PTCONT.851953,R CENTRAL,16,5340-102,CORTIÇOS,-7.021578080866877,41.51697233355836
pt.ine.add.PTCONT.851954,R ESTRADA,,5340-142,FERREIRA MCD,-6.984144354998005,41.63794471813492
pt.ine.add.PTCONT.851955,R FONTE VELHA,,5340-174,LAMALONGA,-7.104671382412401,41.67916062023898
pt.ine.add.PTCONT.851956,R ÁLVARO DE CASTRO,,5340-231,MACEDO DE CAVALEIROS,-6.963500441972586,41.5449826332982
pt.ine.add.PTCONT.851959,R BREIA,,5340-174,LAMALONGA,-7.1058056822406845,41.67957591851322
pt.ine.add.PTCONT.851960,R BREIA,,5340-174,LAMALONGA,-7.1058056822406845,41.67957591851322
pt.ine.add.PTCONT.851961,R COMBATENTES DA GRANDE GUERRA,,5340-295,MACEDO DE CAVALEIROS,-6.978672411146495,41.53823604366754
pt.ine.add.PTCONT.851962,R SANTA BARBARA,,5340-234,MACEDO DE CAVALEIROS,-6.973631937002467,41.53869271989896
pt.ine.add.PTCONT.851963,R CIMA,15,5340-180,LAMAS MCD,-6.950138329035929,41.59028665795161
pt.ine.add.PTCONT.851964,R VIRIATO MARTINS,10,5340-281,MACEDO DE CAVALEIROS,-6.95932797426286,41.54177086373656
pt.ine.add.PTCONT.851965,R VIRIATO MARTINS,10,5340-281,MACEDO DE CAVALEIROS,-6.95932797426286,41.54177086373656
pt.ine.add.PTCONT.851968,R CANTO,,5340-022,AMENDOEIRA,-6.968789620910781,41.5661316024307
pt.ine.add.PTCONT.852125,,,5340-482,VALE DE PRADOS,-6.938043381446791,41.55223881027336
pt.ine.add.PTCONT.852727,,,5340-290,MACEDO DE CAVALEIROS,-6.956827675940301,41.556736209977
pt.ine.add.PTCONT.852119,R LAMADONA,,5340-392,PODENCE,-6.925428981862322,41.5911371582146
pt.ine.add.PTCONT.852096,BR CARRIS,,5340-351,MORAIS,-6.782485136342179,41.49086840730312
pt.ine.add.PTCONT.852097,R AVELINO JOSE MOREIRA,17,5340-380,PEREDO,-6.868587311795352,41.42960524229872
pt.ine.add.PTCONT.852098,AV IGREJA,7,5340-380,PEREDO,-6.868467544182799,41.42837942440809
pt.ine.add.PTCONT.852099,R CANTO,,5340-400,SALSELAS,-6.840516751762708,41.52683824904049
pt.ine.add.PTCONT.852101,R FREIXO,22,5340-351,MORAIS,-6.776318482397942,41.4885629361296
pt.ine.add.PTCONT.852102,R CABEÇO B,4,5340-351,MORAIS,-6.777046005122539,41.489850021981944
pt.ine.add.PTCONT.852103,R COMEND COSTA PEREIRA,,5340-380,PEREDO,-6.869499374635393,41.42760744258874
pt.ine.add.PTCONT.852104,,,5340-470,VALE DA PORCA,-6.897614045949507,41.54221372110863
pt.ine.add.PTCONT.852107,R DO SOL,26,5340-200,MACEDO DE CAVALEIROS,-6.966630110220056,41.53355289349626
pt.ine.add.PTCONT.852108,R EIRA PORTELA,,5340-410,SANTA COMBINHA,-6.890776874097523,41.57883830982269
pt.ine.add.PTCONT.852109,EN 102,,5340-482,VALE DE PRADOS,-6.946516313483667,41.56409417280633
pt.ine.add.PTCONT.852110,BR QUINTA SECA,,5340-510,VILARINHO DO MONTE,-7.091512099867784,41.6320261889939
pt.ine.add.PTCONT.852112,R DR DUARTE MORENO,6,5340-264,MACEDO DE CAVALEIROS,-6.964863506843127,41.5331748156968
pt.ine.add.PTCONT.852113,R DR DUARTE MORENO,6,5340-264,MACEDO DE CAVALEIROS,-6.964863506843127,41.5331748156968
pt.ine.add.PTCONT.852114,R DR DUARTE MORENO,,5340-264,MACEDO DE CAVALEIROS,-6.964863506843127,41.5331748156968
pt.ine.add.PTCONT.852120,R CASTELO,93,5340-451,TALHINHAS,-6.733223216609274,41.53306393290964
pt.ine.add.PTCONT.852122,R D JOÃO I,8,5340-339,MACEDO DE CAVALEIROS,-6.947234976874707,41.53199496375293
pt.ine.add.PTCONT.852123,R S AFLITOS,,5340-520,VINHAS,-6.817770484798355,41.56556540514714
pt.ine.add.PTCONT.852124,R ANTÓNIO JOSE MIRANDA,23,5340-233,MACEDO DE CAVALEIROS,-6.9624871412793174,41.54136189629931
pt.ine.add.PTCONT.852127,AV INF D HENRIQUE,39,5340-204,MACEDO DE CAVALEIROS,-6.9632125351287035,41.541009136941845
pt.ine.add.PTCONT.852128,R NASCENTE,,5340-360,MURÇÓS,-6.981159926239069,41.679483481155245
pt.ine.add.PTCONT.852129,R S GREGORIO,38,5340-520,VINHAS,-6.81924855935553,41.56302532316469
pt.ine.add.PTCONT.852131,AL NSA SRA DA OLIVEIRA,11,5340-351,MORAIS,-6.771687289669999,41.494720652536735
pt.ine.add.PTCONT.852132,R MALHADA,,5340-520,VINHAS,-6.81888269557166,41.56451571629432
pt.ine.add.PTCONT.852133,R S SEBASTIÃO,,5340-520,VINHAS,-6.811414097774672,41.53804090214399
pt.ine.add.PTCONT.852134,R BOMBEIROS VOLUNTARIOS,14,5340-236,MACEDO DE CAVALEIROS,-6.962590364742038,41.53962526056035
pt.ine.add.PTCONT.852136,R VALE DE CHACIM,,5340-400,SALSELAS,-6.876276746335331,41.548077843697165
pt.ine.add.PTCONT.852137,R GNR,10,5340-351,MORAIS,-6.77908446078353,41.49086443190566
pt.ine.add.PTCONT.852138,R DR RAUL REGO,,5340-351,MORAIS,-6.774308685584403,41.491339311731956
pt.ine.add.PTCONT.852139,R DR RAUL REGO,10,5340-351,MORAIS,-6.774151361064129,41.49141848468273
pt.ine.add.PTCONT.852140,R OLMOS,47,5340-440,TALHAS,-6.701049457778799,41.49128768956725
pt.ine.add.PTCONT.852373,R VIRIATO MARTINS,10,5340-281,MACEDO DE CAVALEIROS,-6.95932797426286,41.54177086373656
pt.ine.add.PTCONT.852400,R DR DUARTE MORENO,6,5340-264,MACEDO DE CAVALEIROS,-6.964863506843127,41.5331748156968
pt.ine.add.PTCONT.852401,R RIBEIRO,,5340-510,VILARINHO DO MONTE,-7.0907732371886665,41.63170436980576
pt.ine.add.PTCONT.852404,R COELHOS,14,5340-360,MURÇÓS,-6.982337430378121,41.680125513389314
pt.ine.add.PTCONT.852423,,,5340-011,ALA,-7.023326674903849,41.599668856724854
pt.ine.add.PTCONT.852442,R DIREITA,19,5340-500,VILARINHO DE AGROCHÃO,-7.054974513568478,41.67493271399914
pt.ine.add.PTCONT.852443,R MOITA,8,5340-500,VILARINHO DE AGROCHÃO,-7.057482895304053,41.67501924258331
pt.ine.add.PTCONT.852720,R CASTELO,,5340-011,ALA,-7.018911126793297,41.59766338316463
pt.ine.add.PTCONT.852497,R FONTAÍNHAS,11,5340-460,VALE BENFEITO,-6.982585646296996,41.48581443445539
pt.ine.add.PTCONT.852509,R DR ACÁCIO CRUZ,,5340-199,MACEDO DE CAVALEIROS,-6.968144447397536,41.532631874475115
pt.ine.add.PTCONT.852699,R FUNDO DO POVO,2,5340-051,BORNES,-7.0042998904852185,41.459252676344896
pt.ine.add.PTCONT.852700,BC BARREIRA,,5340-082,CASTELÃOS,-6.937445367641928,41.51703769109976
pt.ine.add.PTCONT.852701,R LADEIRA,,5340-101,CORTIÇOS,-7.041385867356458,41.50878871282501
pt.ine.add.PTCONT.852702,R CARRASCAL,4,5340-160,LAGOA MCD,-6.769213982572482,41.44363203729301
pt.ine.add.PTCONT.852703,R BAIRRO DO ALEM,,5340-021,AMENDOEIRA,-6.988166274072743,41.562553719942
pt.ine.add.PTCONT.852705,R CASAL,,5340-051,BORNES,-7.004137240193215,41.46034953084675
pt.ine.add.PTCONT.852706,R SANTA MARIA,8,5340-051,BORNES,-6.998990572745729,41.458975356576744
pt.ine.add.PTCONT.852707,R CABECA BOA,2,5340-190,LOMBO,-6.849827157740182,41.46005492900452
pt.ine.add.PTCONT.852708,R FUNDO DO POVO,,5340-014,ALA,-7.057009649115646,41.616888647108894
pt.ine.add.PTCONT.852709,BR CARVALHEIRA,201,5340-021,AMENDOEIRA,-6.978483338065158,41.55092335141747
pt.ine.add.PTCONT.852710,R CONVENTO,20,5340-172,LAMALONGA,-7.104774058858598,41.69458434160976
pt.ine.add.PTCONT.852712,R ESTRADA,,5340-024,AMENDOEIRA,-6.992946452804596,41.54226220121665
pt.ine.add.PTCONT.852713,R FEIRA,,5340-092,CHACIM,-6.897686840620043,41.47160841600436
pt.ine.add.PTCONT.852714,R FEIRA,,5340-092,CHACIM,-6.897073022706773,41.47178189367626
pt.ine.add.PTCONT.852715,LG PRADO CAVALEIROS,1A,5340-221,MACEDO DE CAVALEIROS,-6.959641741335074,41.54032449394177
pt.ine.add.PTCONT.852718,R CANTO DA ALDEIA,,5340-120,EDROSO,-6.936393751353836,41.62926435866708
pt.ine.add.PTCONT.852719,BR S FRANCISCO DE ASSIS,4,5340-214,MACEDO DE CAVALEIROS,-6.961848415882948,41.543552258940856
pt.ine.add.PTCONT.852721,R CASTELO,,5340-011,ALA,-7.019164359719736,41.59758480586745
pt.ine.add.PTCONT.852722,R RIBEIRINHA,5,5340-152,GRIJÓ MCD,-6.976555278670163,41.501051123846544
pt.ine.add.PTCONT.852723,R S CAETANO,,5340-031,ARCAS,-7.034325921476339,41.64560213067642
pt.ine.add.PTCONT.852724,ESTR VALE DE SAIAS,,5340-290,MACEDO DE CAVALEIROS,-6.956399652824517,41.55984705094566
pt.ine.add.PTCONT.852726,R SANTA RITA,,5340-031,ARCAS,-7.033255602794073,41.64501567414172
pt.ine.add.PTCONT.852728,R PORFRANCAL,22,5340-295,MACEDO DE CAVALEIROS,-6.973357969031758,41.54128298291559
pt.ine.add.PTCONT.852733,R PRINCIPAL,,5340-013,ALA,-7.061105898226056,41.589052085847754
pt.ine.add.PTCONT.852734,R CONCIEIRO,8,5340-092,CHACIM,-6.903189105810591,41.4693084340682
pt.ine.add.PTCONT.852735,SEM NOME,,5340-290,MACEDO DE CAVALEIROS,-6.9572998216526445,41.55515641778497
pt.ine.add.PTCONT.852742,R PRADO,20,5340-102,CORTIÇOS,-7.0210510291064985,41.51766951987433
pt.ine.add.PTCONT.852746,LUGAR DO MORGADIO,,5340-102,CORTIÇOS,-7.018892943125633,41.51078787219117
pt.ine.add.PTCONT.852747,R JOÃO ANTÓNIO AFONSO,13,5340-274,MACEDO DE CAVALEIROS,-6.9619448776141954,41.541527441820676
pt.ine.add.PTCONT.852748,R CASTELO,10,5340-040,BAGUEIXE,-6.780319145439742,41.56441054247148
pt.ine.add.PTCONT.852750,R BAIRRO CIMA GRACA,GRACA,5340-022,AMENDOEIRA,-6.968643963645292,41.569569471390004
pt.ine.add.PTCONT.852751,R CEMITÉRIO ALTO DE SANTA BARBARA,,5340-235,MACEDO DE CAVALEIROS,-6.952742025337104,41.54345913507249
pt.ine.add.PTCONT.852903,,,5340-392,PODENCE,-6.907816169272213,41.59974715137803
pt.ine.add.PTCONT.852904,,,5340-410,SANTA COMBINHA,-6.889280855927621,41.57806584184447
pt.ine.add.PTCONT.907160,,,5340-520,VINHAS,-6.817919541667751,41.565900238434004
pt.ine.add.PTCONT.852900,R OUTEIRO,,5340-400,SALSELAS,-6.843107689832512,41.52548080207822
pt.ine.add.PTCONT.852901,R SEM NOME,,5340-440,TALHAS,-6.692609715510089,41.48740080376116
pt.ine.add.PTCONT.852907,R PORTELO 2,,5340-421,SESULFE,-7.017902269204691,41.571957577965456
pt.ine.add.PTCONT.852909,BR FLORESTA,13,5340-324,MACEDO DE CAVALEIROS,-6.9504664341973745,41.53154205257896
pt.ine.add.PTCONT.852910,R CABO,23,5340-520,VINHAS,-6.817720103026169,41.56627610199404
pt.ine.add.PTCONT.852913,R DR DUARTE MORENO,,5340-264,MACEDO DE CAVALEIROS,-6.9648602874432655,41.531356061680924
pt.ine.add.PTCONT.852915,R BAIRRO,,5340-422,SESULFE,-7.002692239981737,41.557241310440695
pt.ine.add.PTCONT.852916,R BAIRRO,,5340-422,SESULFE,-7.002229854112253,41.55694864987948
pt.ine.add.PTCONT.852919,,,5340-351,MORAIS,-6.817676186330675,41.50162141692506
pt.ine.add.PTCONT.852920,BR S FRANCISCO XAVIER NORTE,10,5340-351,MORAIS,-6.767963361149198,41.4964141894403
pt.ine.add.PTCONT.852921,R PRINCIPAL,18,5340-460,VALE BENFEITO,-6.980734237016176,41.48893817042582
pt.ine.add.PTCONT.852924,R ESTADIO,,5340-520,VINHAS,-6.81974099432542,41.56357115756766
pt.ine.add.PTCONT.852925,R DR RAUL REGO,21,5340-351,MORAIS,-6.770393071854347,41.49419212145384
pt.ine.add.PTCONT.852926,R CIMO DO POVO,,5340-372,OLMOS,-6.898212290726628,41.493114700284266
pt.ine.add.PTCONT.852927,R CIMO DO POVO,,5340-372,OLMOS,-6.897346503519585,41.49330347946763
pt.ine.add.PTCONT.852928,R CIMO DO POVO,,5340-372,OLMOS,-6.8969680112393466,41.49242606231819
pt.ine.add.PTCONT.852929,R OUTEIRO,,5340-400,SALSELAS,-6.872635034415246,41.552305639510415
pt.ine.add.PTCONT.852930,BR VINHAIS,,5340-482,VALE DE PRADOS,-6.94513827266622,41.54900803862662
pt.ine.add.PTCONT.852937,R FREIXO,,5340-400,SALSELAS,-6.8751294909515535,41.55223392097215
pt.ine.add.PTCONT.852938,R OUTEIRO,,5340-440,TALHAS,-6.704647175780901,41.49213374854684
pt.ine.add.PTCONT.852939,R OUTEIRO,,5340-440,TALHAS,-6.701757904652325,41.492286896348844
pt.ine.add.PTCONT.852941,CAM GINCO,,5340-280,MACEDO DE CAVALEIROS,-6.95935895071256,41.52945430492187
pt.ine.add.PTCONT.852942,AV COMEND ANTÓNIO JOAQUIM FERREIRA,69,5340-241,MACEDO DE CAVALEIROS,-6.962701885568887,41.5294523655812
pt.ine.add.PTCONT.852943,R CONS JOSE AVELINO MOREIRA,25,5340-380,PEREDO,-6.86881019896541,41.429832784337485
pt.ine.add.PTCONT.853159,R S CAETANO,,5340-031,ARCAS,-7.034325921476339,41.64560213067642
pt.ine.add.PTCONT.853190,R RAINHA D MARIA I,14,5340-213,MACEDO DE CAVALEIROS,-6.971991564188634,41.54464552678321
pt.ine.add.PTCONT.853191,R MEROUCOS,13,5340-252,MACEDO DE CAVALEIROS,-6.9645978159762905,41.53462169047815
pt.ine.add.PTCONT.853202,R OUTEIRO,,5340-392,PODENCE,-6.924199206254941,41.59148437088648
pt.ine.add.PTCONT.853204,R SENHORA DO MONTE,37,5340-451,TALHINHAS,-6.734752943420446,41.53213718299063
pt.ine.add.PTCONT.853207,R DIREITO,14,5340-314,MACEDO DE CAVALEIROS,-6.963634001830541,41.54089637819174
pt.ine.add.PTCONT.853629,R GNR,,5340-351,MORAIS,-6.781361884223372,41.48902748791652
pt.ine.add.PTCONT.853444,R PELAMES,12,5340-051,BORNES,-6.99747729393553,41.46339024153355
pt.ine.add.PTCONT.853445,R CHARCAS,,5340-082,CASTELÃOS,-6.936140758642875,41.51827561649491
pt.ine.add.PTCONT.853446,R ALMINHAS,,5340-082,CASTELÃOS,-6.935880108723648,41.51876809994923
pt.ine.add.PTCONT.853447,R DIREITA,,5340-101,CORTIÇOS,-7.040448069198838,41.507573318957505
pt.ine.add.PTCONT.853448,BR S FRANCISCO DE ASSIS,89,5340-214,MACEDO DE CAVALEIROS,-6.960582971705517,41.54195473600813
pt.ine.add.PTCONT.853449,R BEATO BENTO CASTRO,23,5340-235,MACEDO DE CAVALEIROS,-6.954453404753493,41.54227021524479
pt.ine.add.PTCONT.853450,R FUNDO DO POVO,7,5340-051,BORNES,-7.004474553197381,41.45953350490708
pt.ine.add.PTCONT.853453,R BAIRRO NOVO,6,5340-190,LOMBO,-6.849578383758623,41.458710611916125
pt.ine.add.PTCONT.853454,R D LUIS,38,5340-249,MACEDO DE CAVALEIROS,-6.958418160809743,41.54039303198416
pt.ine.add.PTCONT.853455,R DA PAZ,5,5340-530,MACEDO DE CAVALEIROS,-6.971248872513405,41.535504945678625
pt.ine.add.PTCONT.853458,R IGREJA,2,5340-172,LAMALONGA,-7.104131778488443,41.69192259588839
pt.ine.add.PTCONT.853459,R BELA VISTA,50,5340-208,MACEDO DE CAVALEIROS,-6.968816437785835,41.5419303595885
pt.ine.add.PTCONT.853460,R SEM NOME,,5340-290,MACEDO DE CAVALEIROS,-6.966928294315969,41.549636271909606
pt.ine.add.PTCONT.853461,,,5340-213,MACEDO DE CAVALEIROS,-6.97060509497469,41.545774968597925
pt.ine.add.PTCONT.853464,ESTR PRINCIPAL,,5340-014,ALA,-7.061456025094813,41.61718228352009
pt.ine.add.PTCONT.853465,R PRINCIPAL,75,5340-152,GRIJÓ MCD,-6.971755180313367,41.500912713386306
pt.ine.add.PTCONT.853467,R PRINCIPAL,40,5340-152,GRIJÓ MCD,-6.9749039518881135,41.4989546677763
pt.ine.add.PTCONT.853468,R EIRAS,25,5340-190,LOMBO,-6.845495387192033,41.45698129635877
pt.ine.add.PTCONT.853469,R PADRAO NORTE,,5340-308,MACEDO DE CAVALEIROS,-6.955787492671275,41.5387544895889
pt.ine.add.PTCONT.853470,ESTR VALE DE SAIAS,,5340-290,MACEDO DE CAVALEIROS,-6.960242337647179,41.56345171119336
pt.ine.add.PTCONT.853472,R VALE MIGUEL,,5340-132,ESPADANEDO MCD,-6.945068307587434,41.658750432075294
pt.ine.add.PTCONT.853473,R POULO,,5340-132,ESPADANEDO MCD,-6.943850303207305,41.66296041473583
pt.ine.add.PTCONT.853474,,,5340-031,ARCAS,-7.019327506469298,41.629242583776886
pt.ine.add.PTCONT.853475,R SANTA CATARINA,3,5340-070,CARRAPATAS,-6.996199859472422,41.51319481375555
pt.ine.add.PTCONT.853481,R VIA CENTRAL,10,5340-070,CARRAPATAS,-6.991645023120453,41.51199722984121
pt.ine.add.PTCONT.853482,R VIA CENTRAL,77,5340-070,CARRAPATAS,-7.000849531418458,41.513771901987845
pt.ine.add.PTCONT.853483,R OUTEIRO,,5340-102,CORTIÇOS,-7.023897701503519,41.51793110749231
pt.ine.add.PTCONT.853630,,,5340-392,PODENCE,-6.908618301358498,41.59855824002802
pt.ine.add.PTCONT.853486,R NSA SRA DAS GRAÇAS,24,5340-040,BAGUEIXE,-6.778598503306088,41.5647144068727
pt.ine.add.PTCONT.853487,R ENCRUZILHADAS,,5340-081,CASTELÃOS,-6.928751801686409,41.52783228641881
pt.ine.add.PTCONT.853488,R OLMO,,5340-102,CORTIÇOS,-7.0198177025800055,41.51693729716042
pt.ine.add.PTCONT.853489,LG SANTA CATARINA,,5340-174,LAMALONGA,-7.105259192517781,41.679201892677916
pt.ine.add.PTCONT.853490,BR S FRANCISCO DE ASSIS,51,5340-214,MACEDO DE CAVALEIROS,-6.960458219593576,41.54288983337084
pt.ine.add.PTCONT.853491,R CASTELO,,5340-040,BAGUEIXE,-6.780111641986647,41.56458816949593
pt.ine.add.PTCONT.853492,R CENTRAL,,5340-142,FERREIRA MCD,-6.982556742820653,41.63611014586953
pt.ine.add.PTCONT.853494,R VIRIATO MARTINS,14,5340-281,MACEDO DE CAVALEIROS,-6.959288935507781,41.54194153273428
pt.ine.add.PTCONT.853495,R FUNDODO POVO,,5340-022,AMENDOEIRA,-6.96856026418483,41.56621931468288
pt.ine.add.PTCONT.925549,,,5340-031,ARCAS,-7.070274914653014,41.64053811643815
pt.ine.add.PTCONT.853622,R SANTA CATARINA,6,5340-380,PEREDO,-6.870436969380433,41.42614113284001
pt.ine.add.PTCONT.853631,R PORTELO 1,,5340-421,SESULFE,-7.0157373237278415,41.57165744794865
pt.ine.add.PTCONT.853632,R SANTIAGO,12,5340-451,TALHINHAS,-6.7356382790512495,41.53442582490003
pt.ine.add.PTCONT.853633,,,5340-482,VALE DE PRADOS,-6.942073776314693,41.55533282827961
pt.ine.add.PTCONT.853636,R CASARÃO,,5340-360,MURÇÓS,-6.98319988762218,41.680251190299224
pt.ine.add.PTCONT.853637,SEM NOME,,5340-392,PODENCE,-6.918834389707771,41.58977119067336
pt.ine.add.PTCONT.853638,EM 553,,5340-421,SESULFE,-7.014222233731219,41.571912818828345
pt.ine.add.PTCONT.853639,,,5340-482,VALE DE PRADOS,-6.950994324366189,41.55584805721863
pt.ine.add.PTCONT.853640,,,5340-482,VALE DE PRADOS,-6.938991801629957,41.55085311691321
pt.ine.add.PTCONT.853641,R CABO,,5340-520,VINHAS,-6.817378659758357,41.56656030550095
pt.ine.add.PTCONT.853642,LG CAPELA,38,5340-392,PODENCE,-6.927549839610626,41.5912404504852
pt.ine.add.PTCONT.853643,R FRAGA,,5340-421,SESULFE,-7.016566274089545,41.570864187136095
pt.ine.add.PTCONT.853644,R CÂNDIDA FLORINDA FERREIRA,5,5340-452,TALHINHAS,-6.702966422567616,41.52715444047408
pt.ine.add.PTCONT.853645,,,5340-482,VALE DE PRADOS,-6.949916070439388,41.54727460340542
pt.ine.add.PTCONT.853646,R PINHEIRO,10,5340-392,PODENCE,-6.935465654930566,41.58408439673192
pt.ine.add.PTCONT.853651,R SABOR,34,5340-199,MACEDO DE CAVALEIROS,-6.964909022808576,41.53064527456926
pt.ine.add.PTCONT.853652,R DR RAUL REGO,,5340-351,MORAIS,-6.768875469778343,41.49574974800236
pt.ine.add.PTCONT.853653,ESTR VINHAIS,,5340-482,VALE DE PRADOS,-6.947258367927408,41.547112170297495
pt.ine.add.PTCONT.853654,R IGREJA,4,5340-371,OLMOS,-6.913248659701464,41.482488844444475
pt.ine.add.PTCONT.853655,BR SANTA JOANA,,5340-400,SALSELAS,-6.870569346374525,41.552517065578485
pt.ine.add.PTCONT.853656,TV CONCELHO,,5340-460,VALE BENFEITO,-6.985301335998987,41.48459006228759
pt.ine.add.PTCONT.853661,BR CARRIS VIA DIREITA,,5340-351,MORAIS,-6.780881881278398,41.49080454888506
pt.ine.add.PTCONT.853662,R MUSEU,,5340-400,SALSELAS,-6.877632761293425,41.54984834316179
pt.ine.add.PTCONT.853663,,,5340-470,VALE DA PORCA,-6.897401225440796,41.54457936164449
pt.ine.add.PTCONT.853666,AV D NUNO ÁLVARES PEREIRA,16B,5340-202,MACEDO DE CAVALEIROS,-6.958651453647966,41.536109720880766
pt.ine.add.PTCONT.853900,R CENTRAL,10,5340-051,BORNES,-7.004586675764622,41.45858921688201
pt.ine.add.PTCONT.853937,R CENTRAL,,5340-132,ESPADANEDO MCD,-6.9434079724562645,41.66285679954547
pt.ine.add.PTCONT.853945,AV NSA SRA DE FÁTIMA,30,5340-500,VILARINHO DE AGROCHÃO,-7.062952741500475,41.68358957622801
pt.ine.add.PTCONT.853981,BC ESTAÇÃO,2,5340-152,GRIJÓ MCD,-6.980181260985901,41.50458994140513
pt.ine.add.PTCONT.853982,R ESTAÇÃO,41,5340-152,GRIJÓ MCD,-6.981856197559697,41.50604730016947
pt.ine.add.PTCONT.853983,R ESTAÇÃO,51,5340-152,GRIJÓ MCD,-6.98234911669213,41.50661946157617
pt.ine.add.PTCONT.854095,R MEROUCOS,41,5340-252,MACEDO DE CAVALEIROS,-6.96570795294765,41.534191791844584
pt.ine.add.PTCONT.854096,AV COMEND ANTÓNIO JOAQUIM FERREIRA,31,5340-241,MACEDO DE CAVALEIROS,-6.962834525002326,41.532064751552625
pt.ine.add.PTCONT.854131,R FUNDO DO POVO,,5340-014,ALA,-7.056806613913847,41.616832725339194
pt.ine.add.PTCONT.854132,AV COMEND ANTÓNIO JOAQUIM FERREIRA,22,5340-241,MACEDO DE CAVALEIROS,-6.963428497709533,41.53234990588043
pt.ine.add.PTCONT.854133,AV COMEND ANTÓNIO JOAQUIM FERREIRA,22,5340-241,MACEDO DE CAVALEIROS,-6.963428497709533,41.53234990588043
pt.ine.add.PTCONT.854134,AV COMEND ANTÓNIO JOAQUIM FERREIRA,22,5340-241,MACEDO DE CAVALEIROS,-6.963428497709533,41.53234990588043
pt.ine.add.PTCONT.854135,AV COMEND ANTÓNIO JOAQUIM FERREIRA,22,5340-241,MACEDO DE CAVALEIROS,-6.963428497709533,41.53234990588043
pt.ine.add.PTCONT.854136,R FREIXO,16,5340-351,MORAIS,-6.775890419943055,41.48956628314811
pt.ine.add.PTCONT.854137,,,5340-352,MORAIS,-6.83581070553383,41.47811199528004
pt.ine.add.PTCONT.854138,R CABINE,,5340-360,MURÇÓS,-6.984679364171376,41.6774209240123
pt.ine.add.PTCONT.854189,R CANTO,,5340-014,ALA,-7.05695867161392,41.61706823941202
pt.ine.add.PTCONT.854190,R CANTO,,5340-014,ALA,-7.057757027287281,41.6173998360286
pt.ine.add.PTCONT.854191,R PRINCIPAL,,5340-014,ALA,-7.060406691544595,41.61751462807461
pt.ine.add.PTCONT.854192,ESTR RUA PRINCIPAL,,5340-011,ALA,-7.018854140887202,41.594700680996084
pt.ine.add.PTCONT.854193,R VALE DE NOGUEIRA,,5340-011,ALA,-7.0171880547541,41.594639502545924
pt.ine.add.PTCONT.854194,R PASO,,5340-021,AMENDOEIRA,-6.985340656219658,41.56506454231762
pt.ine.add.PTCONT.854195,R CANELHAS SN,SN,5340-021,AMENDOEIRA,-6.985954688826473,41.562882812549546
pt.ine.add.PTCONT.854196,BR ROUPETA,23,5340-380,PEREDO,-6.869010402325939,41.425063029780915
pt.ine.add.PTCONT.854197,R OUTEIRO,15,5340-392,PODENCE,-6.92353085538178,41.590667028493186
pt.ine.add.PTCONT.854198,LG CAPELA,,5340-392,PODENCE,-6.927264908989794,41.59108440311045
pt.ine.add.PTCONT.854199,R IGREJA,,5340-400,SALSELAS,-6.862522650716878,41.57230811455453
pt.ine.add.PTCONT.854228,LG BARREIRA,,5340-021,AMENDOEIRA,-6.986634696442065,41.56306966609656
pt.ine.add.PTCONT.854229,,,5340-031,ARCAS,-7.072540066440507,41.64586206781667
pt.ine.add.PTCONT.854230,EN 317,13,5340-040,BAGUEIXE,-6.775439047253233,41.56789136699814
pt.ine.add.PTCONT.854231,R NSA SRA DAS GRAÇAS,3,5340-040,BAGUEIXE,-6.77970527354835,41.56452936565946
pt.ine.add.PTCONT.854232,R SANTA MARTA,3,5340-051,BORNES,-6.999329610088563,41.459437887405294
pt.ine.add.PTCONT.854233,R IGREJA,,5340-400,SALSELAS,-6.842213403292846,41.527073393942636
pt.ine.add.PTCONT.854234,R BARREIRO,,5340-421,SESULFE,-7.016242459365873,41.570870045428485
pt.ine.add.PTCONT.854235,R EIRINHA,,5340-440,TALHAS,-6.698491929388977,41.49051752405207
pt.ine.add.PTCONT.854236,R LAMEIRAO,,5340-440,TALHAS,-6.693650977354581,41.488503267657386
pt.ine.add.PTCONT.854270,R VALE RUA DE BAIXO,7,5340-051,BORNES,-7.007964541429288,41.45843323094342
pt.ine.add.PTCONT.854271,R MOUREL RUA PRINCIPAL,10,5340-051,BORNES,-7.00682966073591,41.456234224851734
pt.ine.add.PTCONT.854272,R VIA CENTRAL,27,5340-070,CARRAPATAS,-6.995644836746746,41.5127391445768
pt.ine.add.PTCONT.854273,R VIA CENTRAL,59,5340-070,CARRAPATAS,-6.998573942284796,41.51374947378693
pt.ine.add.PTCONT.854274,TV RUA CENTRAL,1,5340-070,CARRAPATAS,-6.9983356646632195,41.51367509382383
pt.ine.add.PTCONT.854275,R TALHINHAS,94,5340-451,TALHINHAS,-6.733315555891056,41.53322711957238
pt.ine.add.PTCONT.854276,R FRANCISCO ANTÓNIO ANES,23,5340-451,TALHINHAS,-6.735417757057003,41.53242437404654
pt.ine.add.PTCONT.854277,R CANTO,30,5340-452,TALHINHAS,-6.702046036157247,41.52651274641032
pt.ine.add.PTCONT.854297,R BAIRRINHO,,5340-092,CHACIM,-6.904728655495465,41.47018923658551
pt.ine.add.PTCONT.854298,R OLMO,,5340-102,CORTIÇOS,-7.020024712857734,41.51674122155305
pt.ine.add.PTCONT.854299,,,5340-470,VALE DA PORCA,-6.899335293670871,41.5437087823031
pt.ine.add.PTCONT.854300,,,5340-470,VALE DA PORCA,-6.898269101914444,41.541797592181446
pt.ine.add.PTCONT.854301,CRZT VALE PRADOS,,5340-482,VALE DE PRADOS,-6.951667087281738,41.55576493699174
pt.ine.add.PTCONT.854302,R BR DO PRADO,,5340-482,VALE DE PRADOS,-6.944383495694916,41.552916775188336
pt.ine.add.PTCONT.854303,BR VINHAIS,,5340-482,VALE DE PRADOS,-6.9466385910750335,41.54954573563842
pt.ine.add.PTCONT.854333,R CIMO DO POVO,,5340-142,FERREIRA MCD,-6.982722164538207,41.63693111292664
pt.ine.add.PTCONT.854334,R JOGO,,5340-141,FERREIRA MCD,-6.961786637162535,41.62194504838908
pt.ine.add.PTCONT.854335,R NOGUEIRA,,5340-141,FERREIRA MCD,-6.9613927044198896,41.62183299217238
pt.ine.add.PTCONT.854336,BR EIRAS,,5340-510,VILARINHO DO MONTE,-7.0906172101262674,41.63245024247153
pt.ine.add.PTCONT.854369,R PRINCIPAL,79,5340-152,GRIJÓ MCD,-6.969752774666242,41.50371961040111
pt.ine.add.PTCONT.854370,R PRINCIPAL,42,5340-152,GRIJÓ MCD,-6.974926616585854,41.499026925033206
pt.ine.add.PTCONT.854407,BC PORTAL,11,5340-172,LAMALONGA,-7.105608864198002,41.69270109976396
pt.ine.add.PTCONT.854408,R SOUTO,6,5340-172,LAMALONGA,-7.104949012497963,41.692650180995535
pt.ine.add.PTCONT.854409,BC OLIVAL,5,5340-172,LAMALONGA,-7.104588129052736,41.69268296507698
pt.ine.add.PTCONT.854410,BC CANTO,2,5340-172,LAMALONGA,-7.106600439610282,41.69228680269915
pt.ine.add.PTCONT.854411,EN 206,,5340-173,LAMALONGA,-7.074381881991264,41.679983978792
pt.ine.add.PTCONT.854412,R FONTE LIMPA,,5340-174,LAMALONGA,-7.105477195351213,41.67908679808405
pt.ine.add.PTCONT.854450,R FLORES,35,5340-180,LAMAS MCD,-6.947667111848035,41.58311243663644
pt.ine.add.PTCONT.854451,R CARRASCAL MACEDO D,MACEDO D,5340-196,MACEDO DE CAVALEIROS,-6.955770755772742,41.54231972591385
pt.ine.add.PTCONT.854487,R BEATO BENTO DE CASTRO,,5340-235,MACEDO DE CAVALEIROS,-6.956766342856113,41.540286109076256
pt.ine.add.PTCONT.854488,R D HERMINIA MARTINS,88,5340-251,MACEDO DE CAVALEIROS,-6.95684898033363,41.54101624244248
pt.ine.add.PTCONT.854517,BR S FRANCISCO DE ASSIS,15,5340-214,MACEDO DE CAVALEIROS,-6.9614091406227105,41.54332269456316
pt.ine.add.PTCONT.854518,BR S FRANCISCO DE ASSIS,57,5340-214,MACEDO DE CAVALEIROS,-6.960143759226889,41.54304868981526
pt.ine.add.PTCONT.854519,R PORFRANCAL,10,5340-295,MACEDO DE CAVALEIROS,-6.973187412921454,41.54076805952472
pt.ine.add.PTCONT.854520,R PADRE ANTÓNIO MOURINHO,,5340-260,MACEDO DE CAVALEIROS,-6.969899105731943,41.535696083402335
pt.ine.add.PTCONT.854521,R CACADOR,8,5340-253,MACEDO DE CAVALEIROS,-6.974848514990096,41.53296970762101
pt.ine.add.PTCONT.854553,R D JOÃO V,,5340-213,MACEDO DE CAVALEIROS,-6.971626877723852,41.54426369413775
pt.ine.add.PTCONT.854554,R MANUEL SA,14,5340-276,MACEDO DE CAVALEIROS,-6.965893667925406,41.53852439198802
pt.ine.add.PTCONT.854555,R MANUEL SA,14 B,5340-276,MACEDO DE CAVALEIROS,-6.965893667925406,41.53852439198802
pt.ine.add.PTCONT.854607,R EÇA DE QUEIRÓS,12,5340-203,MACEDO DE CAVALEIROS,-6.957126074237762,41.53564395226398
pt.ine.add.PTCONT.854643,R JOÃO LOPES,48,5340-319,MACEDO DE CAVALEIROS,-6.965706652900361,41.53226501472803
pt.ine.add.PTCONT.854644,R PEREIRA CHARULA,,5340-278,MACEDO DE CAVALEIROS,-6.963736623420446,41.53653069497882
pt.ine.add.PTCONT.854645,R PEREIRA CHARULA,,5340-278,MACEDO DE CAVALEIROS,-6.963736623420446,41.53653069497882
pt.ine.add.PTCONT.854646,R PEREIRA CHARULA,31,5340-278,MACEDO DE CAVALEIROS,-6.963380744150438,41.53699526047886
pt.ine.add.PTCONT.854647,R PEREIRA CHARULA,31,5340-278,MACEDO DE CAVALEIROS,-6.963380744150438,41.53699526047886
pt.ine.add.PTCONT.858095,R CIMA,,5340-060,BURGA,-7.03558612792198,41.42802439057579
pt.ine.add.PTCONT.854700,R PEREIRA CHARULA,31,5340-278,MACEDO DE CAVALEIROS,-6.963380744150438,41.53699526047886
pt.ine.add.PTCONT.854701,R PEREIRA CHARULA,31,5340-278,MACEDO DE CAVALEIROS,-6.963380744150438,41.53699526047886
pt.ine.add.PTCONT.854713,R TERREIRO,,5340-021,AMENDOEIRA,-6.986340303558222,41.562769613513254
pt.ine.add.PTCONT.854721,R PEREIRA CHARULA,31,5340-278,MACEDO DE CAVALEIROS,-6.963380744150438,41.53699526047886
pt.ine.add.PTCONT.854724,R SUL,30,5340-110,CORUJAS,-6.970078843152305,41.601186255565835
pt.ine.add.PTCONT.854739,R MEROUCOS,41,5340-252,MACEDO DE CAVALEIROS,-6.96570795294765,41.534191791844584
pt.ine.add.PTCONT.854740,R CAMINHO DOS OLMOS,2,5340-392,PODENCE,-6.930054065142551,41.59394971805133
pt.ine.add.PTCONT.854756,LG CORETO,2,5340-102,CORTIÇOS,-7.022075623746561,41.51659898981654
pt.ine.add.PTCONT.854770,MEIO DO POVO,,5340-372,OLMOS,-6.896322871210373,41.492347097225384
pt.ine.add.PTCONT.854781,R MOITA,3,5340-500,VILARINHO DE AGROCHÃO,-7.05762487948081,41.67514661886266
pt.ine.add.PTCONT.860269,R CANELHA,,5340-133,ESPADANEDO MCD,-6.95032548368345,41.64766747248398
pt.ine.add.PTCONT.855033,R LADEIRA,,5340-101,CORTIÇOS,-7.0423283477011065,41.50901374347929
pt.ine.add.PTCONT.855034,R ALÉM RIBEIRO,,5340-141,FERREIRA MCD,-6.960904756980483,41.62161193466258
pt.ine.add.PTCONT.855037,R EIRA VELHA,,5340-101,CORTIÇOS,-7.038896974771336,41.50721643269775
pt.ine.add.PTCONT.855039,R FONTE,,5340-082,CASTELÃOS,-6.9389077357690745,41.51698986206839
pt.ine.add.PTCONT.855040,R CÓNEGO DOMINGOS,,5340-082,CASTELÃOS,-6.93774678361384,41.516932781759586
pt.ine.add.PTCONT.855042,R CANTO,,5340-014,ALA,-7.058191729912518,41.61723283581836
pt.ine.add.PTCONT.855043,R SUL,49,5340-110,CORUJAS,-6.9697244219099606,41.601551811418496
pt.ine.add.PTCONT.855044,R D ESTER LEAL,14,5340-250,MACEDO DE CAVALEIROS,-6.959215453999988,41.54004103234908
pt.ine.add.PTCONT.855045,R FONTE,,5340-295,MACEDO DE CAVALEIROS,-6.977813191667249,41.536727011578726
pt.ine.add.PTCONT.855046,R BARROS,5,5340-152,GRIJÓ MCD,-6.975037313303853,41.502224325786464
pt.ine.add.PTCONT.855049,R CAMPO DE FUTEBOL,7,5340-152,GRIJÓ MCD,-6.970393112845849,41.50006161355625
pt.ine.add.PTCONT.855050,R VALE COLMEIAS,5,5340-190,LOMBO,-6.850992594268066,41.45679060341129
pt.ine.add.PTCONT.855052,R S JOÃO,,5340-173,LAMALONGA,-7.07976037985927,41.68009642718784
pt.ine.add.PTCONT.855053,R IGREJA,,5340-132,ESPADANEDO MCD,-6.939162066529018,41.66392018111301
pt.ine.add.PTCONT.855054,R SANTA RITA,,5340-031,ARCAS,-7.034055705276339,41.645257416894104
pt.ine.add.PTCONT.855055,R IRMA MARTA,,5340-092,CHACIM,-6.901221041439752,41.46956648431346
pt.ine.add.PTCONT.855056,R CANELHA,,5340-132,ESPADANEDO MCD,-6.943229638622915,41.66341316194892
pt.ine.add.PTCONT.855057,R FUNDO DA QUINTA,,5340-290,MACEDO DE CAVALEIROS,-6.9570312722652226,41.55542377710049
pt.ine.add.PTCONT.855058,R D ABILIO VAZ DAS NEVES,1,5340-248,MACEDO DE CAVALEIROS,-6.950039598826108,41.532609086002424
pt.ine.add.PTCONT.855059,R CANTO,,5340-131,ESPADANEDO MCD,-6.919699709669748,41.65239010618122
pt.ine.add.PTCONT.855060,R NOGUEIRA,40,5340-160,LAGOA MCD,-6.7692174103295155,41.44746761836383
pt.ine.add.PTCONT.855061,R BIBLIOTECA,8,5340-242,MACEDO DE CAVALEIROS,-6.9647225688440475,41.53967395726551
pt.ine.add.PTCONT.855062,R BIBLIOTECA,8,5340-242,MACEDO DE CAVALEIROS,-6.9647225688440475,41.53967395726551
pt.ine.add.PTCONT.855063,R BIBLIOTECA,8,5340-242,MACEDO DE CAVALEIROS,-6.9647225688440475,41.53967395726551
pt.ine.add.PTCONT.855064,R BIBLIOTECA,8,5340-242,MACEDO DE CAVALEIROS,-6.9647225688440475,41.53967395726551
pt.ine.add.PTCONT.855065,R BIBLIOTECA,8,5340-242,MACEDO DE CAVALEIROS,-6.9647225688440475,41.53967395726551
pt.ine.add.PTCONT.855066,R BIBLIOTECA,8,5340-242,MACEDO DE CAVALEIROS,-6.9647225688440475,41.53967395726551
pt.ine.add.PTCONT.855068,,,5340-031,ARCAS,-7.019870523889118,41.62906777539251
pt.ine.add.PTCONT.855069,R CORREDOURA,,5340-092,CHACIM,-6.9027739204085385,41.46657588990517
pt.ine.add.PTCONT.855070,R FONTE,10,5340-133,ESPADANEDO MCD,-6.95156818875854,41.64863461413878
pt.ine.add.PTCONT.855071,R MOREIRINHA,16,5340-160,LAGOA MCD,-6.766374479743438,41.45121538821265
pt.ine.add.PTCONT.855072,R BIBLIOTECA,8,5340-242,MACEDO DE CAVALEIROS,-6.9647225688440475,41.53967395726551
pt.ine.add.PTCONT.855073,R BIBLIOTECA,8,5340-242,MACEDO DE CAVALEIROS,-6.9647225688440475,41.53967395726551
pt.ine.add.PTCONT.855074,R BIBLIOTECA,8,5340-242,MACEDO DE CAVALEIROS,-6.9647225688440475,41.53967395726551
pt.ine.add.PTCONT.855075,R BIBLIOTECA,8,5340-242,MACEDO DE CAVALEIROS,-6.9647225688440475,41.53967395726551
pt.ine.add.PTCONT.855076,R BIBLIOTECA,8,5340-242,MACEDO DE CAVALEIROS,-6.9647225688440475,41.53967395726551
pt.ine.add.PTCONT.855077,R BIBLIOTECA,8,5340-242,MACEDO DE CAVALEIROS,-6.9647225688440475,41.53967395726551
pt.ine.add.PTCONT.855078,R BIBLIOTECA,8,5340-242,MACEDO DE CAVALEIROS,-6.9647225688440475,41.53967395726551
pt.ine.add.PTCONT.855079,R BIBLIOTECA,8,5340-242,MACEDO DE CAVALEIROS,-6.9647225688440475,41.53967395726551
pt.ine.add.PTCONT.855080,R BIBLIOTECA,8,5340-242,MACEDO DE CAVALEIROS,-6.9647225688440475,41.53967395726551
pt.ine.add.PTCONT.855081,R BIBLIOTECA,8,5340-242,MACEDO DE CAVALEIROS,-6.9647225688440475,41.53967395726551
pt.ine.add.PTCONT.855082,R BIBLIOTECA,8,5340-242,MACEDO DE CAVALEIROS,-6.9647225688440475,41.53967395726551
pt.ine.add.PTCONT.855083,R BIBLIOTECA,8,5340-242,MACEDO DE CAVALEIROS,-6.9647225688440475,41.53967395726551
pt.ine.add.PTCONT.855084,R BIBLIOTECA,8,5340-242,MACEDO DE CAVALEIROS,-6.9647225688440475,41.53967395726551
pt.ine.add.PTCONT.855085,R BIBLIOTECA,4,5340-242,MACEDO DE CAVALEIROS,-6.965184341989264,41.53931850621368
pt.ine.add.PTCONT.855086,R BIBLIOTECA,4,5340-242,MACEDO DE CAVALEIROS,-6.965184341989264,41.53931850621368
pt.ine.add.PTCONT.855088,TV MELOS,,5340-102,CORTIÇOS,-7.021492081897473,41.5170975528844
pt.ine.add.PTCONT.855089,R EIROL,,5340-295,MACEDO DE CAVALEIROS,-6.97870389110829,41.537852399884564
pt.ine.add.PTCONT.855090,R BIBLIOTECA,4,5340-242,MACEDO DE CAVALEIROS,-6.965184341989264,41.53931850621368
pt.ine.add.PTCONT.855091,R BIBLIOTECA,4,5340-242,MACEDO DE CAVALEIROS,-6.965184341989264,41.53931850621368
pt.ine.add.PTCONT.855092,R BIBLIOTECA,4,5340-242,MACEDO DE CAVALEIROS,-6.965184341989264,41.53931850621368
pt.ine.add.PTCONT.855093,R BIBLIOTECA,4,5340-242,MACEDO DE CAVALEIROS,-6.965184341989264,41.53931850621368
pt.ine.add.PTCONT.855094,R BIBLIOTECA,4,5340-242,MACEDO DE CAVALEIROS,-6.965184341989264,41.53931850621368
pt.ine.add.PTCONT.855095,R BIBLIOTECA,4,5340-242,MACEDO DE CAVALEIROS,-6.965184341989264,41.53931850621368
pt.ine.add.PTCONT.855096,R BIBLIOTECA,4,5340-242,MACEDO DE CAVALEIROS,-6.965184341989264,41.53931850621368
pt.ine.add.PTCONT.855097,R IGREJA,,5340-102,CORTIÇOS,-7.020481550860782,41.51664660280448
pt.ine.add.PTCONT.855098,R NOGUEIRA,42,5340-160,LAGOA MCD,-6.769224009323715,41.4471525701434
pt.ine.add.PTCONT.855099,R PRADO,,5340-023,AMENDOEIRA,-6.991683041690653,41.58614188996951
pt.ine.add.PTCONT.855100,AV ENG CAMILO MENDONÇA,,5340-295,MACEDO DE CAVALEIROS,-6.965911805249975,41.53951496781954
pt.ine.add.PTCONT.855101,AV ENG CAMILO MENDONÇA,,5340-295,MACEDO DE CAVALEIROS,-6.965911805249975,41.53951496781954
pt.ine.add.PTCONT.855102,AV ENG CAMILO MENDONÇA,,5340-295,MACEDO DE CAVALEIROS,-6.965911805249975,41.53951496781954
pt.ine.add.PTCONT.855103,AV ENG CAMILO MENDONÇA,,5340-295,MACEDO DE CAVALEIROS,-6.965911805249975,41.53951496781954
pt.ine.add.PTCONT.855104,AV ENG CAMILO MENDONÇA,,5340-295,MACEDO DE CAVALEIROS,-6.965911805249975,41.53951496781954
pt.ine.add.PTCONT.855105,AV ENG CAMILO MENDONÇA,,5340-295,MACEDO DE CAVALEIROS,-6.965911805249975,41.53951496781954
pt.ine.add.PTCONT.855106,AV ENG CAMILO MENDONÇA,,5340-295,MACEDO DE CAVALEIROS,-6.965911805249975,41.53951496781954
pt.ine.add.PTCONT.855108,R APEADOURO,,5340-082,CASTELÃOS,-6.927375544947789,41.52387430178363
pt.ine.add.PTCONT.855109,R EIRAS,,5340-102,CORTIÇOS,-7.022122795004426,41.515942181517254
pt.ine.add.PTCONT.855110,R ESCOLA,,5340-142,FERREIRA MCD,-6.984281121872863,41.635650212955504
pt.ine.add.PTCONT.855111,LG IGREJA,,5340-180,LAMAS MCD,-6.950731623512358,41.589977639945495
pt.ine.add.PTCONT.855112,R MANUEL ANTÓNIO DE VASCONCELOS,,5340-196,MACEDO DE CAVALEIROS,-6.954042303560894,41.54313034124235
pt.ine.add.PTCONT.855113,R MANUEL ANTÓNIO DE VASCONCELOS,13,5340-196,MACEDO DE CAVALEIROS,-6.956927595055228,41.543952204698584
pt.ine.add.PTCONT.942665,,,5340-031,ARCAS,-7.020916913243922,41.628231581151525
pt.ine.add.PTCONT.855114,AV ENG CAMILO MENDONÇA,,5340-295,MACEDO DE CAVALEIROS,-6.965911805249975,41.53951496781954
pt.ine.add.PTCONT.855115,AV ENG CAMILO MENDONÇA,,5340-295,MACEDO DE CAVALEIROS,-6.965911805249975,41.53951496781954
pt.ine.add.PTCONT.855116,AV ENG CAMILO MENDONÇA,,5340-295,MACEDO DE CAVALEIROS,-6.965911805249975,41.53951496781954
pt.ine.add.PTCONT.855117,PC DQ DE LOULE,98,5340-251,MACEDO DE CAVALEIROS,-6.956936839848103,41.54145831536631
pt.ine.add.PTCONT.855214,R PACO,,5340-295,MACEDO DE CAVALEIROS,-6.978967911002613,41.53446070420294
pt.ine.add.PTCONT.855216,R DR DUARTE MORENO,1 B,5340-264,MACEDO DE CAVALEIROS,-6.964466041952172,41.533954087269855
pt.ine.add.PTCONT.855217,,,5340-470,VALE DA PORCA,-6.898333804891311,41.541546188215015
pt.ine.add.PTCONT.855219,R RIBEIRO,,5340-510,VILARINHO DO MONTE,-7.090303972162831,41.63178114460537
pt.ine.add.PTCONT.855220,R CANELHO,,5340-421,SESULFE,-7.015008135712481,41.5722265846455
pt.ine.add.PTCONT.855224,,,5340-482,VALE DE PRADOS,-6.945060110921196,41.54934936544354
pt.ine.add.PTCONT.855227,R BOMBEIROS VOLUNTARIOS,5,5340-236,MACEDO DE CAVALEIROS,-6.963004845248772,41.539899585981566
pt.ine.add.PTCONT.855228,BR CANTO,,5340-360,MURÇÓS,-6.981393845216669,41.67916170494534
pt.ine.add.PTCONT.855229,R PORTO,,5340-392,PODENCE,-6.935588544099713,41.58392361424149
pt.ine.add.PTCONT.855230,TV ALEINO GUINE,58,5340-452,TALHINHAS,-6.703478299837763,41.527304861563934
pt.ine.add.PTCONT.855231,,,5340-372,OLMOS,-6.893789543754082,41.4945797286054
pt.ine.add.PTCONT.855232,R OLIVAIS,,5340-400,SALSELAS,-6.862637034769033,41.573812957819015
pt.ine.add.PTCONT.855233,R MALHADA,,5340-520,VINHAS,-6.818948148995442,41.56365213209614
pt.ine.add.PTCONT.855234,R MALHADA,,5340-520,VINHAS,-6.817832485513875,41.564872848040594
pt.ine.add.PTCONT.855235,AV INF D HENRIQUE,10,5340-204,MACEDO DE CAVALEIROS,-6.9616375395693435,41.539300432312515
pt.ine.add.PTCONT.855236,AV INF D HENRIQUE,16,5340-204,MACEDO DE CAVALEIROS,-6.962044542751681,41.539988848699345
pt.ine.add.PTCONT.855237,BR VINHAIS,,5340-482,VALE DE PRADOS,-6.946999026397094,41.54687540315754
pt.ine.add.PTCONT.855238,,,5340-520,VINHAS,-6.812710835101032,41.537326517567095
pt.ine.add.PTCONT.855241,LG CORETO,1,5340-371,OLMOS,-6.91309808838429,41.48285639587975
pt.ine.add.PTCONT.855242,R RIBEIRO,,5340-400,SALSELAS,-6.872670368738616,41.55172079914381
pt.ine.add.PTCONT.855250,EN 102,,5340-296,MACEDO DE CAVALEIROS,-6.965688976223165,41.52458478413676
pt.ine.add.PTCONT.855251,R CONS JOSE AVELINO MOREIRA,21,5340-380,PEREDO,-6.868954950814206,41.42977134939038
pt.ine.add.PTCONT.855252,R S SEBASTIÃO,69,5340-440,TALHAS,-6.695276260776204,41.489730071313815
pt.ine.add.PTCONT.855253,R BARREIRA,,5340-440,TALHAS,-6.696806194072338,41.490397443179276
pt.ine.add.PTCONT.855449,R IRMA MARTA,,5340-092,CHACIM,-6.901221041439752,41.46956648431346
pt.ine.add.PTCONT.855452,R BIBLIOTECA,8,5340-242,MACEDO DE CAVALEIROS,-6.9647225688440475,41.53967395726551
pt.ine.add.PTCONT.855469,AV ENG CAMILO MENDONÇA,,5340-295,MACEDO DE CAVALEIROS,-6.965911805249975,41.53951496781954
pt.ine.add.PTCONT.855472,AV ENG CAMILO MENDONÇA,,5340-295,MACEDO DE CAVALEIROS,-6.965911805249975,41.53951496781954
pt.ine.add.PTCONT.855479,LG SANTO ANTO NIO,,5340-400,SALSELAS,-6.873701625997245,41.55169608597286
pt.ine.add.PTCONT.855487,,,5340-410,SANTA COMBINHA,-6.890934451991347,41.5762470123385
pt.ine.add.PTCONT.855488,R BIBLIOTECA,4,5340-242,MACEDO DE CAVALEIROS,-6.965184341989264,41.53931850621368
pt.ine.add.PTCONT.855490,R BAIRRO,,5340-422,SESULFE,-7.0011591260227695,41.557172205608744
pt.ine.add.PTCONT.855494,R BIBLIOTECA,8,5340-242,MACEDO DE CAVALEIROS,-6.9647225688440475,41.53967395726551
pt.ine.add.PTCONT.855502,R DA CANELHA,,5340-410,SANTA COMBINHA,-6.890430617287263,41.57625957425705
pt.ine.add.PTCONT.855503,,,5340-400,SALSELAS,-6.863762243677275,41.571457474749145
pt.ine.add.PTCONT.855535,R ESTAÇÃO,44,5340-152,GRIJÓ MCD,-6.980383399817828,41.50399772891221
pt.ine.add.PTCONT.855579,R COMBATENTES DA GRANDE GUERRA,35,5340-295,MACEDO DE CAVALEIROS,-6.978968666096488,41.53895526943734
pt.ine.add.PTCONT.856071,R FONTOZE,5,5340-160,LAGOA MCD,-6.770693141742426,41.44442387830258
pt.ine.add.PTCONT.855999,EN 206,,5340-173,LAMALONGA,-7.081413840862548,41.678121821271624
pt.ine.add.PTCONT.855993,R ESCOLA,,5340-012,ALA,-7.060188093841718,41.590159960237635
pt.ine.add.PTCONT.855994,R RIBEIRO,,5340-023,AMENDOEIRA,-6.991322738307845,41.584130531233185
pt.ine.add.PTCONT.855995,R MARCO,,5340-022,AMENDOEIRA,-6.962709691969347,41.568221709926085
pt.ine.add.PTCONT.855996,R CARRAPINEIRA,,5340-102,CORTIÇOS,-7.021052131233805,41.51970434705121
pt.ine.add.PTCONT.855997,R ESCOLA,,5340-101,CORTIÇOS,-7.040003928737244,41.50905469802071
pt.ine.add.PTCONT.855998,R ESCOLA,,5340-101,CORTIÇOS,-7.041367111821188,41.50990498546396
pt.ine.add.PTCONT.856000,R IGREJA,,5340-173,LAMALONGA,-7.080544038874488,41.677699701964855
pt.ine.add.PTCONT.856001,R ESCOLA,14,5340-180,LAMAS MCD,-6.952237565060746,41.592234984931814
pt.ine.add.PTCONT.856002,R FLORES,9,5340-180,LAMAS MCD,-6.9489364316724815,41.58583556767865
pt.ine.add.PTCONT.856003,R EIRAS,27,5340-190,LOMBO,-6.845485202161071,41.456891145999855
pt.ine.add.PTCONT.856025,R RIBEIRA,,5340-021,AMENDOEIRA,-6.9831065542085815,41.555840604083684
pt.ine.add.PTCONT.856026,R CEMITÉRIO,3,5340-110,CORUJAS,-6.967478356446944,41.602384387565706
pt.ine.add.PTCONT.856027,R SUL,2,5340-110,CORUJAS,-6.967929872205592,41.60195679867195
pt.ine.add.PTCONT.856028,BR S FRANCISCO DE ASSIS,91,5340-214,MACEDO DE CAVALEIROS,-6.960651935414045,41.54211750322813
pt.ine.add.PTCONT.856029,BR S FRANCISCO DE ASSIS,21,5340-214,MACEDO DE CAVALEIROS,-6.960257835798548,41.54204145550441
pt.ine.add.PTCONT.856030,AL NSA SRA DE FÁTIMA,2,5340-201,MACEDO DE CAVALEIROS,-6.963052338200411,41.538594553136164
pt.ine.add.PTCONT.856031,AL NSA SRA DE FÁTIMA,2,5340-201,MACEDO DE CAVALEIROS,-6.963052338200411,41.538594553136164
pt.ine.add.PTCONT.856032,AL NSA SRA DE FÁTIMA,2,5340-201,MACEDO DE CAVALEIROS,-6.963052338200411,41.538594553136164
pt.ine.add.PTCONT.856033,AL NSA SRA DE FÁTIMA,2,5340-201,MACEDO DE CAVALEIROS,-6.963052338200411,41.538594553136164
pt.ine.add.PTCONT.856034,AL NSA SRA DE FÁTIMA,2,5340-201,MACEDO DE CAVALEIROS,-6.963052338200411,41.538594553136164
pt.ine.add.PTCONT.856035,LG IGREJA,2,5340-371,OLMOS,-6.912179271409098,41.48141506900967
pt.ine.add.PTCONT.856036,LG BAIRRO,1,5340-380,PEREDO,-6.870035273567535,41.430818640263126
pt.ine.add.PTCONT.856037,LG IGREJA,14,5340-380,PEREDO,-6.867608033583755,41.42890118946032
pt.ine.add.PTCONT.856038,R CASTELO,,5340-392,PODENCE,-6.929417021095986,41.59402408056869
pt.ine.add.PTCONT.856039,R DIRECTOR JOÃO DE DEUS CANEDO,41,5340-440,TALHAS,-6.698160462276228,41.48980211069216
pt.ine.add.PTCONT.856040,R SEM NOME,,5340-440,TALHAS,-6.7007618564638785,41.48912326356826
pt.ine.add.PTCONT.856041,R TALHINHAS,81,5340-451,TALHINHAS,-6.730349753670745,41.531849457571994
pt.ine.add.PTCONT.856042,R SENHORA DA ASSUNÇAO,,5340-452,TALHINHAS,-6.702431420963861,41.52859734227983
pt.ine.add.PTCONT.856043,R DIREITA,34,5340-460,VALE BENFEITO,-6.984604994053818,41.48334060670843
pt.ine.add.PTCONT.856044,R IGREJA,,5340-460,VALE BENFEITO,-6.985709573240636,41.48384683275685
pt.ine.add.PTCONT.856045,,,5340-470,VALE DA PORCA,-6.895688139694717,41.54454293074429
pt.ine.add.PTCONT.856046,,,5340-470,VALE DA PORCA,-6.896210201038752,41.54481865383414
pt.ine.add.PTCONT.856047,,,5340-470,VALE DA PORCA,-6.896521123912549,41.54296727192086
pt.ine.add.PTCONT.856048,,,5340-470,VALE DA PORCA,-6.897826713912742,41.526630877517555
pt.ine.add.PTCONT.856049,EN 102,,5340-482,VALE DE PRADOS,-6.946503572412549,41.57396188636445
pt.ine.add.PTCONT.856064,R CONDADO,18,5340-051,BORNES,-7.001936025990381,41.4582210394661
pt.ine.add.PTCONT.856065,AV ESTRADA,2,5340-051,BORNES,-7.005879579059508,41.45788159883521
pt.ine.add.PTCONT.856066,R FUNDO DO POVO,,5340-060,BURGA,-7.037062500907938,41.42630974504343
pt.ine.add.PTCONT.856067,R AMOREIRA,9,5340-070,CARRAPATAS,-6.999333072368224,41.514180130532175
pt.ine.add.PTCONT.856068,R VIA CENTRAL,22,5340-070,CARRAPATAS,-6.993440199808173,41.512771338314614
pt.ine.add.PTCONT.856069,CRZT SANTO AMBROSIO,,5340-082,CASTELÃOS,-6.915494437630968,41.521120065460245
pt.ine.add.PTCONT.856070,R PRINCIPAL,16,5340-152,GRIJÓ MCD,-6.976964926418181,41.4955270160651
pt.ine.add.PTCONT.856072,BR PEREIRINHO,,5340-173,LAMALONGA,-7.076373721689126,41.68155989774102
pt.ine.add.PTCONT.856073,BR S FRANCISCO DE ASSIS,3,5340-214,MACEDO DE CAVALEIROS,-6.961921608256483,41.54348097607728
pt.ine.add.PTCONT.856074,R CASTANHEIROS,,5340-206,MACEDO DE CAVALEIROS,-6.95309666657522,41.539114059301276
pt.ine.add.PTCONT.856075,R MIRA SERRA,9,5340-213,MACEDO DE CAVALEIROS,-6.9711535496438435,41.54392578025723
pt.ine.add.PTCONT.856076,R SOL,3 B,5340-200,MACEDO DE CAVALEIROS,-6.965224529511072,41.533754711523784
pt.ine.add.PTCONT.856077,R SOL,3 B,5340-200,MACEDO DE CAVALEIROS,-6.965224529511072,41.533754711523784
pt.ine.add.PTCONT.856078,R DR JOÃO GONÇALVES,38,5340-261,MACEDO DE CAVALEIROS,-6.964189913678409,41.53065597372366
pt.ine.add.PTCONT.856079,AV COMEND ANTÓNIO JOAQUIM FERREIRA,33,5340-241,MACEDO DE CAVALEIROS,-6.962718132827899,41.53187449192855
pt.ine.add.PTCONT.856080,R CASTELO,,5340-392,PODENCE,-6.929417021095986,41.59402408056869
pt.ine.add.PTCONT.856081,R CASTELO,,5340-392,PODENCE,-6.929417021095986,41.59402408056869
pt.ine.add.PTCONT.856082,R LINHAR,,5340-392,PODENCE,-6.927131335075483,41.59117303658224
pt.ine.add.PTCONT.856083,R CENTRAL,1,5340-392,PODENCE,-6.928859457835454,41.58788687910775
pt.ine.add.PTCONT.856084,R CENTRAL,,5340-392,PODENCE,-6.927890132728668,41.58906517911899
pt.ine.add.PTCONT.856085,LG FUNDO DO POÇO,,5340-400,SALSELAS,-6.861570911890581,41.57254068561862
pt.ine.add.PTCONT.856086,EM 565,,5340-482,VALE DE PRADOS,-6.945893451906732,41.55293237661447
pt.ine.add.PTCONT.856087,,,5340-482,VALE DE PRADOS,-6.944367172590669,41.55184518606166
pt.ine.add.PTCONT.856088,,,5340-482,VALE DE PRADOS,-6.946444884846697,41.54965177903618
pt.ine.add.PTCONT.856089,R MOREIRINHAS,,5340-490,VILAR DO MONTE MCD,-6.94932156714937,41.50429442333615
pt.ine.add.PTCONT.856090,R S MARTINHO,18,5340-490,VILAR DO MONTE MCD,-6.947791558909537,41.505440128474575
pt.ine.add.PTCONT.856091,R JOSE MANUEL FIGUEIREDO,,5340-490,VILAR DO MONTE MCD,-6.948331754069239,41.50471640312141
pt.ine.add.PTCONT.856128,R GIL VICENTE,38,5340-271,MACEDO DE CAVALEIROS,-6.966047153711804,41.53798573621419
pt.ine.add.PTCONT.856129,R GIL VICENTE,38,5340-271,MACEDO DE CAVALEIROS,-6.966047153711804,41.53798573621419
pt.ine.add.PTCONT.856130,R ALEGRIA,15,5340-207,MACEDO DE CAVALEIROS,-6.949250724118549,41.5318446672307
pt.ine.add.PTCONT.856131,AL NSA SRA DE FÁTIMA,2,5340-201,MACEDO DE CAVALEIROS,-6.963052338200411,41.538594553136164
pt.ine.add.PTCONT.856132,AL NSA SRA DE FÁTIMA,2,5340-201,MACEDO DE CAVALEIROS,-6.963052338200411,41.538594553136164
pt.ine.add.PTCONT.856133,BR S FRANCISCO XAVIER NORTE,4,5340-351,MORAIS,-6.765262914392278,41.496697224240464
pt.ine.add.PTCONT.856134,BR S FRANCISCO XAVIER,1,5340-351,MORAIS,-6.7663063725326476,41.49605237267952
pt.ine.add.PTCONT.856135,R IGREJA,,5340-421,SESULFE,-7.0151441053201475,41.57338035860652
pt.ine.add.PTCONT.856136,BR QUINTA SECA,,5340-510,VILARINHO DO MONTE,-7.092031244526358,41.6318328159866
pt.ine.add.PTCONT.856137,BR QUINTA SECA,,5340-510,VILARINHO DO MONTE,-7.091840709668424,41.631741055416974
pt.ine.add.PTCONT.856138,,,5340-520,VINHAS,-6.810467162364071,41.536877565300834
pt.ine.add.PTCONT.856194,R CIMA,,5340-060,BURGA,-7.0364267502713815,41.42712302806553
pt.ine.add.PTCONT.856197,R PADRAO NORTE,36,5340-308,MACEDO DE CAVALEIROS,-6.9543552111978135,41.53711917488637
pt.ine.add.PTCONT.856224,R BEATO BENTO DE CASTRO,15,5340-482,VALE DE PRADOS,-6.942416646927731,41.55036643051603
pt.ine.add.PTCONT.856253,R COELHO,8,5340-253,MACEDO DE CAVALEIROS,-6.973790776416916,41.533174852926145
pt.ine.add.PTCONT.856257,R DIREITA,13,5340-500,VILARINHO DE AGROCHÃO,-7.05541651398479,41.67507191058008
pt.ine.add.PTCONT.856286,R SANTO ANTÓNIO,18,5340-040,BAGUEIXE,-6.781493996854559,41.566135015260365
pt.ine.add.PTCONT.856287,R SANTO ANTÓNIO,5,5340-040,BAGUEIXE,-6.781922885070894,41.565113664221315
pt.ine.add.PTCONT.856288,TV SANTO ANTÓNIO,2,5340-160,LAGOA MCD,-6.772509071166886,41.444562420306326
pt.ine.add.PTCONT.856538,AV D NUNO ÁLVARES PEREIRA,,5340-202,MACEDO DE CAVALEIROS,-6.95627361389014,41.533753485861524
pt.ine.add.PTCONT.856539,AV D NUNO ÁLVARES PEREIRA,,5340-202,MACEDO DE CAVALEIROS,-6.95627361389014,41.533753485861524
pt.ine.add.PTCONT.856540,AV D NUNO ÁLVARES PEREIRA,,5340-202,MACEDO DE CAVALEIROS,-6.95627361389014,41.533753485861524
pt.ine.add.PTCONT.856541,AV D NUNO ÁLVARES PEREIRA,,5340-202,MACEDO DE CAVALEIROS,-6.95627361389014,41.533753485861524
pt.ine.add.PTCONT.856542,AV D NUNO ÁLVARES PEREIRA,,5340-202,MACEDO DE CAVALEIROS,-6.95627361389014,41.533753485861524
pt.ine.add.PTCONT.856543,R ALBERTO CELEIROS,,5340-295,MACEDO DE CAVALEIROS,-6.95469848563543,41.54263286933792
pt.ine.add.PTCONT.856565,R CAPELA,,5340-031,ARCAS,-7.037891598843623,41.646977673868484
pt.ine.add.PTCONT.856546,R EIRO,,5340-082,CASTELÃOS,-6.941204206135715,41.517184756163225
pt.ine.add.PTCONT.856547,R D LUIS,24,5340-249,MACEDO DE CAVALEIROS,-6.958471151453423,41.54143798575417
pt.ine.add.PTCONT.856548,R D LUIS,24,5340-249,MACEDO DE CAVALEIROS,-6.958471151453423,41.54143798575417
pt.ine.add.PTCONT.856549,R GIL VICENTE,42,5340-271,MACEDO DE CAVALEIROS,-6.966309605470696,41.538051424697535
pt.ine.add.PTCONT.856550,R GIL VICENTE,13,5340-271,MACEDO DE CAVALEIROS,-6.9659457983348165,41.537624564912036
pt.ine.add.PTCONT.856553,R CABEÇO DAS VINHAS,,5340-021,AMENDOEIRA,-6.98313696872828,41.55818182885644
pt.ine.add.PTCONT.856554,BR CARVALHEIRA,,5340-024,AMENDOEIRA,-6.976723321132545,41.55350768814183
pt.ine.add.PTCONT.856555,AV ESTRADA,30,5340-051,BORNES,-7.010996166164843,41.453366749738784
pt.ine.add.PTCONT.856556,R EIRO,,5340-082,CASTELÃOS,-6.939379144681418,41.51676066352156
pt.ine.add.PTCONT.856557,R CRUZ,24,5340-190,LOMBO,-6.854183002205556,41.457051213591264
pt.ine.add.PTCONT.856558,R CASTELO,22,5340-190,LOMBO,-6.8430821379892475,41.45978139516642
pt.ine.add.PTCONT.856559,R D LUIS,39,5340-249,MACEDO DE CAVALEIROS,-6.958086269790713,41.54151508518838
pt.ine.add.PTCONT.856560,R D LUIS,39,5340-249,MACEDO DE CAVALEIROS,-6.958086269790713,41.54151508518838
pt.ine.add.PTCONT.856561,BC CANTO,3,5340-172,LAMALONGA,-7.106635611626707,41.692341137154074
pt.ine.add.PTCONT.856562,R BELA VISTA,56,5340-208,MACEDO DE CAVALEIROS,-6.968751683534038,41.542199810601936
pt.ine.add.PTCONT.856563,PRADO SN,SN,5340-309,MACEDO DE CAVALEIROS,-6.95140093832666,41.5341807011232
pt.ine.add.PTCONT.856564,R CAPELA,,5340-031,ARCAS,-7.037849603129305,41.64803967772743
pt.ine.add.PTCONT.856566,R VEIGA,5,5340-152,GRIJÓ MCD,-6.974341015704484,41.49895800060056
pt.ine.add.PTCONT.856567,R CARRASQUEIRAS,1,5340-172,LAMALONGA,-7.106391985657605,41.69179875792554
pt.ine.add.PTCONT.856572,R CABECEIRO,1B,5340-152,GRIJÓ MCD,-6.975601055184585,41.4981423563533
pt.ine.add.PTCONT.856573,EN 206,,5340-173,LAMALONGA,-7.075980400643189,41.67990866048362
pt.ine.add.PTCONT.856574,R AGUEDO DE OLIVEIRA,,5340-227,MACEDO DE CAVALEIROS,-6.95826932084634,41.53934709870569
pt.ine.add.PTCONT.856576,R CANTO,,5340-132,ESPADANEDO MCD,-6.9428236698124755,41.66319319415387
pt.ine.add.PTCONT.856577,R ESCOLA,,5340-290,MACEDO DE CAVALEIROS,-6.956332000956325,41.55630797178472
pt.ine.add.PTCONT.856579,R PRINCIPAL,,5340-013,ALA,-7.0587075627484905,41.589038700183515
pt.ine.add.PTCONT.856580,,,5340-031,ARCAS,-7.073683343735908,41.6442159786742
pt.ine.add.PTCONT.856581,EN 206,,5340-173,LAMALONGA,-7.081772748246843,41.67820613576718
pt.ine.add.PTCONT.856582,TV RIBEIRO,,5340-173,LAMALONGA,-7.0795384635960685,41.678239694442816
pt.ine.add.PTCONT.856583,R PADRAO NORTE,46,5340-308,MACEDO DE CAVALEIROS,-6.953780128018105,41.537113277972445
pt.ine.add.PTCONT.856585,R OUTEIRO,,5340-102,CORTIÇOS,-7.024021616710437,41.51839148704159
pt.ine.add.PTCONT.856586,R NOGUEIRA,8,5340-160,LAGOA MCD,-6.767027281062464,41.45033178627611
pt.ine.add.PTCONT.856589,BR CRUZEIRO,6,5340-160,LAGOA MCD,-6.772314878844418,41.445838636797134
pt.ine.add.PTCONT.856590,R EIROL,,5340-295,MACEDO DE CAVALEIROS,-6.978555661747766,41.53742774390639
pt.ine.add.PTCONT.856592,R IGREJA,9,5340-102,CORTIÇOS,-7.020740274984791,41.51692821787226
pt.ine.add.PTCONT.856593,LG SANTA CATARINA,,5340-174,LAMALONGA,-7.105134672759561,41.67947988428036
pt.ine.add.PTCONT.856595,BR SUECIA,,5340-210,MACEDO DE CAVALEIROS,-6.957144622858794,41.547186698209025
pt.ine.add.PTCONT.856597,R MOREIRINHAS,3,5340-051,BORNES,-6.999218511897298,41.46718896780193
pt.ine.add.PTCONT.856720,,,5340-470,VALE DA PORCA,-6.899315266126544,41.543501486267544
pt.ine.add.PTCONT.856724,R CARRASQUEIRAS,,5340-400,SALSELAS,-6.8443496406441,41.523270855974665
pt.ine.add.PTCONT.856727,R CAMINHO DOS OLMOS,,5340-392,PODENCE,-6.930496112679764,41.59339612856424
pt.ine.add.PTCONT.856728,EN 102,,5340-481,VALE DE PRADOS,-6.948173832061958,41.57310577390928
pt.ine.add.PTCONT.856729,LG AMOREIRA,109,5340-451,TALHINHAS,-6.734624385297874,41.5330989908051
pt.ine.add.PTCONT.856730,R RIBEIRO,,5340-510,VILARINHO DO MONTE,-7.090411962860077,41.63178212428873
pt.ine.add.PTCONT.856731,AV COMEND ANTÓNIO JOAQUIM FERREIRA,16,5340-241,MACEDO DE CAVALEIROS,-6.963308187700128,41.53304195683439
pt.ine.add.PTCONT.856732,AV COMEND ANTÓNIO JOAQUIM FERREIRA,16,5340-241,MACEDO DE CAVALEIROS,-6.963308187700128,41.53304195683439
pt.ine.add.PTCONT.856733,AV COMEND ANTÓNIO JOAQUIM FERREIRA,16,5340-241,MACEDO DE CAVALEIROS,-6.963308187700128,41.53304195683439
pt.ine.add.PTCONT.856734,R CAMINHO DE LAMAS,4,5340-392,PODENCE,-6.929414600366619,41.590926862834394
pt.ine.add.PTCONT.856736,R MALHADA,,5340-520,VINHAS,-6.818310806675477,41.564932340066996
pt.ine.add.PTCONT.856738,AV INF D HENRIQUE,29,5340-204,MACEDO DE CAVALEIROS,-6.962780089388355,41.54040149781464
pt.ine.add.PTCONT.856739,R CAMILO PESSANHA,9B,5340-254,MACEDO DE CAVALEIROS,-6.967200816294807,41.53446804213629
pt.ine.add.PTCONT.856740,LG TANQUE,34,5340-452,TALHINHAS,-6.702586105587622,41.52701465744864
pt.ine.add.PTCONT.856741,R PRINCIPAL,,5340-431,SOUTELO MOURISCO,-6.912624503697776,41.68949899049554
pt.ine.add.PTCONT.856743,BR S FRANCISCO XAVIER SUL,,5340-351,MORAIS,-6.765776700517641,41.49561390611639
pt.ine.add.PTCONT.856744,,,5340-520,VINHAS,-6.811534451788296,41.538015275071686
pt.ine.add.PTCONT.856745,,,5340-520,VINHAS,-6.812197038363,41.53784281901553
pt.ine.add.PTCONT.856747,R DR FRANCISCO SA CARNEIRO,18,5340-269,MACEDO DE CAVALEIROS,-6.9600953643144345,41.539095635159896
pt.ine.add.PTCONT.856748,R BARREIRO,,5340-351,MORAIS,-6.769820972625041,41.493492067779925
pt.ine.add.PTCONT.856749,R CIMO DO POVO,,5340-372,OLMOS,-6.897312639172086,41.49319507234928
pt.ine.add.PTCONT.856750,R FUNDO DO POVO,,5340-372,OLMOS,-6.895140175920932,41.49219931795557
pt.ine.add.PTCONT.856751,R ALEGRIA,6,5340-371,OLMOS,-6.913818694477411,41.48273798709781
pt.ine.add.PTCONT.856753,R CIMA,,5340-351,MORAIS,-6.772827536806378,41.49287941534803
pt.ine.add.PTCONT.856754,R DR RAUL REGO,1,5340-351,MORAIS,-6.775138488394297,41.49116904239551
pt.ine.add.PTCONT.856755,R PRINCIPAL,9,5340-371,OLMOS,-6.9110529569909565,41.482735642995046
pt.ine.add.PTCONT.856756,R OUTEIRO,,5340-440,TALHAS,-6.698764255058989,41.49228560989188
pt.ine.add.PTCONT.856757,R CENTRAL,65,5340-440,TALHAS,-6.698605592920739,41.49187847269902
pt.ine.add.PTCONT.856758,R FONTES,,5340-440,TALHAS,-6.698341721181403,41.49081276608898
pt.ine.add.PTCONT.856762,VL CORDEIRO,14,5340-280,MACEDO DE CAVALEIROS,-6.957461049947026,41.533027340336076
pt.ine.add.PTCONT.856763,R PESSARNA,,5340-351,MORAIS,-6.777179293636307,41.49092301645302
pt.ine.add.PTCONT.856764,R CENTRAL,25,5340-440,TALHAS,-6.697246029516141,41.49162741376603
pt.ine.add.PTCONT.856765,,,5340-470,VALE DA PORCA,-6.89716295646596,41.5445047724434
pt.ine.add.PTCONT.856766,,,5340-470,VALE DA PORCA,-6.897970206042984,41.544279355385925
pt.ine.add.PTCONT.856769,LG IGREJA,1,5340-380,PEREDO,-6.868108106846013,41.429023737691345
pt.ine.add.PTCONT.856953,AV D NUNO ÁLVARES PEREIRA,,5340-202,MACEDO DE CAVALEIROS,-6.95627361389014,41.533753485861524
pt.ine.add.PTCONT.856954,R VIRIATO MARTINS,,5340-281,MACEDO DE CAVALEIROS,-6.9598955715371975,41.5408672975468
pt.ine.add.PTCONT.856958,R SOLITE,9,5340-160,LAGOA MCD,-6.76790572925163,41.445534287481905
pt.ine.add.PTCONT.856959,R PELAMES,25,5340-051,BORNES,-6.995953017471485,41.463627284939044
pt.ine.add.PTCONT.856972,RIBEIRINHA,,5340-482,VALE DE PRADOS,-6.952039504221534,41.55308571056993
pt.ine.add.PTCONT.856979,R DA IGREJA,8,5340-520,VINHAS,-6.817570181078339,41.56716572889343
pt.ine.add.PTCONT.856989,R S SEBASTIÃO,17,5340-040,BAGUEIXE,-6.783143150055987,41.56408359982456
pt.ine.add.PTCONT.856990,AV NSA SRA DE FÁTIMA,21,5340-500,VILARINHO DE AGROCHÃO,-7.064355352906252,41.683519532550704
pt.ine.add.PTCONT.857007,LG ESTAÇÃO,2,5340-215,MACEDO DE CAVALEIROS,-6.95575748202274,41.53380222364462
pt.ine.add.PTCONT.857008,LG ESTAÇÃO,2,5340-215,MACEDO DE CAVALEIROS,-6.95575748202274,41.53380222364462
pt.ine.add.PTCONT.857009,R ESTAÇÃO,3,5340-152,GRIJÓ MCD,-6.9766839975330655,41.50324029815085
pt.ine.add.PTCONT.857010,R SANTO ANTÓNIO,17,5340-160,LAGOA MCD,-6.774546861168425,41.44496465929101
pt.ine.add.PTCONT.857267,R ÁLVARO DE CASTRO,29,5340-231,MACEDO DE CAVALEIROS,-6.961048149380778,41.54207652494683
pt.ine.add.PTCONT.857269,R GIESTAIS,5,5340-110,CORUJAS,-6.964884153721294,41.601898876176776
pt.ine.add.PTCONT.857270,R CEMITÉRIO,10,5340-110,CORUJAS,-6.966382613094651,41.60261636501425
pt.ine.add.PTCONT.857271,R S SEBASTIÃO,,5340-171,LAMALONGA,-7.080350570312596,41.695461597841714
pt.ine.add.PTCONT.857272,R SAGRADO,9,5340-152,GRIJÓ MCD,-6.975702277601092,41.502546146850946
pt.ine.add.PTCONT.857273,R D HERMINIA MARTINS,57,5340-251,MACEDO DE CAVALEIROS,-6.957724128691525,41.54099818120381
pt.ine.add.PTCONT.857275,BR CARVALHEIRA,,5340-024,AMENDOEIRA,-6.975475308002368,41.55090210839749
pt.ine.add.PTCONT.857276,R CRUZ,12,5340-190,LOMBO,-6.850749548359973,41.45819246103954
pt.ine.add.PTCONT.857277,R BELA VISTA,16,5340-208,MACEDO DE CAVALEIROS,-6.968163389539864,41.54092435004794
pt.ine.add.PTCONT.857279,R IGREJA,,5340-014,ALA,-7.058751322035188,41.61676988651937
pt.ine.add.PTCONT.857280,R CAPELA,,5340-031,ARCAS,-7.037509178132543,41.64758626197459
pt.ine.add.PTCONT.857281,R CONDADO,2,5340-051,BORNES,-7.002627273069583,41.458389901910905
pt.ine.add.PTCONT.857282,R FEIRA,,5340-092,CHACIM,-6.897320431155127,41.471361381471645
pt.ine.add.PTCONT.857283,R SUL,15,5340-110,CORUJAS,-6.967961307761084,41.6015429578031
pt.ine.add.PTCONT.857284,R LEBRE,,5340-253,MACEDO DE CAVALEIROS,-6.972002336055173,41.53378234141854
pt.ine.add.PTCONT.857287,R CARRASQUEIRAS,17,5340-172,LAMALONGA,-7.107665493409522,41.69178311891297
pt.ine.add.PTCONT.857288,R EIRAS,6,5340-190,LOMBO,-6.846019246444231,41.45772545762473
pt.ine.add.PTCONT.857291,R LAMELA,,5340-152,GRIJÓ MCD,-6.975526166391389,41.49831267146789
pt.ine.add.PTCONT.857292,R VALE COLMEIAS,2,5340-190,LOMBO,-6.851566059098408,41.456842012581085
pt.ine.add.PTCONT.857294,R CARVALHEIRA,,5340-060,BURGA,-7.038930003588447,41.42979396906416
pt.ine.add.PTCONT.857295,R IGREJA,,5340-132,ESPADANEDO MCD,-6.941410360084694,41.66375444603953
pt.ine.add.PTCONT.857296,LG CAPELA,8,5340-152,GRIJÓ MCD,-6.975878717997959,41.50003591199054
pt.ine.add.PTCONT.857297,R AMARGURA,6,5340-152,GRIJÓ MCD,-6.976223084456557,41.5002014419686
pt.ine.add.PTCONT.857298,R PRINCIPAL,54,5340-152,GRIJÓ MCD,-6.975815641535441,41.500215349722765
pt.ine.add.PTCONT.857302,TV IGREJA,9,5340-092,CHACIM,-6.902436131976573,41.4692463577474
pt.ine.add.PTCONT.857303,TV IGREJA,,5340-092,CHACIM,-6.902653601795493,41.46914064082174
pt.ine.add.PTCONT.857304,R TERREIRO,11,5340-290,MACEDO DE CAVALEIROS,-6.957430417729201,41.55588703943663
pt.ine.add.PTCONT.857305,R CASTANHEIRA,,5340-295,MACEDO DE CAVALEIROS,-6.978080594317206,41.53842197170251
pt.ine.add.PTCONT.857306,R RAINHA D MARIA I,16,5340-213,MACEDO DE CAVALEIROS,-6.971916609546915,41.54481583737774
pt.ine.add.PTCONT.857310,R CAPELA,,5340-013,ALA,-7.060802991983737,41.59068790146348
pt.ine.add.PTCONT.857311,,,5340-031,ARCAS,-7.073255975395194,41.64539148934423
pt.ine.add.PTCONT.857312,R TRINTA,23,5340-092,CHACIM,-6.904076111872937,41.469245886826016
pt.ine.add.PTCONT.857313,R SOBREIRO,,5340-092,CHACIM,-6.900586531737528,41.465778156993274
pt.ine.add.PTCONT.857314,R CALVÁRIO,,5340-131,ESPADANEDO MCD,-6.918220594666022,41.65124905867586
pt.ine.add.PTCONT.857315,R PRINCIPAL,1,5340-152,GRIJÓ MCD,-6.979418870593222,41.491536038451024
pt.ine.add.PTCONT.857317,R SOBREIRO,,5340-092,CHACIM,-6.90255697014053,41.466654601756964
pt.ine.add.PTCONT.857318,R PADRAO SUL,20,5340-203,MACEDO DE CAVALEIROS,-6.957299339475414,41.53666312668281
pt.ine.add.PTCONT.857321,LG FONTE,2,5340-070,CARRAPATAS,-6.999163318516553,41.513611229205026
pt.ine.add.PTCONT.857322,R NOGUEIRA,1,5340-102,CORTIÇOS,-7.022687369026172,41.51725315898403
pt.ine.add.PTCONT.857323,R REFOIO,,5340-174,LAMALONGA,-7.104453091184267,41.679293717514604
pt.ine.add.PTCONT.857325,R ESTRADA,,5340-142,FERREIRA MCD,-6.984375226653905,41.63778496425904
pt.ine.add.PTCONT.857326,R S FILIPE,12,5340-160,LAGOA MCD,-6.768404676850675,41.44627850488929
pt.ine.add.PTCONT.857327,R S FILIPE,14,5340-160,LAGOA MCD,-6.768223340445402,41.446366389373516
pt.ine.add.PTCONT.857328,R MIGUEL TORGA,,5340-195,MACEDO DE CAVALEIROS,-6.9567327084503825,41.548091842537
pt.ine.add.PTCONT.857329,R MIGUEL TORGA,,5340-195,MACEDO DE CAVALEIROS,-6.9567327084503825,41.548091842537
pt.ine.add.PTCONT.857330,R MIGUEL TORGA,1 2,5340-195,MACEDO DE CAVALEIROS,-6.9567327084503825,41.548091842537
pt.ine.add.PTCONT.857331,R MIGUEL TORGA,,5340-195,MACEDO DE CAVALEIROS,-6.9567327084503825,41.548091842537
pt.ine.add.PTCONT.857332,R CARRICAL,,5340-023,AMENDOEIRA,-6.991968713862426,41.58285844756867
pt.ine.add.PTCONT.857333,LG IGREJA,15,5340-160,LAGOA MCD,-6.769490146591008,41.44530098089118
pt.ine.add.PTCONT.857334,R ESCOLA,28,5340-180,LAMAS MCD,-6.953380537534932,41.59335414760262
pt.ine.add.PTCONT.857335,R SANTA BARBARA,34,5340-234,MACEDO DE CAVALEIROS,-6.97450230171977,41.538269322134184
pt.ine.add.PTCONT.857338,R CENTRAL,5,5340-102,CORTIÇOS,-7.0209403911829,41.51643495459028
pt.ine.add.PTCONT.857339,R MANUEL ANTÓNIO DE VASCONCELOS,,5340-196,MACEDO DE CAVALEIROS,-6.958301797423035,41.544173335449265
pt.ine.add.PTCONT.857340,R ALEM,,5340-022,AMENDOEIRA,-6.969663918007063,41.568184252318005
pt.ine.add.PTCONT.857341,TV MINA,,5340-082,CASTELÃOS,-6.934323541091543,41.518724872547054
pt.ine.add.PTCONT.857484,,,5340-353,MORAIS,-6.819179449487295,41.50427664401681
pt.ine.add.PTCONT.857450,PC PADRE CALADO,8,5340-351,MORAIS,-6.776372365355205,41.49057136439691
pt.ine.add.PTCONT.857451,R VEIGA,,5340-400,SALSELAS,-6.84106590451616,41.52874416502068
pt.ine.add.PTCONT.857452,R CIMA DO POVO,,5340-400,SALSELAS,-6.840331518776545,41.52711527595395
pt.ine.add.PTCONT.857454,AL NSA SRA DE FÁTIMA,15,5340-201,MACEDO DE CAVALEIROS,-6.963595872038691,41.53835698666194
pt.ine.add.PTCONT.857455,AL NSA SRA DE FÁTIMA,15,5340-201,MACEDO DE CAVALEIROS,-6.963595872038691,41.53835698666194
pt.ine.add.PTCONT.857456,AL NSA SRA DE FÁTIMA,15,5340-201,MACEDO DE CAVALEIROS,-6.963595872038691,41.53835698666194
pt.ine.add.PTCONT.857457,,,5340-470,VALE DA PORCA,-6.898126323837341,41.54363277845761
pt.ine.add.PTCONT.857458,,,5340-470,VALE DA PORCA,-6.896985919733973,41.54058633460069
pt.ine.add.PTCONT.857460,AL NSA SRA DE FÁTIMA,15,5340-201,MACEDO DE CAVALEIROS,-6.963595872038691,41.53835698666194
pt.ine.add.PTCONT.857463,,,5340-410,SANTA COMBINHA,-6.889387399853469,41.576887539643884
pt.ine.add.PTCONT.857465,BR COSTA,,5340-510,VILARINHO DO MONTE,-7.090671153559307,41.632081589616696
pt.ine.add.PTCONT.857467,R ALEGRIA,1,5340-207,MACEDO DE CAVALEIROS,-6.949817064087265,41.53232768565439
pt.ine.add.PTCONT.857468,R CENTRO,,5340-421,SESULFE,-7.014905370631646,41.57192846869297
pt.ine.add.PTCONT.857470,R AGUEDO DE OLIVEIRA,,5340-227,MACEDO DE CAVALEIROS,-6.95857113465325,41.53922413230171
pt.ine.add.PTCONT.857471,R AGUEDO DE OLIVEIRA,,5340-227,MACEDO DE CAVALEIROS,-6.95857113465325,41.53922413230171
pt.ine.add.PTCONT.857472,R AGUEDO DE OLIVEIRA,,5340-227,MACEDO DE CAVALEIROS,-6.95857113465325,41.53922413230171
pt.ine.add.PTCONT.857473,R AGUEDO DE OLIVEIRA,,5340-227,MACEDO DE CAVALEIROS,-6.95857113465325,41.53922413230171
pt.ine.add.PTCONT.857474,R AGUEDO DE OLIVEIRA,,5340-227,MACEDO DE CAVALEIROS,-6.95857113465325,41.53922413230171
pt.ine.add.PTCONT.857475,R CAMILO CASTELO BRANCO,,5340-237,MACEDO DE CAVALEIROS,-6.955293400572707,41.532302878960586
pt.ine.add.PTCONT.857476,R CAMILO CASTELO BRANCO,,5340-237,MACEDO DE CAVALEIROS,-6.955293400572707,41.532302878960586
pt.ine.add.PTCONT.857477,TV CASA DO POVO,113,5340-451,TALHINHAS,-6.7344626893836885,41.532817916403125
pt.ine.add.PTCONT.857478,R AGUEDO DE OLIVEIRA,,5340-227,MACEDO DE CAVALEIROS,-6.95857113465325,41.53922413230171
pt.ine.add.PTCONT.857479,R CAMILO CASTELO BRANCO,,5340-237,MACEDO DE CAVALEIROS,-6.955293400572707,41.532302878960586
pt.ine.add.PTCONT.857480,R CAMILO CASTELO BRANCO,,5340-237,MACEDO DE CAVALEIROS,-6.955293400572707,41.532302878960586
pt.ine.add.PTCONT.857481,R CAMILO CASTELO BRANCO,,5340-237,MACEDO DE CAVALEIROS,-6.955293400572707,41.532302878960586
pt.ine.add.PTCONT.857482,R CAMILO CASTELO BRANCO,,5340-237,MACEDO DE CAVALEIROS,-6.955293400572707,41.532302878960586
pt.ine.add.PTCONT.857483,,,5340-482,VALE DE PRADOS,-6.950085141992989,41.5472043147834
pt.ine.add.PTCONT.857485,LUGAR DO LOMBO DO PEREIRO,,5340-360,MURÇÓS,-6.980790700976997,41.677291963741744
pt.ine.add.PTCONT.857487,R MALHADA,,5340-520,VINHAS,-6.8187892402113075,41.56380337440558
pt.ine.add.PTCONT.857489,R SOL,18A,5340-261,MACEDO DE CAVALEIROS,-6.965628461061869,41.533947888417984
pt.ine.add.PTCONT.857490,R BARREIRO,,5340-351,MORAIS,-6.769511322731902,41.49284014123642
pt.ine.add.PTCONT.857492,R COMEND COSTA PEREIRA,2,5340-380,PEREDO,-6.872202468929237,41.43258012691438
pt.ine.add.PTCONT.857493,R FONTES,19,5340-440,TALHAS,-6.69809460035078,41.49170103054964
pt.ine.add.PTCONT.857497,R PESSARNA,8,5340-351,MORAIS,-6.776416820402273,41.491310180126355
pt.ine.add.PTCONT.857498,BR CARRIS VIA DIREITA,,5340-351,MORAIS,-6.7812148315419885,41.49149273349098
pt.ine.add.PTCONT.857499,R PRINCIPAL,99,5340-460,VALE BENFEITO,-6.987192924915518,41.478486438940394
pt.ine.add.PTCONT.857501,CAM GINCO,,5340-280,MACEDO DE CAVALEIROS,-6.96021876585825,41.53093966423717
pt.ine.add.PTCONT.857502,R SEM NOME,,5340-440,TALHAS,-6.695958636784362,41.49027881202568
pt.ine.add.PTCONT.857721,R ANTÓNIO JOSE MIRANDA,19,5340-233,MACEDO DE CAVALEIROS,-6.962347095485898,41.54115338861944
pt.ine.add.PTCONT.857728,R AGUEDO DE OLIVEIRA,,5340-227,MACEDO DE CAVALEIROS,-6.95857113465325,41.53922413230171
pt.ine.add.PTCONT.857734,LOMBO DO VALE,,5340-082,CASTELÃOS,-6.934904367447491,41.52685214915686
pt.ine.add.PTCONT.857735,R PRINCIPAL,34,5340-460,VALE BENFEITO,-6.981033999120502,41.48756361620693
pt.ine.add.PTCONT.857744,R S MARCOS,,5340-082,CASTELÃOS,-6.933562439441575,41.51582678608684
pt.ine.add.PTCONT.857747,R CARRASQUEIRAS,,5340-400,SALSELAS,-6.844220206775501,41.52315235927221
pt.ine.add.PTCONT.857752,R CANELHO,,5340-421,SESULFE,-7.0150776987288985,41.57166904227475
pt.ine.add.PTCONT.857753,R AGUEDO DE OLIVEIRA,,5340-227,MACEDO DE CAVALEIROS,-6.95857113465325,41.53922413230171
pt.ine.add.PTCONT.857783,R ESTAÇÃO,21,5340-152,GRIJÓ MCD,-6.979913503280207,41.50415508298882
pt.ine.add.PTCONT.857853,R FR CASIMIRO,7,5340-270,MACEDO DE CAVALEIROS,-6.9649541188093655,41.538127697442924
pt.ine.add.PTCONT.857851,R MIRA SERRA,11,5340-213,MACEDO DE CAVALEIROS,-6.97093899797323,41.543860586979456
pt.ine.add.PTCONT.857852,R JUVENTUDE,29,5340-243,MACEDO DE CAVALEIROS,-6.9661974113340035,41.53895964590326
pt.ine.add.PTCONT.857854,AV D NUNO ÁLVARES PEREIRA,11,5340-202,MACEDO DE CAVALEIROS,-6.957750860551721,41.53555130128196
pt.ine.add.PTCONT.857855,AV D NUNO ÁLVARES PEREIRA,11,5340-202,MACEDO DE CAVALEIROS,-6.957750860551721,41.53555130128196
pt.ine.add.PTCONT.857856,R CAMILO CASTELO BRANCO,2,5340-237,MACEDO DE CAVALEIROS,-6.956058392519483,41.53306701194865
pt.ine.add.PTCONT.857857,R LACOEIRO,19,5340-295,MACEDO DE CAVALEIROS,-6.9821799686086505,41.534420871102434
pt.ine.add.PTCONT.857858,R SOL,20,5340-200,MACEDO DE CAVALEIROS,-6.966147823991082,41.53371906770713
pt.ine.add.PTCONT.857859,R SOL,20,5340-200,MACEDO DE CAVALEIROS,-6.966147823991082,41.53371906770713
pt.ine.add.PTCONT.857860,R DR ARMANDO PIRES,13 A,5340-255,MACEDO DE CAVALEIROS,-6.966879459399778,41.535014000879414
pt.ine.add.PTCONT.857861,AV D NUNO ALVARES PEREIRA,2,5340-202,MACEDO DE CAVALEIROS,-6.957022827504339,41.534067272605455
pt.ine.add.PTCONT.857862,AV D NUNO ALVARES PEREIRA,2A,5340-202,MACEDO DE CAVALEIROS,-6.957022827504339,41.534067272605455
pt.ine.add.PTCONT.857863,R DR RAUL REGO,3,5340-351,MORAIS,-6.775077126211404,41.49124034619573
pt.ine.add.PTCONT.857864,R PESSARNA,9,5340-351,MORAIS,-6.777896987942716,41.4915347143246
pt.ine.add.PTCONT.857865,R PESSARNA,5,5340-351,MORAIS,-6.777403750203932,41.49106971956919
pt.ine.add.PTCONT.857866,R EIRINHA,,5340-372,OLMOS,-6.894436860861345,41.49265993216282
pt.ine.add.PTCONT.857867,R CENTRAL,,5340-392,PODENCE,-6.927129920869644,41.59189329908596
pt.ine.add.PTCONT.857868,R CENTRAL,,5340-392,PODENCE,-6.927854531884032,41.59033429511534
pt.ine.add.PTCONT.857869,PC JOÃO GONÇALVES,,5340-400,SALSELAS,-6.873440266997622,41.551576177234175
pt.ine.add.PTCONT.857870,R CIMA DO POVO,,5340-400,SALSELAS,-6.840464895497592,41.52703574369162
pt.ine.add.PTCONT.857871,R BARROS,,5340-400,SALSELAS,-6.858236286652111,41.52564953133182
pt.ine.add.PTCONT.857872,R S SEBASTIÃO,,5340-400,SALSELAS,-6.8412213337310135,41.52695420970611
pt.ine.add.PTCONT.857873,R SOALHEIRO,,5340-422,SESULFE,-7.005056207402962,41.55571591771318
pt.ine.add.PTCONT.857874,CSL VALE PRADINHOS,,5340-422,SESULFE,-7.0052277017545155,41.557572331368995
pt.ine.add.PTCONT.857875,R PRINCIPAL,,5340-432,SOUTELO MOURISCO,-6.906843955984034,41.67005328796992
pt.ine.add.PTCONT.857876,R OLMOS,45,5340-440,TALHAS,-6.7022018674388715,41.491157978449
