id,street,house,postcode,city,lon,lat
pt.ine.add.PTCONT.1899090,R DO BOEIRO,,6430-051,CORISCADA,-7.205060098065511,40.86594081606316
pt.ine.add.PTCONT.1899177,BR DO CADOIÇO,,6430-312,OUTEIRO DE GATOS,-7.271992278046298,40.96487144713741
pt.ine.add.PTCONT.1899529,R DE STO ANTÓNIO,,6430-011,AVELOSO,-7.314971906875716,40.935937583917
pt.ine.add.PTCONT.1899578,LG DO ADRO,79,6430-021,BARREIRA,-7.186121062455126,40.911458366880645
pt.ine.add.PTCONT.1899579,TV DO ADRO,37,6430-021,BARREIRA,-7.186743983245695,40.91105827388387
pt.ine.add.PTCONT.1899580,R DO SINO,,6430-022,BARREIRA,-7.180543987792422,40.88570425706826
pt.ine.add.PTCONT.1899581,R DA QUEIMADA,,6430-031,CARVALHAL MDA,-7.282416848260427,40.88474477277658
pt.ine.add.PTCONT.1899640,TV DE S SEBASTIÃO,,6430-051,CORISCADA,-7.20609223286369,40.866777546112914
pt.ine.add.PTCONT.1899641,R BR DO AFIFE,,6430-051,CORISCADA,-7.213149343585042,40.85824358364845
pt.ine.add.PTCONT.1899696,R DOS POMBAIS,,6430-062,FONTE LONGA MDA,-7.232674023667872,41.012790134321016
pt.ine.add.PTCONT.1899697,R DO RIBEIRINHO,,6430-075,LONGROIVA,-7.183208193103269,40.96981091624405
pt.ine.add.PTCONT.1899698,R DO CASTELO,,6430-071,LONGROIVA,-7.208392294998506,40.96481106562749
pt.ine.add.PTCONT.1899699,R DA CONCELHA,105,6430-071,LONGROIVA,-7.210768038474252,40.96311023288566
pt.ine.add.PTCONT.1899700,R DA CORREDOURA,,6430-071,LONGROIVA,-7.2114377888804375,40.963637851837845
pt.ine.add.PTCONT.1899701,R DAS LAGES,,6430-081,MARIALVA,-7.231320974204307,40.908786144354934
pt.ine.add.PTCONT.1899773,BR SENHORA DAS TÁBUAS,,6430-110,MEDA,-7.2621985618520055,40.97340621455529
pt.ine.add.PTCONT.1899774,AV CIDADE GUARDA,,6430-122,MEDA,-7.263279240346533,40.973441387246964
pt.ine.add.PTCONT.1899775,BR DE STO ANTÓNIO,,6430-109,MEDA,-7.263384572448913,40.97084887677029
pt.ine.add.PTCONT.1899776,R DO CIMO DO POVO,,6430-164,MEDA,-7.268305162619008,40.96431257949137
pt.ine.add.PTCONT.1899821,R DA POÇA,,6430-203,MEDA,-7.266268649383315,40.96380203489302
pt.ine.add.PTCONT.1899822,BR DO BARROCAL,,6430-102,MEDA,-7.254392746854308,40.96446850958102
pt.ine.add.PTCONT.1899823,R S DOMINGOS,124,6430-171,MEDA,-7.259506421734166,40.96386615580604
pt.ine.add.PTCONT.1899824,TV DE S DOMINGOS,,6430-171,MEDA,-7.2597001294346395,40.96376146353248
pt.ine.add.PTCONT.1899825,BR DAS LAMEIRINHAS,,6430-105,MEDA,-7.254625294321342,40.96305656878264
pt.ine.add.PTCONT.1899912,R DO ROSSIO,,6430-321,PAI PENELA,-7.2982621856142895,40.90410352446051
pt.ine.add.PTCONT.1899913,R DO PONTÃO,,6430-337,POÇO DO CANTO,-7.2753063998555385,41.01072911966378
pt.ine.add.PTCONT.1899914,R DA EIRA,,6430-337,POÇO DO CANTO,-7.274633185077813,41.0140557628396
pt.ine.add.PTCONT.1899915,EM 609,,6430-337,POÇO DO CANTO,-7.2747896502366896,41.012075944050906
pt.ine.add.PTCONT.1899916,LG DA DEVESA,,6430-341,PROVA,-7.340917577585642,40.912985867888246
pt.ine.add.PTCONT.1899917,R DA CRECHE,,6430-341,PROVA,-7.341277241230059,40.913681695975015
pt.ine.add.PTCONT.1899948,R DO ROSSIO,,6430-351,RABAÇAL MDA,-7.259006656429114,40.85505235730778
pt.ine.add.PTCONT.1899949,R AVENIDA,480,6430-351,RABAÇAL MDA,-7.255539419133219,40.849983391698494
pt.ine.add.PTCONT.1899950,R DAS ALDEIAS,,6430-362,RANHADOS,-7.327890530676794,40.99264022474198
pt.ine.add.PTCONT.1899951,R DAS FLORES,,6430-362,RANHADOS,-7.330312156696665,40.993845712128746
pt.ine.add.PTCONT.1899952,EN 331,,6430-362,RANHADOS,-7.329140010353526,40.992504873725714
pt.ine.add.PTCONT.1899953,EN 331,,6430-362,RANHADOS,-7.329639538495519,40.992472338537546
pt.ine.add.PTCONT.1899986,R NSA SRA DA SAÚDE,,6430-371,VALE FLOR,-7.2809779567012844,40.91273861286599
pt.ine.add.PTCONT.1899987,TV DA PORTELA,,6430-371,VALE FLOR,-7.282920176511378,40.91123116608593
pt.ine.add.PTCONT.1900071,BR DO CADOIÇO,,6430-312,OUTEIRO DE GATOS,-7.271185746770837,40.96477537455941
pt.ine.add.PTCONT.1900079,EN 102,,6430-071,LONGROIVA,-7.197862233320836,40.960971235295155
pt.ine.add.PTCONT.1900110,TV DA R DIREITA,,6430-192,MEDA,-7.261929912704469,40.96312100302061
pt.ine.add.PTCONT.1900162,R PRINCIPAL,,6430-333,POÇO DO CANTO,-7.273509733457441,40.9879883924019
pt.ine.add.PTCONT.1900224,R DIREITA,20,6430-169,MEDA,-7.261775503402778,40.96311983610415
pt.ine.add.PTCONT.1900225,R DIREITA,175,6430-169,MEDA,-7.263351745090545,40.96249241572504
pt.ine.add.PTCONT.1900226,R DO PONTÃO,,6430-337,POÇO DO CANTO,-7.2748294318197235,41.01084262714198
pt.ine.add.PTCONT.1900227,R DO CIMO DO POVO,,6430-335,POÇO DO CANTO,-7.269500001914429,40.99930409319864
pt.ine.add.PTCONT.1900228,R DIREITA,,6430-332,POÇO DO CANTO,-7.281304382818076,40.99081964351766
pt.ine.add.PTCONT.1900281,,,6430-333,POÇO DO CANTO,-7.274203489414562,40.9867239274655
pt.ine.add.PTCONT.1900282,LG DA DEVESA,,6430-341,PROVA,-7.341023752891901,40.91304062512114
pt.ine.add.PTCONT.1900283,R SUCURCHÃO,,6430-341,PROVA,-7.342784607849328,40.913692036633435
pt.ine.add.PTCONT.1900284,R DA IGREJA,,6430-341,PROVA,-7.34094051652279,40.91205854665462
pt.ine.add.PTCONT.1900285,R DO CIMO DO ADRO,,6430-341,PROVA,-7.342310034632779,40.91168074644938
pt.ine.add.PTCONT.1900286,R DE PAIPENELA B,,6430-351,RABAÇAL MDA,-7.2585992288831385,40.85627390947518
pt.ine.add.PTCONT.1900287,R DO ROSSIO,68,6430-351,RABAÇAL MDA,-7.258824520287199,40.85537514647668
pt.ine.add.PTCONT.1900352,R DO PELÂME,,6430-351,RABAÇAL MDA,-7.258752007885994,40.8527722353592
pt.ine.add.PTCONT.1900353,R DA PORTELA,,6430-362,RANHADOS,-7.33057952005757,40.99727829515064
pt.ine.add.PTCONT.1900354,R DO ROSMANINHO,,6430-371,VALE FLOR,-7.2825294072338815,40.91301120121621
pt.ine.add.PTCONT.1900956,,,6430-071,LONGROIVA,-7.186542527832508,41.00415442350854
pt.ine.add.PTCONT.1900806,R DE BAIXO,,6430-011,AVELOSO,-7.316315969665875,40.93285853263543
pt.ine.add.PTCONT.1900846,R DO FUNDO DO POVO,,6430-041,CASTEIÇÃO,-7.325863035440223,40.89570958465438
pt.ine.add.PTCONT.1900847,R DA FONTE NOVA,,6430-041,CASTEIÇÃO,-7.324414734127595,40.8821113762086
pt.ine.add.PTCONT.1900896,R DOS NEGRILHOS,,6430-051,CORISCADA,-7.208827631312433,40.86540377418978
pt.ine.add.PTCONT.1900897,R DE STO ANTÓNIO,,6430-051,CORISCADA,-7.208845722740549,40.86239635670852
pt.ine.add.PTCONT.1900898,R DIREITA,,6430-061,FONTE LONGA MDA,-7.197807699732853,41.007722106061486
pt.ine.add.PTCONT.1900957,R DA CORREDOURA,,6430-081,MARIALVA,-7.232334482925329,40.91456602295366
pt.ine.add.PTCONT.1900958,R DO CABEÇO,,6430-081,MARIALVA,-7.230053415934925,40.910352032755966
pt.ine.add.PTCONT.1900959,R DAS FRAGAS NEGRAS,,6430-150,MEDA,-7.2570734227420886,40.96926131573626
pt.ine.add.PTCONT.1900960,R DAS FRAGAS NEGRAS,,6430-150,MEDA,-7.2570734227420886,40.96926131573626
pt.ine.add.PTCONT.1900961,R DAS FRAGAS NEGRAS,,6430-150,MEDA,-7.2570734227420886,40.96926131573626
pt.ine.add.PTCONT.1901009,R DAS FRAGAS NEGRAS,,6430-150,MEDA,-7.2570734227420886,40.96926131573626
pt.ine.add.PTCONT.1901010,R DA PORTELA DA DEVESA,,6430-206,MEDA,-7.258615086426151,40.96496885134644
pt.ine.add.PTCONT.1901011,R DE S JOÃO,,6430-106,MEDA,-7.264511283187251,40.97371180816088
pt.ine.add.PTCONT.1901012,BR VALE POMBO,,6430-112,MEDA,-7.265653177779643,40.96907406678709
pt.ine.add.PTCONT.1901059,R MARINELA,10,6430-191,MEDA,-7.264339136950656,40.96419271523605
pt.ine.add.PTCONT.1901060,R PROF ANTERO SOBRAL,85,6430-102,MEDA,-7.25480787497677,40.964516695669055
pt.ine.add.PTCONT.1901061,TV DO PATRONATO,16,6430-190,MEDA,-7.260216923221457,40.96330614585475
pt.ine.add.PTCONT.1901102,R DR SILVINA ALMEIDA,,6430-102,MEDA,-7.255486822038487,40.964377793545886
pt.ine.add.PTCONT.1901130,R DOS POUSADOUROS,,6430-011,AVELOSO,-7.3166646908768,40.931537324587424
pt.ine.add.PTCONT.1901134,R DO CASTELO,,6430-351,RABAÇAL MDA,-7.260408494278791,40.853964397138746
pt.ine.add.PTCONT.1901144,R DERSA,,6430-041,CASTEIÇÃO,-7.327013659222757,40.88010351419362
pt.ine.add.PTCONT.1901180,R DIREITA,,6430-312,OUTEIRO DE GATOS,-7.302149574703989,40.95191907937936
pt.ine.add.PTCONT.1901630,R DA CRUZINHA,,6430-312,OUTEIRO DE GATOS,-7.300595887091958,40.951745788633815
pt.ine.add.PTCONT.1901631,R DO CASTELO,,6430-361,RANHADOS,-7.356393929830207,41.00130906437262
pt.ine.add.PTCONT.1901633,R DA CONCELHA,101,6430-071,LONGROIVA,-7.2106617681017,40.96306435998633
pt.ine.add.PTCONT.1901634,R DA CARREIRA,,6430-361,RANHADOS,-7.356075221021513,41.000109315493674
pt.ine.add.PTCONT.1901636,LG DA DEVESA,,6430-321,PAI PENELA,-7.298237363462015,40.902302414915255
pt.ine.add.PTCONT.1901639,R DAS PISCINAS,60,6430-021,BARREIRA,-7.188149415514485,40.91071862010476
pt.ine.add.PTCONT.1901640,R DO PQ INFANTIL,,6430-051,CORISCADA,-7.209407920641114,40.86461601133158
pt.ine.add.PTCONT.1901646,R DA CORREDOURA,,6430-071,LONGROIVA,-7.213012756384099,40.96313717437365
pt.ine.add.PTCONT.1901647,R DO OUTEIRO GORDO,,6430-071,LONGROIVA,-7.213309817085907,40.962275110064844
pt.ine.add.PTCONT.1901648,R DA FORJA,,6430-341,PROVA,-7.34221676044577,40.91253554849944
pt.ine.add.PTCONT.1901652,R DO BALCÃO,,6430-337,POÇO DO CANTO,-7.274850984253912,41.01101387267927
pt.ine.add.PTCONT.1901653,R DO CIMO DO ADRO,,6430-341,PROVA,-7.341964018538658,40.91183145214564
pt.ine.add.PTCONT.1901655,R DA PONTE,90,6430-021,BARREIRA,-7.186994505015973,40.90930443273565
pt.ine.add.PTCONT.1901656,R DAS LAGES,,6430-051,CORISCADA,-7.208082248633882,40.86441628896877
pt.ine.add.PTCONT.1901657,R NOVA,156,6430-081,MARIALVA,-7.23353595413009,40.908245158077676
pt.ine.add.PTCONT.1901659,BR DO CADOIÇO,,6430-312,OUTEIRO DE GATOS,-7.270548791873895,40.964428437935034
pt.ine.add.PTCONT.1901660,R DE PAIPENELA A,,6430-351,RABAÇAL MDA,-7.259511418720088,40.85725333005091
pt.ine.add.PTCONT.1901663,LG DO TOURAL,,6430-081,MARIALVA,-7.230506729837559,40.91018449414936
pt.ine.add.PTCONT.1901664,URB DO PRAZO,,6430-312,OUTEIRO DE GATOS,-7.27413668171526,40.96256427108822
pt.ine.add.PTCONT.1901665,R DO POÇO,,6430-335,POÇO DO CANTO,-7.266496169694841,40.998155987042175
pt.ine.add.PTCONT.1901666,R DO SACO,,6430-335,POÇO DO CANTO,-7.267788801800576,40.99928225525502
pt.ine.add.PTCONT.1901667,TV DO FUNDO DO POVO,,6430-371,VALE FLOR,-7.280532569400708,40.913221570717724
pt.ine.add.PTCONT.1901670,BR SENHORA DAS TÁBUAS,,6430-110,MEDA,-7.262607242456726,40.97394957303523
pt.ine.add.PTCONT.1901671,R DO ROSMANINHO,,6430-371,VALE FLOR,-7.281814165018315,40.913249048257526
pt.ine.add.PTCONT.1901675,R DAS EIRAS,,6430-042,CASTEIÇÃO,-7.323765798801703,40.898369271689724
pt.ine.add.PTCONT.1901676,R DAS EIRAS,,6430-042,CASTEIÇÃO,-7.322713330356012,40.89806472675658
pt.ine.add.PTCONT.1901677,BR VALE POMBO,6,6430-112,MEDA,-7.264627502200361,40.97119141484625
pt.ine.add.PTCONT.1901678,R PROPES,,6430-371,VALE FLOR,-7.2820033974569345,40.91237699605788
pt.ine.add.PTCONT.1901680,R PLAME,,6430-351,RABAÇAL MDA,-7.257160440733348,40.85295826382595
pt.ine.add.PTCONT.1901682,EN 324,,6430-081,MARIALVA,-7.2240827230549245,40.91211504762581
pt.ine.add.PTCONT.1901686,LG DO RIBEIRO,,6430-312,OUTEIRO DE GATOS,-7.303157322724816,40.952061406773474
pt.ine.add.PTCONT.1901687,R PRINCIPAL,,6430-334,POÇO DO CANTO,-7.277005070125729,40.989698247870045
pt.ine.add.PTCONT.1901688,R DA CALÇADA,,6430-333,POÇO DO CANTO,-7.272700399996878,40.98717194828583
pt.ine.add.PTCONT.1902023,BR VALE POMBO,,6430-112,MEDA,-7.26490942158732,40.96871729100568
pt.ine.add.PTCONT.1902064,R DO TANQUE,72,6430-081,MARIALVA,-7.233588949899365,40.91571940074775
pt.ine.add.PTCONT.1902067,R DO TOURAL,,6430-081,MARIALVA,-7.231308130461274,40.91060497639906
pt.ine.add.PTCONT.1902068,BR DO CADOIÇO,,6430-312,OUTEIRO DE GATOS,-7.27079951704671,40.96433126355354
pt.ine.add.PTCONT.1902083,R DO FUNDO DO POVO,,6430-371,VALE FLOR,-7.2814129379092,40.91306599300153
pt.ine.add.PTCONT.1902538,ESTR MUNICIPAL,,6430-011,AVELOSO,-7.31225979986598,40.933451046252024
pt.ine.add.PTCONT.1902539,,,6430-011,AVELOSO,-7.312754635930996,40.931842742938194
pt.ine.add.PTCONT.1902540,R DO ROSSIO,113,6430-021,BARREIRA,-7.18475954022066,40.91038463520455
pt.ine.add.PTCONT.1902541,R DO FUNDO DO POVO,,6430-021,BARREIRA,-7.18665026729153,40.91013903568451
pt.ine.add.PTCONT.1902542,R DO MEIO,,6430-022,BARREIRA,-7.180837489153748,40.88509436572738
pt.ine.add.PTCONT.1902543,R DE BAIXO,,6430-022,BARREIRA,-7.18028016725185,40.88507175330396
pt.ine.add.PTCONT.1902544,R DO RIBEIRO,55,6430-031,CARVALHAL MDA,-7.284313081798995,40.884911823371816
pt.ine.add.PTCONT.1902545,R DO RIBEIRO,,6430-031,CARVALHAL MDA,-7.28473912062,40.8840685187742
pt.ine.add.PTCONT.1902597,R DO FORNO,,6430-062,FONTE LONGA MDA,-7.233323613869621,41.01310135889254
pt.ine.add.PTCONT.1902598,R DA LADEIRA,,6430-062,FONTE LONGA MDA,-7.2338801989752275,41.01325877842798
pt.ine.add.PTCONT.1902651,R DOS POMBAIS,,6430-062,FONTE LONGA MDA,-7.232434209789223,41.01294133637719
pt.ine.add.PTCONT.1902652,R DA PRAÇA,,6430-071,LONGROIVA,-7.210471442475442,40.963936276039355
pt.ine.add.PTCONT.1902653,ESTR DA VILA,,6430-081,MARIALVA,-7.233468224813211,40.90973939631551
pt.ine.add.PTCONT.1902654,,,6430-081,MARIALVA,-7.231106741788424,40.908829491924514
pt.ine.add.PTCONT.1902655,EN 324,,6430-250,MEDA,-7.260312085017103,40.97231140383659
pt.ine.add.PTCONT.1902708,R ANTÓNIO MANUEL DINIS,,6430-145,MEDA,-7.260213852226133,40.96444069508314
pt.ine.add.PTCONT.1902709,LG CONDE FERREIRA,,6430-178,MEDA,-7.260622917691464,40.96404759172603
pt.ine.add.PTCONT.1902764,R DOS BOMBEIROS,,6430-199,MEDA,-7.26272890970239,40.967404195526406
pt.ine.add.PTCONT.1902765,R DO MENINO,,6430-192,MEDA,-7.262661475881031,40.96349571519985
pt.ine.add.PTCONT.1902766,R DO MENINO,,6430-192,MEDA,-7.262661475881031,40.96349571519985
pt.ine.add.PTCONT.1902767,BR DAS LAMEIRINHAS,,6430-105,MEDA,-7.254401226590082,40.96382925179678
pt.ine.add.PTCONT.1902768,BR DAS LAMEIRINHAS,,6430-105,MEDA,-7.255249491966689,40.96256607358566
pt.ine.add.PTCONT.1902769,R DA PORTELA DA REGADA,146,6430-207,MEDA,-7.2583919349899455,40.962076699991584
pt.ine.add.PTCONT.1902770,AV GAGO COUTINHO E SACADURA CABRAL,,6430-183,MEDA,-7.260871453093626,40.96141114055057
pt.ine.add.PTCONT.1902771,AV GAGO COUTINHO E SACADURA CABRAL A,A,6430-183,MEDA,-7.260871453093626,40.96141114055057
pt.ine.add.PTCONT.1902811,AV GAGO COUTINHO E SACADURA CABRAL,,6430-183,MEDA,-7.260871453093626,40.96141114055057
pt.ine.add.PTCONT.1902812,AV GAGO COUTINHO E SACADURA CABRAL,,6430-183,MEDA,-7.260871453093626,40.96141114055057
pt.ine.add.PTCONT.1902813,AV GAGO COUTINHO E SACADURA CABRAL,,6430-183,MEDA,-7.260871453093626,40.96141114055057
pt.ine.add.PTCONT.1902814,AV GAGO COUTINHO E SACADURA CABRAL A,A,6430-183,MEDA,-7.260871453093626,40.96141114055057
pt.ine.add.PTCONT.1902815,R DIREITA,,6430-169,MEDA,-7.264466698466701,40.96261788094835
pt.ine.add.PTCONT.1902816,ZN INDUSTRIAL,,6430-312,OUTEIRO DE GATOS,-7.272199584236302,40.96263086301424
pt.ine.add.PTCONT.1902817,R PRINCIPAL,,6430-313,OUTEIRO DE GATOS,-7.301289313082156,40.964627322869646
pt.ine.add.PTCONT.1902861,R DIREITA,,6430-312,OUTEIRO DE GATOS,-7.301667089139164,40.952509902906385
pt.ine.add.PTCONT.1902862,R DIREITA,,6430-312,OUTEIRO DE GATOS,-7.301993721986576,40.95203501547778
pt.ine.add.PTCONT.1902863,LG DA DEVESA,,6430-321,PAI PENELA,-7.297722556431802,40.90265887282725
pt.ine.add.PTCONT.1902864,R DA LAMEIRA,,6430-336,POÇO DO CANTO,-7.250561082713523,41.009524796384575
pt.ine.add.PTCONT.1902865,R DO ARRABALDE,,6430-335,POÇO DO CANTO,-7.268723535646383,41.0005138794112
pt.ine.add.PTCONT.1902893,R DO CIMO DO ADRO,,6430-341,PROVA,-7.342049675143914,40.911615928163144
pt.ine.add.PTCONT.1902894,QTA DO REMUDO,,6430-351,RABAÇAL MDA,-7.230764096014611,40.872907283029704
pt.ine.add.PTCONT.1902895,R DOS LAMEIRINHOS,,6430-362,RANHADOS,-7.328910664689245,40.9967083841941
pt.ine.add.PTCONT.1903023,,,6430-011,AVELOSO,-7.312754635930996,40.931842742938194
pt.ine.add.PTCONT.1903033,R DA TAPADA,,6430-312,OUTEIRO DE GATOS,-7.300640336299594,40.951989233119
pt.ine.add.PTCONT.1903046,AV GAGO COUTINHO E SACADURA CABRAL,,6430-183,MEDA,-7.260871453093626,40.96141114055057
pt.ine.add.PTCONT.1903050,R AVENIDA,343,6430-351,RABAÇAL MDA,-7.255855393842008,40.85120143171851
pt.ine.add.PTCONT.1903051,R 1,,6430-051,CORISCADA,-7.211941641806232,40.859809765189766
pt.ine.add.PTCONT.1903083,R LUIS LOPES,,6430-105,MEDA,-7.255109889506514,40.9632403512326
pt.ine.add.PTCONT.1903140,LG DA IGREJA,,6430-335,POÇO DO CANTO,-7.268179801609233,40.99937523478639
pt.ine.add.PTCONT.1903136,R DO EIROL,,6430-173,MEDA,-7.261470475767782,40.962829384863184
pt.ine.add.PTCONT.1903137,R DO FORNO,,6430-321,PAI PENELA,-7.2973794357018065,40.9025753449092
pt.ine.add.PTCONT.1903138,R DO BALCÃO,,6430-337,POÇO DO CANTO,-7.274728732480053,41.011274092101544
pt.ine.add.PTCONT.1903139,R DA CAPELA,,6430-336,POÇO DO CANTO,-7.252452145466231,41.009449215952586
pt.ine.add.PTCONT.1903195,R DO CHAFARIZ,,6430-342,PROVA,-7.32216868425291,40.95525825097339
pt.ine.add.PTCONT.1903196,R PADRE ANTÓNIO MARIA GAMBOA DE INFANÇÃO,,6430-341,PROVA,-7.34248598907822,40.9128525573831
pt.ine.add.PTCONT.1903197,LG DA DEVESA,,6430-341,PROVA,-7.341883145245653,40.91264131572646
pt.ine.add.PTCONT.1903198,R DA EIRA,15,6430-351,RABAÇAL MDA,-7.259623224938978,40.85325608575804
pt.ine.add.PTCONT.1903251,LG DA PRAÇA,,6430-361,RANHADOS,-7.35576505883947,41.00020627394611
pt.ine.add.PTCONT.1903252,R DO CASTELO,,6430-361,RANHADOS,-7.356406765966593,41.00122811021373
pt.ine.add.PTCONT.1903253,R DAS FLORES,,6430-362,RANHADOS,-7.329738694890784,40.99409384343218
pt.ine.add.PTCONT.1903304,R DA FONTE DE STO ANTÓNIO,,6430-371,VALE FLOR,-7.282738934283229,40.91055448228513
pt.ine.add.PTCONT.1903764,R DO CABECINHO,,6430-031,CARVALHAL MDA,-7.282581461004199,40.88300808484805
pt.ine.add.PTCONT.1903765,R DON SOEIRO,,6430-042,CASTEIÇÃO,-7.32422696502061,40.8946085559882
pt.ine.add.PTCONT.1903766,R DA QUELHA,,6430-041,CASTEIÇÃO,-7.3251809556570775,40.895200546776564
pt.ine.add.PTCONT.1903824,AV LÚCIO SARAIVA,,6430-051,CORISCADA,-7.210831885574001,40.86029615471052
pt.ine.add.PTCONT.1903825,,,6430-074,LONGROIVA,-7.194001301068064,40.980272531858795
pt.ine.add.PTCONT.1903868,,,6430-071,LONGROIVA,-7.213412340873511,40.96344651671825
pt.ine.add.PTCONT.1903869,R DA CORREDOURA,,6430-081,MARIALVA,-7.232268428797673,40.9159342073842
pt.ine.add.PTCONT.1903870,R DA PORTELA,,6430-081,MARIALVA,-7.233854428179804,40.91452385837709
pt.ine.add.PTCONT.1903871,LG DO TERREIRO,,6430-081,MARIALVA,-7.23212089667827,40.90931466487119
pt.ine.add.PTCONT.1903872,AV GAGO COUTINHO E SACADURA CABRAL,,6430-183,MEDA,-7.261030345092953,40.96919226650811
pt.ine.add.PTCONT.1903943,R DAS FRAGAS NEGRAS,,6430-150,MEDA,-7.258133618857806,40.96814380034772
pt.ine.add.PTCONT.1903944,R DA PORTELA DA DEVESA,,6430-206,MEDA,-7.258721393822773,40.96501468039315
pt.ine.add.PTCONT.1903945,AV DO PARQUE,,6430-201,MEDA,-7.260627443137245,40.964605907636944
pt.ine.add.PTCONT.1903946,R DOS BOMBEIROS,,6430-168,MEDA,-7.263291506165777,40.96798473214782
pt.ine.add.PTCONT.1903994,R D MARIA CARMO LACERDA FARIA,,6430-190,MEDA,-7.256730370666841,40.962865485721494
pt.ine.add.PTCONT.1903995,R DOS PELÂMES,,6430-202,MEDA,-7.258208633428556,40.96426341325057
pt.ine.add.PTCONT.1903996,BR DAS LAMEIRINHAS,,6430-105,MEDA,-7.255626114052458,40.96283007254938
pt.ine.add.PTCONT.1903997,AV GAGO COUTINHO E SACADURA CABRAL,,6430-183,MEDA,-7.260961162075025,40.96271747847613
pt.ine.add.PTCONT.1903998,R DA PORTELA DA REGADA,136,6430-207,MEDA,-7.258232309360544,40.96157123418331
pt.ine.add.PTCONT.1904022,LG TOURAL,,6430-081,MARIALVA,-7.231494959134333,40.909958104989705
pt.ine.add.PTCONT.1904026,AV GAGO COUTINHO E SACADURA CABRAL,515,6430-183,MEDA,-7.261030345092953,40.96919226650811
pt.ine.add.PTCONT.1904033,BR VALE POMBO,,6430-112,MEDA,-7.265573145340907,40.97064925837826
pt.ine.add.PTCONT.1904054,R SENHOR DOS PASSOS,134,6430-051,CORISCADA,-7.205780422518376,40.86617172650545
pt.ine.add.PTCONT.1904060,,,6430-371,VALE FLOR,-7.281719099339435,40.913257351040464
pt.ine.add.PTCONT.1904062,AV DR ADRIANO VASCO RODRIGUES,,6430-000,,-7.25932646148854,40.96957556416157
pt.ine.add.PTCONT.1904089,TV DO TERREIRO,450,6430-051,CORISCADA,-7.20808087047675,40.864515329361566
pt.ine.add.PTCONT.1904110,R DO FUNDO DO POVO,,6430-042,CASTEIÇÃO,-7.325554744482411,40.895689416962504
pt.ine.add.PTCONT.1904134,EM 601,,6430-312,OUTEIRO DE GATOS,-7.288403665714571,40.956924778531864
pt.ine.add.PTCONT.1904153,,,6430-312,OUTEIRO DE GATOS,-7.300099045035032,40.94969816099977
pt.ine.add.PTCONT.1904154,R DO SACO,,6430-335,POÇO DO CANTO,-7.267931176083619,40.999301332969154
pt.ine.add.PTCONT.1904155,R DO FORNO,,6430-342,PROVA,-7.32309823641036,40.95500365273203
pt.ine.add.PTCONT.1904156,R DO CHAFARIZ,,6430-342,PROVA,-7.321588835121044,40.9550830840249
pt.ine.add.PTCONT.1904218,R VALE DO SAPO,,6430-341,PROVA,-7.3431485306159034,40.912037674831
pt.ine.add.PTCONT.1904219,EN 511,,6430-341,PROVA,-7.33978328757347,40.92247796560827
pt.ine.add.PTCONT.1904220,R DO FORNO,,6430-351,RABAÇAL MDA,-7.258977212900759,40.853683418164415
pt.ine.add.PTCONT.1904221,TV DO CASTELO,,6430-361,RANHADOS,-7.357442701765657,41.00208151052956
pt.ine.add.PTCONT.1904268,R DE STO ANTÓNIO,,6430-362,RANHADOS,-7.329057579890004,40.995376740618504
pt.ine.add.PTCONT.1904269,R DA PORTELA,,6430-362,RANHADOS,-7.329755247444713,40.99468825707237
pt.ine.add.PTCONT.1904270,R DO CASTELO,,6430-362,RANHADOS,-7.330865995405295,40.993255269577766
pt.ine.add.PTCONT.1904271,R DA TOUÇA,,6430-362,RANHADOS,-7.328426206735337,40.99354441750264
pt.ine.add.PTCONT.1904272,LG DO CRUZEIRO,,6430-371,VALE FLOR,-7.2832840482201116,40.91340396411014
pt.ine.add.PTCONT.1904273,TV DO FUNDO DO POVO,,6430-371,VALE FLOR,-7.280650794395519,40.913258463258884
pt.ine.add.PTCONT.1904274,R DA PORTELA,,6430-371,VALE FLOR,-7.28221463007757,40.911640175208575
pt.ine.add.PTCONT.1904649,R DE STO ANTÓNIO,,6430-011,AVELOSO,-7.315084428036032,40.93547914741189
pt.ine.add.PTCONT.1904650,R DE BAIXO,,6430-011,AVELOSO,-7.315932503079743,40.93314396310582
pt.ine.add.PTCONT.1904651,R DOS POUSADOUROS,,6430-011,AVELOSO,-7.316310959054565,40.93037322435577
pt.ine.add.PTCONT.1904652,R DA CAPELA,,6430-011,AVELOSO,-7.317146112692267,40.93100946025825
pt.ine.add.PTCONT.1904653,R DE S SEBASTIÃO,,6430-021,BARREIRA,-7.1882659919962855,40.91170107655077
pt.ine.add.PTCONT.1904694,R NSA SRA DOS MILAGRES,,6430-021,BARREIRA,-7.187792023005692,40.909977313708495
pt.ine.add.PTCONT.1904695,R DO MEIO,,6430-022,BARREIRA,-7.180777397634181,40.885147897346926
pt.ine.add.PTCONT.1904748,R DO PONTÃO,,6430-051,CORISCADA,-7.206581701839857,40.86570091822794
pt.ine.add.PTCONT.1904749,QTA DA COUTADA,,6430-051,CORISCADA,-7.20394320588231,40.85165039515556
pt.ine.add.PTCONT.1904750,R DR ARTUR GRANDÃO RODRIGUES,,6430-062,FONTE LONGA MDA,-7.232983925194228,41.01534982082734
pt.ine.add.PTCONT.1904751,R DOS POMBAIS,,6430-062,FONTE LONGA MDA,-7.232362155037922,41.01299480004407
pt.ine.add.PTCONT.1904752,R DA CORREDOURA,,6430-071,LONGROIVA,-7.211593825483002,40.963522040346575
pt.ine.add.PTCONT.1904753,R DO FORNO,38,6430-071,LONGROIVA,-7.210885810448398,40.96318321127597
pt.ine.add.PTCONT.1904805,AV 25 DE ABRIL,,6430-081,MARIALVA,-7.230320159211293,40.909066461284034
pt.ine.add.PTCONT.1904806,R DOS CORREIOS,,6430-175,MEDA,-7.259659165596561,40.96596726592197
pt.ine.add.PTCONT.1904807,R D MANUEL I,,6430-189,MEDA,-7.260197584447839,40.964773739977105
pt.ine.add.PTCONT.1904849,LG CONDE FERREIRA,105,6430-178,MEDA,-7.2608863632310126,40.963887503395505
pt.ine.add.PTCONT.1904850,AV GAGO COUTINHO E SACADURA CABRAL,1171,6430-183,MEDA,-7.260939208722141,40.96348269871541
pt.ine.add.PTCONT.1904851,R DE STO ANTÓNIO,,6430-144,MEDA,-7.265103570377196,40.97203242192753
pt.ine.add.PTCONT.1904852,R DA POÇA,222,6430-203,MEDA,-7.2657460273476016,40.9637981041087
pt.ine.add.PTCONT.1904853,R DO MENINO,,6430-192,MEDA,-7.262578568559754,40.96347708010583
pt.ine.add.PTCONT.1904892,R DR DUARTE REBOREDO,,6430-211,MEDA,-7.26143348183152,40.964738068499315
pt.ine.add.PTCONT.1904893,R DR DUARTE REBOREDO,,6430-211,MEDA,-7.26143348183152,40.964738068499315
pt.ine.add.PTCONT.1904894,R DR DUARTE REBOREDO,,6430-211,MEDA,-7.26143348183152,40.964738068499315
pt.ine.add.PTCONT.1904895,R DR DUARTE REBOREDO,,6430-211,MEDA,-7.26143348183152,40.964738068499315
pt.ine.add.PTCONT.1904896,R DR SILVINA ALMEIDA,,6430-102,MEDA,-7.255583942213844,40.96511690516581
pt.ine.add.PTCONT.1904897,R DR SILVINA ALMEIDA,,6430-102,MEDA,-7.255583942213844,40.96511690516581
pt.ine.add.PTCONT.1904898,R DOS PELÂMES,,6430-202,MEDA,-7.2573695673990954,40.964833333222856
pt.ine.add.PTCONT.1904947,R DIREITA,415,6430-169,MEDA,-7.265748738780915,40.963591019958244
pt.ine.add.PTCONT.1904948,R DIREITA,,6430-169,MEDA,-7.262754083323767,40.962776050736615
pt.ine.add.PTCONT.1904949,LOTEAM DA CORREDOURA,6,6430-114,MEDA,-7.260495611194028,40.95928322285224
pt.ine.add.PTCONT.1904950,URB DO PRAZO,,6430-312,OUTEIRO DE GATOS,-7.269842281855385,40.962126990074815
pt.ine.add.PTCONT.1904983,R DO FORNO,,6430-342,PROVA,-7.323147612801364,40.95485092180019
pt.ine.add.PTCONT.1905045,TV DA IGREJA,1,6430-031,CARVALHAL MDA,-7.28381767638515,40.883755578120656
pt.ine.add.PTCONT.1905067,SIT VALE DA ALCAIDE,,6430-081,MARIALVA,-7.227138568061517,40.91346277405573
pt.ine.add.PTCONT.1905087,R DO ARRABALDE,,6430-335,POÇO DO CANTO,-7.268439252166449,41.000439711286646
pt.ine.add.PTCONT.1905138,R DAS EIRAS,,6430-042,CASTEIÇÃO,-7.324317897252011,40.897859879040894
pt.ine.add.PTCONT.1905139,R DO FORNO,,6430-041,CASTEIÇÃO,-7.326629562769593,40.880470021478224
pt.ine.add.PTCONT.1905140,R DERSA,,6430-041,CASTEIÇÃO,-7.326848670072422,40.88001231399725
pt.ine.add.PTCONT.1905141,R DIREITA,,6430-051,CORISCADA,-7.206078934513923,40.86603005135727
pt.ine.add.PTCONT.1905142,TV DO CONCELHO,,6430-051,CORISCADA,-7.20696398277414,40.86550588560003
pt.ine.add.PTCONT.1905143,R DO PQ INFANTIL,,6430-051,CORISCADA,-7.210460960160223,40.86394908884949
pt.ine.add.PTCONT.1905144,AV LÚCIO SARAIVA,,6430-051,CORISCADA,-7.210333515758341,40.86287651248145
pt.ine.add.PTCONT.1905145,R DO CANTINHO,,6430-062,FONTE LONGA MDA,-7.2310093735048495,41.014560000095244
pt.ine.add.PTCONT.1905212,,,6430-074,LONGROIVA,-7.188370399998258,40.981027921355114
pt.ine.add.PTCONT.1905213,R PADRE ANTÓNIO PEREIRA AMANTE,,6430-071,LONGROIVA,-7.211127844343723,40.96371641425051
pt.ine.add.PTCONT.1905214,R DAS LAGES,,6430-081,MARIALVA,-7.230979255193141,40.90860337921798
pt.ine.add.PTCONT.1905215,BR NSA SRA DE FÁTIMA,,6430-081,MARIALVA,-7.217443010799468,40.90986539086052
pt.ine.add.PTCONT.1905267,BR TRÁS DO CAMPO DA BOLA,,6430-111,MEDA,-7.258492968019063,40.96612050612366
pt.ine.add.PTCONT.1905268,BR DE STO ANTÓNIO,,6430-109,MEDA,-7.263737870371025,40.97108565948904
pt.ine.add.PTCONT.1905269,R DOS BOMBEIROS,,6430-183,MEDA,-7.262027136361726,40.96747093141696
pt.ine.add.PTCONT.1905270,AV GAGO COUTINHO E SACADURA CABRAL,,6430-183,MEDA,-7.261388990758448,40.96631352683337
pt.ine.add.PTCONT.1905320,R D MARIA CARMO LACERDA FARIA,,6430-190,MEDA,-7.25937539030882,40.963164702960775
pt.ine.add.PTCONT.1905321,AV GAGO COUTINHO E SACADURA CABRAL,,6430-114,MEDA,-7.261309078462469,40.9597486091333
pt.ine.add.PTCONT.1905322,LOTEAM DO NOVAL,,6430-114,MEDA,-7.262908051493252,40.95919340257423
pt.ine.add.PTCONT.1905376,R DO ARRABALDE,,6430-335,POÇO DO CANTO,-7.268322291651579,41.000294762002234
pt.ine.add.PTCONT.1905377,R ATRÁS DA IGREJA,,6430-335,POÇO DO CANTO,-7.268104141123467,40.99970783321431
pt.ine.add.PTCONT.1905378,R DO POÇO,,6430-335,POÇO DO CANTO,-7.266235076921015,40.99812701029921
pt.ine.add.PTCONT.1905379,R DO CIMO DO POVO,,6430-335,POÇO DO CANTO,-7.2691324161412565,40.9992383071198
pt.ine.add.PTCONT.1905415,R DO FORNO,,6430-342,PROVA,-7.323122869606629,40.95493178917191
pt.ine.add.PTCONT.1905463,R DA FONTE,,6430-361,RANHADOS,-7.355241820020028,41.000229757699216
pt.ine.add.PTCONT.1905890,R DO FUNDO DO POVO,,6430-022,BARREIRA,-7.1799602429382645,40.88504209579452
pt.ine.add.PTCONT.1905891,EM 603,,6430-031,CARVALHAL MDA,-7.278590557846462,40.88427525742189
pt.ine.add.PTCONT.1905892,R DE BAIXO,,6430-031,CARVALHAL MDA,-7.284046315683119,40.88443261210016
pt.ine.add.PTCONT.1905925,AV GAGO COUTINHO E SACADURA CABRAL,457,6430-183,MEDA,-7.260940435802029,40.96970484484764
pt.ine.add.PTCONT.1905970,R DAS EIRAS,,6430-361,RANHADOS,-7.356635901397883,41.00195901979998
pt.ine.add.PTCONT.1906084,LG DE STA BARBARA,,6430-051,CORISCADA,-7.205460450675631,40.86615114416306
pt.ine.add.PTCONT.1906086,R DO CANTINHO,,6430-062,FONTE LONGA MDA,-7.232805747966033,41.01446599249191
pt.ine.add.PTCONT.1906087,R DA FONTE DE STO ANTÓNIO,,6430-062,FONTE LONGA MDA,-7.233908991635079,41.01288982023429
pt.ine.add.PTCONT.1906128,,,6430-070,LONGROIVA,-7.195209297954885,40.993969183853395
pt.ine.add.PTCONT.1906129,,,6430-074,LONGROIVA,-7.185379862350381,40.981597669964266
pt.ine.add.PTCONT.1906130,R DA CORREDOURA,,6430-081,MARIALVA,-7.232995985508443,40.915678755257765
pt.ine.add.PTCONT.1906131,AV GAGO COUTINHO E SACADURA CABRAL,,6430-183,MEDA,-7.26047785781112,40.96874686355757
pt.ine.add.PTCONT.1906132,R TRÁS DO CAMPO DA BOLA,36,6430-215,MEDA,-7.258918794990536,40.96715925785893
pt.ine.add.PTCONT.1906181,R TRÁS DO CAMPO DA BOLA,,6430-215,MEDA,-7.258920696278688,40.96701519966604
pt.ine.add.PTCONT.1906182,R DE S JOÃO,,6430-106,MEDA,-7.265042363059455,40.9730764867502
pt.ine.add.PTCONT.1906183,BR VALE POMBO,4,6430-112,MEDA,-7.265825699328698,40.96950758258441
pt.ine.add.PTCONT.1906239,R DOS PELÂMES,,6430-202,MEDA,-7.2581599328803605,40.964353089075594
pt.ine.add.PTCONT.1906240,BR DO BARROCAL,,6430-102,MEDA,-7.254540415952034,40.964082439769044
pt.ine.add.PTCONT.1906241,R DO EIROL,,6430-173,MEDA,-7.260673234559697,40.962030954448885
pt.ine.add.PTCONT.1906242,URB DO PRAZO,,6430-312,OUTEIRO DE GATOS,-7.269853220748957,40.96219910837923
pt.ine.add.PTCONT.1906288,R DO CASTELO,,6430-321,PAI PENELA,-7.296842206908725,40.90376906868019
pt.ine.add.PTCONT.1906289,R DO POÇO,,6430-335,POÇO DO CANTO,-7.266462051017979,40.998038672111704
pt.ine.add.PTCONT.1906290,R ALTO DO POÇO DO CANTO,,6430-335,POÇO DO CANTO,-7.267392338098357,40.995065174647955
pt.ine.add.PTCONT.1906344,R DA ESCOLA,,6430-341,PROVA,-7.339191026354189,40.9154232576423
pt.ine.add.PTCONT.1906345,R DO CASTELO,,6430-351,RABAÇAL MDA,-7.2606571603982735,40.853993292357345
pt.ine.add.PTCONT.1906346,R DO FORNO,,6430-351,RABAÇAL MDA,-7.25886847814293,40.85383567419858
pt.ine.add.PTCONT.1906347,R DOS OLIVAIS,,6430-351,RABAÇAL MDA,-7.259401826711296,40.852957253475644
pt.ine.add.PTCONT.1906348,R DAS EIRAS,,6430-361,RANHADOS,-7.357581626503027,41.002397603365985
pt.ine.add.PTCONT.1906349,R DAS EIRAS,,6430-361,RANHADOS,-7.356455302559354,41.002155902439014
pt.ine.add.PTCONT.1906398,R DO ADRO,,6430-361,RANHADOS,-7.355480675693742,41.000132319627234
pt.ine.add.PTCONT.1906399,TV DO CASTELO,,6430-362,RANHADOS,-7.330123661778334,40.99370933140935
pt.ine.add.PTCONT.1906400,LG DA PRAÇA,,6430-362,RANHADOS,-7.329718316724135,40.99381456128502
pt.ine.add.PTCONT.1906401,,,6430-371,VALE FLOR,-7.280425077457261,40.91512075211652
pt.ine.add.PTCONT.1906402,LG DO CRUZEIRO,,6430-371,VALE FLOR,-7.283568899513083,40.91340606299458
pt.ine.add.PTCONT.1906403,R NSA SRA DA SAUDE,,6430-371,VALE FLOR,-7.282071838080683,40.91259361228484
pt.ine.add.PTCONT.1906927,R DO POMAR,,6430-031,CARVALHAL MDA,-7.278338503068496,40.88634446370719
pt.ine.add.PTCONT.1906928,CAM DO PONTÃO,,6430-031,CARVALHAL MDA,-7.282078816572298,40.88334655459331
pt.ine.add.PTCONT.1907003,LG DA IGREJA,,6430-051,CORISCADA,-7.206875191806063,40.86591938763383
pt.ine.add.PTCONT.1907020,R ALTO POCO SANTO,563,6430-335,POÇO DO CANTO,-7.2670452451859235,40.99525166177801
pt.ine.add.PTCONT.1907131,R DIREITA,,6430-169,MEDA,-7.261574175825959,40.96307329157611
pt.ine.add.PTCONT.1907132,LOTEAM DA CORREDOURA,1,6430-114,MEDA,-7.260753110457124,40.959573317173096
pt.ine.add.PTCONT.1907133,R DIREITA,,6430-312,OUTEIRO DE GATOS,-7.299659588549727,40.95442238683376
pt.ine.add.PTCONT.1907134,TV DA R DA FORJA,,6430-341,PROVA,-7.342492854061712,40.91227630690669
pt.ine.add.PTCONT.1907135,R DO ADRO,,6430-351,RABAÇAL MDA,-7.2587502723163855,40.85470823518057
pt.ine.add.PTCONT.1907136,TV DO ADRO,,6430-351,RABAÇAL MDA,-7.258867671087881,40.85479917212456
pt.ine.add.PTCONT.1907137,R DO DESCANSO,,6430-361,RANHADOS,-7.354568443183296,41.00089154585746
pt.ine.add.PTCONT.1907138,,,6430-371,VALE FLOR,-7.284134560973207,40.91187043716034
pt.ine.add.PTCONT.1907610,R DE BAIXO,,6430-011,AVELOSO,-7.315763183264257,40.93243139883803
pt.ine.add.PTCONT.1907611,LG DA PRAÇA,,6430-011,AVELOSO,-7.316133225248673,40.93323543156119
pt.ine.add.PTCONT.1907612,LG DO ADRO,,6430-021,BARREIRA,-7.18644098850911,40.91149701213546
pt.ine.add.PTCONT.1907613,BR ALTO,,6430-021,BARREIRA,-7.187953828745401,40.911950647092894
pt.ine.add.PTCONT.1907614,R DO FUNDO DO POVO,39,6430-021,BARREIRA,-7.185169222961176,40.90995578297645
pt.ine.add.PTCONT.1907615,EM 600 1,,6430-031,CARVALHAL MDA,-7.2789553189479195,40.884512080906205
pt.ine.add.PTCONT.1907616,BR DO POMAR,,6430-031,CARVALHAL MDA,-7.278992641327095,40.886223244632355
pt.ine.add.PTCONT.1907617,R IGREJA,,6430-031,CARVALHAL MDA,-7.2829367811121495,40.88398320946194
pt.ine.add.PTCONT.1907618,TV DA R DAS EIRAS,,6430-042,CASTEIÇÃO,-7.324664427343781,40.897664206135424
pt.ine.add.PTCONT.1907619,R DA OVELHA,,6430-042,CASTEIÇÃO,-7.325183146577312,40.895020468716474
pt.ine.add.PTCONT.1907620,R DA REPÚBLICA,,6430-041,CASTEIÇÃO,-7.323766418897414,40.881764650315915
pt.ine.add.PTCONT.1907621,TV DA IGREJA,,6430-041,CASTEIÇÃO,-7.327407649010083,40.87989915921279
pt.ine.add.PTCONT.1907622,,,6430-042,CASTEIÇÃO,-7.31900265117876,40.91227494822951
pt.ine.add.PTCONT.1907623,R DE STO ANTÓNIO,,6430-051,CORISCADA,-7.209469520443422,40.86274353148809
pt.ine.add.PTCONT.1907624,R PADRE JOÃO ASSUNÇÃO,,6430-062,FONTE LONGA MDA,-7.232783817303019,41.013457321953204
pt.ine.add.PTCONT.1907625,R DA FONTE DE STO ANTÓNIO,,6430-062,FONTE LONGA MDA,-7.234139608239285,41.01254044524593
pt.ine.add.PTCONT.1907626,R DIREITA,,6430-061,FONTE LONGA MDA,-7.198843189481349,41.008468869310775
pt.ine.add.PTCONT.1907627,R DO ADRO,,6430-071,LONGROIVA,-7.2098067164692194,40.96304851067939
pt.ine.add.PTCONT.1907628,LG DO TOURAL,,6430-081,MARIALVA,-7.231394630152574,40.909480075848734
pt.ine.add.PTCONT.1907629,LG FRANCISCO SÁ CARNEIRO,,6430-081,MARIALVA,-7.232063512839568,40.90917014263095
pt.ine.add.PTCONT.1907630,AV GAGO COUTINHO E SACADURA CABRAL,,6430-183,MEDA,-7.2611082102243545,40.971398966326596
pt.ine.add.PTCONT.1907631,AV GAGO COUTINHO E SACADURA CABRAL,,6430-183,MEDA,-7.2611082102243545,40.971398966326596
pt.ine.add.PTCONT.1907632,AV GAGO COUTINHO E SACADURA CABRAL,,6430-183,MEDA,-7.2611082102243545,40.971398966326596
pt.ine.add.PTCONT.1907633,AV GAGO COUTINHO E SACADURA CABRAL,,6430-183,MEDA,-7.2611082102243545,40.971398966326596
pt.ine.add.PTCONT.1907634,R DOS BADALOS,,6430-150,MEDA,-7.257873857011719,40.96712431585509
pt.ine.add.PTCONT.1907635,R DA FONTE DE S DOMINGOS,,6430-180,MEDA,-7.260375619038864,40.96388363812404
pt.ine.add.PTCONT.1907636,BR SENHORA DAS TÁBUAS,,6430-110,MEDA,-7.262118010745283,40.973207506336784
pt.ine.add.PTCONT.1907637,R DA POÇA,52,6430-203,MEDA,-7.263782060165974,40.964098470448846
pt.ine.add.PTCONT.1907638,LG DA DEVESA,,6430-321,PAI PENELA,-7.29752115867211,40.90263039978095
pt.ine.add.PTCONT.1907639,R DA CAPELA,,6430-337,POÇO DO CANTO,-7.2749988467637605,41.011528228729595
pt.ine.add.PTCONT.1907640,R DA ESTRADA,,6430-337,POÇO DO CANTO,-7.271872455099651,41.010613467364415
pt.ine.add.PTCONT.1907641,R DO BALCÃO,,6430-337,POÇO DO CANTO,-7.274947242789739,41.01092454464027
pt.ine.add.PTCONT.1907642,R PRINCIPAL,,6430-334,POÇO DO CANTO,-7.2774089571901,40.98971025125777
pt.ine.add.PTCONT.1907937,R DO CASTELO,,6430-062,FONTE LONGA MDA,-7.232441191169122,41.01330156927573
pt.ine.add.PTCONT.1907952,TV DO LG DA CAPELA,,6430-041,CASTEIÇÃO,-7.324961214269307,40.88205217387858
pt.ine.add.PTCONT.1907953,AV GAGO COUTINHO E SACADURA CABRAL,,6430-183,MEDA,-7.2611082102243545,40.971398966326596
pt.ine.add.PTCONT.1907961,QTA DO POLEIRO,,6430-071,LONGROIVA,-7.210601933289408,40.94091270240484
pt.ine.add.PTCONT.1907988,EN 331,,6430-312,OUTEIRO DE GATOS,-7.274307463807094,40.96405129401551
pt.ine.add.PTCONT.1908008,AV GAGO COUTINHO E SACADURA CABRAL,,6430-183,MEDA,-7.2611082102243545,40.971398966326596
pt.ine.add.PTCONT.1908009,BR VALE POMBO,,6430-112,MEDA,-7.263707550667868,40.96887031514381
pt.ine.add.PTCONT.1908014,LOTEAM DO NOVAL,,6430-311,OUTEIRO DE GATOS,-7.262093237032582,40.95792661216066
pt.ine.add.PTCONT.1908045,AV ESTADOS UNIDOS DA AMÉRICA,54,6430-176,MEDA,-7.259454146724613,40.965299376428746
pt.ine.add.PTCONT.1908112,R DA FONTE DO VALE,,6430-312,OUTEIRO DE GATOS,-7.30233450766104,40.95232561800097
pt.ine.add.PTCONT.1908113,,,6430-312,OUTEIRO DE GATOS,-7.293746456323273,40.95147101252763
pt.ine.add.PTCONT.1908114,R NOVA,,6430-332,POÇO DO CANTO,-7.282295003397013,40.99141225257776
pt.ine.add.PTCONT.1908176,R JOÃO DOS SANTOS DAMIÃO,,6430-341,PROVA,-7.342099896621732,40.912381667902075
pt.ine.add.PTCONT.1908177,R DOS LAMEIROS,,6430-351,RABAÇAL MDA,-7.258762465607245,40.85378084239954
pt.ine.add.PTCONT.1908178,R DA ESCOLA,,6430-351,RABAÇAL MDA,-7.257532418631095,40.85172744227561
pt.ine.add.PTCONT.1908179,R DO CASTELO,,6430-361,RANHADOS,-7.356222996500257,41.00169510664597
pt.ine.add.PTCONT.1908180,R DO CASTELO,17,6430-361,RANHADOS,-7.356448491423574,41.00172363978014
pt.ine.add.PTCONT.1908181,R DO SALGUEIRO,,6430-361,RANHADOS,-7.352988522459845,41.00081783231682
pt.ine.add.PTCONT.1908182,EN 331,,6430-362,RANHADOS,-7.327208022098616,40.997939115772425
pt.ine.add.PTCONT.1908234,QTA DO PRADO,,6430-371,VALE FLOR,-7.289821249597202,40.91365005713669
pt.ine.add.PTCONT.1908648,R DO ROSSIO,135,6430-021,BARREIRA,-7.184593003005569,40.91041027927508
pt.ine.add.PTCONT.1908649,TV DE S SEBASTIÃO,,6430-051,CORISCADA,-7.206254133048516,40.86707600142215
pt.ine.add.PTCONT.1908697,R DOS NEGRILHOS,,6430-051,CORISCADA,-7.208709031411873,40.86540282373115
pt.ine.add.PTCONT.1908698,R DO PQ INFANTIL,,6430-051,CORISCADA,-7.210554338652521,40.864057891912
pt.ine.add.PTCONT.1908699,EN 324,,6430-062,FONTE LONGA MDA,-7.232940016940903,41.02468709071137
pt.ine.add.PTCONT.1908700,,,6430-076,LONGROIVA,-7.2056711790430805,40.99625092617086
pt.ine.add.PTCONT.1908701,R DO CIMO DA VILA,116,6430-071,LONGROIVA,-7.212512516696817,40.96408766075362
pt.ine.add.PTCONT.1909532,R DA ESCOLA,,6430-361,RANHADOS,-7.356521761270132,41.00054454168647
pt.ine.add.PTCONT.1908756,CAM CAMPO,,6430-070,LONGROIVA,-7.19136233556151,40.989543633615675
pt.ine.add.PTCONT.1908757,EN 102,,6430-071,LONGROIVA,-7.1988968864964775,40.93392096072157
pt.ine.add.PTCONT.1908758,ESTR DA VILA,,6430-081,MARIALVA,-7.232407086411297,40.91009129759965
pt.ine.add.PTCONT.1908759,R DO CABEÇO,57,6430-081,MARIALVA,-7.23033188153213,40.91082245308323
pt.ine.add.PTCONT.1908760,R DA RIBEIRA,,6430-081,MARIALVA,-7.231671859718828,40.90742018572057
pt.ine.add.PTCONT.1908761,R DO TANQUE,111,6430-214,MEDA,-7.259946249030498,40.96491590933413
pt.ine.add.PTCONT.1908810,R S PEDRO,,6430-106,MEDA,-7.2652815659168795,40.97386168185147
pt.ine.add.PTCONT.1908811,AV GAGO COUTINHO E SACADURA CABRAL,622,6430-183,MEDA,-7.261623538924221,40.968350325856846
pt.ine.add.PTCONT.1908812,R DA COOPERAÇÃO,,6430-109,MEDA,-7.263331704680157,40.96492349163205
pt.ine.add.PTCONT.1908813,R DA COOPERAÇÃO,,6430-109,MEDA,-7.263331704680157,40.96492349163205
pt.ine.add.PTCONT.1908814,R DA COOPERAÇÃO,,6430-109,MEDA,-7.263331704680157,40.96492349163205
pt.ine.add.PTCONT.1908815,R DA COOPERAÇÃO,,6430-109,MEDA,-7.263331704680157,40.96492349163205
pt.ine.add.PTCONT.1908861,R DO EIROL,,6430-173,MEDA,-7.26057252295226,40.962462410484385
pt.ine.add.PTCONT.1908904,R DIREITA,354,6430-169,MEDA,-7.264862275077908,40.96325117903631
pt.ine.add.PTCONT.1908905,LOTEAM DA CORREDOURA,,6430-114,MEDA,-7.26029653373903,40.95816515150324
pt.ine.add.PTCONT.1908906,R PRINCIPAL,,6430-312,OUTEIRO DE GATOS,-7.30087607129945,40.969153630365255
pt.ine.add.PTCONT.1908907,R DA CASA DO POVO,,6430-312,OUTEIRO DE GATOS,-7.300255209015632,40.95428261789455
pt.ine.add.PTCONT.1908908,R DA CASA DO POVO,,6430-312,OUTEIRO DE GATOS,-7.299797687166239,40.954774563332464
pt.ine.add.PTCONT.1908943,R D MARIA CARMO LACERDA FARIA,51,6430-190,MEDA,-7.260289256879043,40.96322565260568
pt.ine.add.PTCONT.1908972,R DE VALVERDE,,6430-371,VALE FLOR,-7.282699738138323,40.91176081390577
pt.ine.add.PTCONT.1908988,R DA RIBEIRA,,6430-081,MARIALVA,-7.231671859718828,40.90742018572057
pt.ine.add.PTCONT.1944466,,,6430-070,LONGROIVA,-7.195405439303973,40.994384985443496
pt.ine.add.PTCONT.1909474,R DE BAIXO,,6430-011,AVELOSO,-7.316307313272929,40.932597337630035
pt.ine.add.PTCONT.1909475,R DA CORREDOURA,,6430-011,AVELOSO,-7.316730492881727,40.93197901645437
pt.ine.add.PTCONT.1909476,,,6430-042,CASTEIÇÃO,-7.318201170389295,40.90794705750519
pt.ine.add.PTCONT.1909477,R DA VALOIRA,,6430-071,LONGROIVA,-7.212368847377152,40.965022984080875
pt.ine.add.PTCONT.1909482,R DO CIMO DA VILA,,6430-071,LONGROIVA,-7.212224323960891,40.96431047221889
pt.ine.add.PTCONT.1909483,R TRÁS DO CAMPO DA BOLA,49,6430-215,MEDA,-7.258427989181441,40.96654322647888
pt.ine.add.PTCONT.1909486,BR DO BARROCAL,,6430-102,MEDA,-7.256959882448935,40.965271442914165
pt.ine.add.PTCONT.1909487,R DO CEDRO,,6430-165,MEDA,-7.261714896551542,40.96230896890348
pt.ine.add.PTCONT.1909488,R DO CEDRO,,6430-165,MEDA,-7.261714896551542,40.96230896890348
pt.ine.add.PTCONT.1909489,R DO CEDRO,,6430-165,MEDA,-7.261714896551542,40.96230896890348
pt.ine.add.PTCONT.1909490,R DO CEDRO,,6430-165,MEDA,-7.261714896551542,40.96230896890348
pt.ine.add.PTCONT.1909491,R PADRE ANTÓNIO MARIA GAMBOA DE INFANÇÃO,,6430-341,PROVA,-7.342675354967571,40.91289887878389
pt.ine.add.PTCONT.1909492,R DE STO ANTÓNIO,,6430-362,RANHADOS,-7.328142923302556,40.996315831179345
pt.ine.add.PTCONT.1909493,R DE STO ANTÓNIO,,6430-362,RANHADOS,-7.328142923302556,40.996315831179345
pt.ine.add.PTCONT.1909496,R DO MEIO,15,6430-021,BARREIRA,-7.186501046356007,40.91061505457989
pt.ine.add.PTCONT.1909497,R LUIS LOPES,,6430-102,MEDA,-7.2562991236542045,40.96493325138216
pt.ine.add.PTCONT.1909498,AV DR JOAQUIM E ALDA SARAIVA,17,6430-187,MEDA,-7.261757314231984,40.962696484991156
pt.ine.add.PTCONT.1909499,R DO FORNO,,6430-337,POÇO DO CANTO,-7.275419073437727,41.01120719541065
pt.ine.add.PTCONT.1909500,R JOÃOZINHO LACERDA,,6430-341,PROVA,-7.339429203554922,40.91238132681128
pt.ine.add.PTCONT.1909501,R DAS PISCINAS,95,6430-021,BARREIRA,-7.1886384385660005,40.91055153904023
pt.ine.add.PTCONT.1909502,LOTEAM DA CORREDOURA,5,6430-114,MEDA,-7.260554284471821,40.95933769423463
pt.ine.add.PTCONT.1909505,R DA PORTELA DA DEVESA,,6430-206,MEDA,-7.258441196942622,40.964643368692755
pt.ine.add.PTCONT.1909506,R DA PORTELA DA DEVESA,174,6430-206,MEDA,-7.25852588760768,40.96452695216136
pt.ine.add.PTCONT.1909507,R ANTÓNIO BRANDÃO,,6430-105,MEDA,-7.254718224609167,40.96411080829394
pt.ine.add.PTCONT.1909508,R DAS ALDEIAS,,6430-362,RANHADOS,-7.3289384350481415,40.9924674495644
pt.ine.add.PTCONT.1909511,R DO CABEÇO,,6430-081,MARIALVA,-7.230315983574971,40.910246033285055
pt.ine.add.PTCONT.1909512,R DA IGREJA,,6430-371,VALE FLOR,-7.283711325170833,40.91340711217298
pt.ine.add.PTCONT.1909519,R DO CIMO DO POVO,,6430-335,POÇO DO CANTO,-7.270082325608879,40.999308454645394
pt.ine.add.PTCONT.1909520,R DO CIMO DO POVO,,6430-335,POÇO DO CANTO,-7.270082325608879,40.999308454645394
pt.ine.add.PTCONT.1909521,R DO FORNO,183,6430-351,RABAÇAL MDA,-7.259065899507235,40.85325186403434
pt.ine.add.PTCONT.1909523,LG DA IGREJA,,6430-042,CASTEIÇÃO,-7.323573272423351,40.8956665202874
pt.ine.add.PTCONT.1909525,EN 324,,6430-062,FONTE LONGA MDA,-7.233056346418723,41.01788964226696
pt.ine.add.PTCONT.1909526,BR VALE POMBO,,6430-112,MEDA,-7.263839813977217,40.96965470719365
pt.ine.add.PTCONT.1909527,R NOVA,,6430-312,OUTEIRO DE GATOS,-7.3035539990063745,40.95263154985941
pt.ine.add.PTCONT.1909528,R DE BAIXO,,6430-011,AVELOSO,-7.315809784787936,40.932503766046466
pt.ine.add.PTCONT.1909529,AV DR ADRIANO VASCO RODRIGUES,,6430-250,MEDA,-7.259545151835776,40.97010848901954
pt.ine.add.PTCONT.1909530,R DAS FLORES,,6430-312,OUTEIRO DE GATOS,-7.303808913538215,40.952192159524365
pt.ine.add.PTCONT.1909531,LG DA PRAÇA,,6430-361,RANHADOS,-7.35574002016588,41.00031415930779
pt.ine.add.PTCONT.1909880,R DAS EIRAS,,6430-042,CASTEIÇÃO,-7.323362895791654,40.898321420101276
pt.ine.add.PTCONT.1909882,VAR DO POÇO DO CANTO,,6430-335,POÇO DO CANTO,-7.2614579769818555,40.99807297593145
pt.ine.add.PTCONT.1909918,AV ALBANO BEIRÃO,,6430-011,AVELOSO,-7.316739705078109,40.93219519234065
pt.ine.add.PTCONT.1909962,BR DAS CANTARINHAS,,6430-312,OUTEIRO DE GATOS,-7.299186537839609,40.95614784355498
pt.ine.add.PTCONT.1910150,R DAS AMOREIRINHAS,,6430-011,AVELOSO,-7.317596918689242,40.931039663347
pt.ine.add.PTCONT.1910151,R NSA SRA DOS MILAGRES,,6430-021,BARREIRA,-7.188716099044924,40.90926451723016
pt.ine.add.PTCONT.1910200,R DO PQ INFANTIL,,6430-051,CORISCADA,-7.210758569929681,40.864725871434466
pt.ine.add.PTCONT.1910201,TV DA R DOS POMBAIS,,6430-062,FONTE LONGA MDA,-7.232352721327172,41.01281463714133
pt.ine.add.PTCONT.1910257,R DO CIMO DA VILA,156,6430-071,LONGROIVA,-7.212832838068809,40.96411723177647
pt.ine.add.PTCONT.1910258,R PADRE ANTÓNIO PEREIRA AMANTE,,6430-071,LONGROIVA,-7.211646825941296,40.963981694843646
pt.ine.add.PTCONT.1910317,R MARINELA,,6430-191,MEDA,-7.264369338867343,40.96460715185535
pt.ine.add.PTCONT.1910318,R DIREITA,246,6430-169,MEDA,-7.264194341340169,40.96255279669737
pt.ine.add.PTCONT.1910370,LOTEAM DO PRAZO,,6430-115,MEDA,-7.26770174582319,40.963218501374435
pt.ine.add.PTCONT.1910371,LOTEAM DO PRAZO,,6430-115,MEDA,-7.26770174582319,40.963218501374435
pt.ine.add.PTCONT.1910372,LOTEAM DO PRAZO,,6430-115,MEDA,-7.26770174582319,40.963218501374435
pt.ine.add.PTCONT.1910373,LOTEAM DO PRAZO,,6430-115,MEDA,-7.26770174582319,40.963218501374435
pt.ine.add.PTCONT.1910374,AV 25 DE ABRIL,,6430-105,MEDA,-7.259272637898833,40.95744603579232
pt.ine.add.PTCONT.1910375,BR DO CADOIÇO,,6430-312,OUTEIRO DE GATOS,-7.271188441293183,40.9645682901468
pt.ine.add.PTCONT.1910376,R DIREITA,,6430-312,OUTEIRO DE GATOS,-7.301464408602897,40.9525714731154
pt.ine.add.PTCONT.1910426,R DO CASTELO,,6430-321,PAI PENELA,-7.296337481759794,40.903324179728536
pt.ine.add.PTCONT.1910427,R DO ROSSIO,,6430-321,PAI PENELA,-7.29840538433631,40.90404152850146
pt.ine.add.PTCONT.1910428,R DA LAMEIRA,,6430-336,POÇO DO CANTO,-7.250923905688569,41.009059341452605
pt.ine.add.PTCONT.1910429,R DO CIMO DO POVO,,6430-335,POÇO DO CANTO,-7.269254901880512,40.99896008586854
pt.ine.add.PTCONT.1910430,R DO CASTELO,,6430-333,POÇO DO CANTO,-7.273810761215501,40.98768448340334
pt.ine.add.PTCONT.1910485,R TRÁS DA IGREJA,,6430-341,PROVA,-7.340625974081938,40.91156112974835
pt.ine.add.PTCONT.1910486,TV DA R DOS OLIVAIS,,6430-351,RABAÇAL MDA,-7.259081213758595,40.85389131461993
pt.ine.add.PTCONT.1910487,TV DA R DO PELÂME,,6430-351,RABAÇAL MDA,-7.257434832865845,40.85283428123233
pt.ine.add.PTCONT.1910488,R AVENIDA,440,6430-351,RABAÇAL MDA,-7.255914580773685,40.850310415034784
pt.ine.add.PTCONT.1910549,R DOS LAMEIRINHOS,,6430-362,RANHADOS,-7.329578020230316,40.99655996141759
pt.ine.add.PTCONT.1910550,R DOS LAMEIRINHOS,,6430-362,RANHADOS,-7.328897248756385,40.996834353811195
pt.ine.add.PTCONT.1910551,R DAS ALDEIAS,67,6430-362,RANHADOS,-7.328273090589688,40.99245380148191
pt.ine.add.PTCONT.1910552,,,6430-371,VALE FLOR,-7.2821511087641015,40.912891350045676
pt.ine.add.PTCONT.1910553,,,6430-371,VALE FLOR,-7.284038806376347,40.91193276457853
pt.ine.add.PTCONT.1910890,LOTEAM DO PRAZO,,6430-115,MEDA,-7.26770174582319,40.963218501374435
pt.ine.add.PTCONT.1910930,R DR JOÃO MARIA LACERDA,,6430-341,PROVA,-7.3395940746943635,40.912490517216725
pt.ine.add.PTCONT.1910938,AV ESTADOS UNIDOS DA AMÉRICA,,6430-176,MEDA,-7.259374088360168,40.96506465163272
pt.ine.add.PTCONT.1910939,AV ESTADOS UNIDOS DA AMÉRICA,,6430-176,MEDA,-7.259374088360168,40.96506465163272
pt.ine.add.PTCONT.1910940,AV ESTADOS UNIDOS DA AMÉRICA,,6430-176,MEDA,-7.259374088360168,40.96506465163272
pt.ine.add.PTCONT.1911386,R DA CAPELA,,6430-342,PROVA,-7.322501333986255,40.955251585698164
pt.ine.add.PTCONT.1911387,R DA CAPELA,,6430-342,PROVA,-7.322501333986255,40.955251585698164
pt.ine.add.PTCONT.1911388,R DO DESCANSO,,6430-361,RANHADOS,-7.354857594748074,41.00056033133952
pt.ine.add.PTCONT.1911391,R DA FONTE SALGUEIRO,,6430-011,AVELOSO,-7.317653289911789,40.931283186566276
pt.ine.add.PTCONT.1911393,R DO CASTELO,,6430-071,LONGROIVA,-7.208732662270102,40.9642555147506
pt.ine.add.PTCONT.1911397,R DA PRAÇA,14,6430-071,LONGROIVA,-7.210624346937598,40.96404555395602
pt.ine.add.PTCONT.1911398,BR DO BARROCAL,,6430-102,MEDA,-7.25716940041185,40.96559719846486
pt.ine.add.PTCONT.1911399,R JOÃO PERDIGÃO,,6430-102,MEDA,-7.25566355855985,40.964487193321915
pt.ine.add.PTCONT.1911400,AV DR JOAQUIM E ALDA SARAIVA,62,6430-187,MEDA,-7.262047111210893,40.96233849309532
pt.ine.add.PTCONT.1911402,TV DO CONCELHO,,6430-051,CORISCADA,-7.207318779708953,40.865580771346195
pt.ine.add.PTCONT.1911403,R DA CORREDOURA,,6430-071,LONGROIVA,-7.211260001254483,40.96360941676404
pt.ine.add.PTCONT.1911404,R DO CEDRO,,6430-165,MEDA,-7.262083927513533,40.9622487257924
pt.ine.add.PTCONT.1911405,EM 609,,6430-337,POÇO DO CANTO,-7.275108014929345,41.01227641285302
pt.ine.add.PTCONT.1911406,R DAS FLORES,,6430-362,RANHADOS,-7.330426294075117,40.99423370133933
pt.ine.add.PTCONT.1911407,R DAS ALDEIAS,142,6430-362,RANHADOS,-7.328026227514195,40.99320845738764
pt.ine.add.PTCONT.1911410,R DA CAPELA,,6430-336,POÇO DO CANTO,-7.252824563775694,41.00915491327344
pt.ine.add.PTCONT.1911417,R DO ARRABALDE,,6430-335,POÇO DO CANTO,-7.2686358724774065,40.999945939076184
pt.ine.add.PTCONT.1911421,R DO EIROL,,6430-173,MEDA,-7.259438222059584,40.962904047341176
pt.ine.add.PTCONT.1911422,URB DO PRAZO,,6430-312,OUTEIRO DE GATOS,-7.269335112852613,40.96367197357613
pt.ine.add.PTCONT.1911423,URB DO PRAZO,,6430-312,OUTEIRO DE GATOS,-7.269335112852613,40.96367197357613
pt.ine.add.PTCONT.1911428,R DE CASCORRO,,6430-031,CARVALHAL MDA,-7.283626593809465,40.88385322226703
pt.ine.add.PTCONT.1911429,AV GAGO COUTINHO E SACADURA CABRAL,,6430-183,MEDA,-7.261716123620398,40.9730513922269
pt.ine.add.PTCONT.1911430,AV GAGO COUTINHO E SACADURA CABRAL,,6430-183,MEDA,-7.261716123620398,40.9730513922269
pt.ine.add.PTCONT.1911431,AV GAGO COUTINHO E SACADURA CABRAL,,6430-183,MEDA,-7.261716123620398,40.9730513922269
pt.ine.add.PTCONT.1911432,BR DO PRAZO,,6430-312,OUTEIRO DE GATOS,-7.268806722202615,40.96319977700189
pt.ine.add.PTCONT.1911437,R DO VALE,,6430-062,FONTE LONGA MDA,-7.2335071784011875,41.01271560002495
pt.ine.add.PTCONT.1911438,R DA FONTE DE STO ANTÓNIO,,6430-062,FONTE LONGA MDA,-7.233901879833706,41.0125385908217
pt.ine.add.PTCONT.1911439,BR DE STO ANTÓNIO,,6430-109,MEDA,-7.263788810576792,40.96901500052081
pt.ine.add.PTCONT.1911440,R DA FONTE NOVA,,6430-371,VALE FLOR,-7.283635389188618,40.91284826580548
pt.ine.add.PTCONT.1911441,R PRINCIPAL,,6430-332,POÇO DO CANTO,-7.279811619961809,40.991384891571506
pt.ine.add.PTCONT.1911446,R DOS POUSADOUROS,,6430-011,AVELOSO,-7.316265245576975,40.93022882670816
pt.ine.add.PTCONT.1911447,R DA REPÚBLICA,,6430-041,CASTEIÇÃO,-7.32350696304333,40.88163676365487
pt.ine.add.PTCONT.1911448,R DO POÇO,,6430-041,CASTEIÇÃO,-7.327083744822675,40.88019405095282
pt.ine.add.PTCONT.1911818,URB DO PRAZO,,6430-312,OUTEIRO DE GATOS,-7.269335112852613,40.96367197357613
pt.ine.add.PTCONT.1911819,R BR DO AFIFE,,6430-051,CORISCADA,-7.208589948319016,40.86202511495275
pt.ine.add.PTCONT.1911838,ADRO DA IGREJA,,6430-341,PROVA,-7.340922152833896,40.91160818801682
pt.ine.add.PTCONT.1911903,ESTR PARA OUTEIRO DE GATOS,,6430-200,MEDA,-7.27663842393138,40.96200659239292
pt.ine.add.PTCONT.1911909,R DA ENCOSTA,,6430-312,OUTEIRO DE GATOS,-7.303225082207193,40.952341036372815
pt.ine.add.PTCONT.1912243,R DOS POUSADOUROS,,6430-011,AVELOSO,-7.316810577902993,40.93029572091445
pt.ine.add.PTCONT.1912289,R DO MEIO,,6430-021,BARREIRA,-7.186737122295653,40.91070703824966
pt.ine.add.PTCONT.1912290,TV DA CAPELA,,6430-021,BARREIRA,-7.1881973255470974,40.90985457113833
pt.ine.add.PTCONT.1912291,R SECADAL,,6430-051,CORISCADA,-7.206074802300401,40.86462528887563
pt.ine.add.PTCONT.1912336,R DO CANTINHO,,6430-062,FONTE LONGA MDA,-7.230854476901948,41.014585801012785
pt.ine.add.PTCONT.1912375,QTA DO POLEIRO,,6430-071,LONGROIVA,-7.210365841904519,40.94081176300988
pt.ine.add.PTCONT.1912376,QTA DA VEIGA,,6430-074,LONGROIVA,-7.19576366660224,40.98335740791999
pt.ine.add.PTCONT.1912377,R NOVA,,6430-081,MARIALVA,-7.233075823873224,40.90891691413827
pt.ine.add.PTCONT.1912378,R DA MOIRA,,6430-081,MARIALVA,-7.229525358441066,40.909906670113706
pt.ine.add.PTCONT.1912427,R PROF ANTERO SOBRAL,,6430-102,MEDA,-7.254818081560264,40.964642836995026
pt.ine.add.PTCONT.1912428,AV DO BARROCAL,,6430-102,MEDA,-7.257285945707207,40.964868716145276
pt.ine.add.PTCONT.1912429,R D MARIA CARMO LACERDA FARIA,,6430-190,MEDA,-7.2600401821742375,40.963196752993234
pt.ine.add.PTCONT.1912511,R DIREITA,252,6430-169,MEDA,-7.264205510324775,40.962606908157994
pt.ine.add.PTCONT.1912512,BR DO CADOIÇO,,6430-312,OUTEIRO DE GATOS,-7.270669680881954,40.964267260517396
pt.ine.add.PTCONT.1912513,R DIREITA,,6430-312,OUTEIRO DE GATOS,-7.301752818015801,40.95230341588698
pt.ine.add.PTCONT.1912514,R DO ROSSIO,,6430-321,PAI PENELA,-7.300812940204429,40.90323050176392
pt.ine.add.PTCONT.1912592,R DA LAMEIRA,,6430-336,POÇO DO CANTO,-7.250512706994794,41.00869601463601
pt.ine.add.PTCONT.1912593,BC DA R DO FORNO,,6430-342,PROVA,-7.323209635583076,40.95463524763227
pt.ine.add.PTCONT.1912594,R PADRE AMÂNDIO JOSÉ DO AMARAL,,6430-341,PROVA,-7.3413612912121184,40.91360123125961
pt.ine.add.PTCONT.1912635,R DO DESCANSO,,6430-361,RANHADOS,-7.355382106414084,41.00042880371172
pt.ine.add.PTCONT.1912636,R DO CASTELO,,6430-362,RANHADOS,-7.330574464162752,40.99377550248628
pt.ine.add.PTCONT.1912637,R DAS FLORES,,6430-362,RANHADOS,-7.330334831150719,40.993935915244435
pt.ine.add.PTCONT.1912638,,,6430-362,RANHADOS,-7.336285048584986,40.999190816288184
pt.ine.add.PTCONT.1912752,BR DO CADOIÇO,,6430-312,OUTEIRO DE GATOS,-7.2710561437044365,40.964693364611286
pt.ine.add.PTCONT.1912771,R DA PORTELA DA REGADA,,6430-207,MEDA,-7.258218159776974,40.96264266772287
pt.ine.add.PTCONT.1912772,R DA PORTELA DA REGADA,,6430-207,MEDA,-7.258218159776974,40.96264266772287
pt.ine.add.PTCONT.1912794,R DA LADEIRA,,6430-062,FONTE LONGA MDA,-7.234273067021439,41.01321682055936
pt.ine.add.PTCONT.1912795,,,6430-074,LONGROIVA,-7.189265681700678,40.980738106912014
pt.ine.add.PTCONT.1912796,R DA RIBEIRA,,6430-081,MARIALVA,-7.231680059002524,40.90769038840394
pt.ine.add.PTCONT.1912847,BR NSA SRA DE FÁTIMA,,6430-081,MARIALVA,-7.216524632650752,40.911046703303185
pt.ine.add.PTCONT.1912848,R DOS BADALOS,,6430-150,MEDA,-7.258013542243941,40.967341485157405
pt.ine.add.PTCONT.1912849,R TRÁS DO CAMPO DA BOLA,50,6430-215,MEDA,-7.25843024817812,40.96637215737846
pt.ine.add.PTCONT.1912850,R DOS PELÂMES,60,6430-202,MEDA,-7.258504865993919,40.96431968821755
pt.ine.add.PTCONT.1912851,R DE S PEDRO,,6430-122,MEDA,-7.264979855127456,40.97421959137867
pt.ine.add.PTCONT.1912852,BR SENHORA DAS TÁBUAS,,6430-110,MEDA,-7.2626143438331425,40.97340935490047
pt.ine.add.PTCONT.1912853,BR VALE POMBO,,6430-112,MEDA,-7.265342135566131,40.97105272378602
pt.ine.add.PTCONT.1912854,AV CIDADE DE CANTANHEDE,,6430-121,MEDA,-7.266361723912926,40.96667518405849
pt.ine.add.PTCONT.1912905,R NOVA,136,6430-199,MEDA,-7.262908119406098,40.964614140639036
pt.ine.add.PTCONT.1912906,R DO MENINO,,6430-192,MEDA,-7.2619957323055395,40.96353570944287
pt.ine.add.PTCONT.1912907,R LUIS LOPES,140,6430-102,MEDA,-7.256255465972749,40.96374431986491
pt.ine.add.PTCONT.1912908,BR DAS LAMEIRINHAS,,6430-105,MEDA,-7.254172631352312,40.96315216857433
pt.ine.add.PTCONT.1912909,LG DE S DOMINGOS,,6430-170,MEDA,-7.259586575892088,40.963364403270546
pt.ine.add.PTCONT.1912910,LG DE S DOMINGOS,,6430-170,MEDA,-7.259586575892088,40.963364403270546
pt.ine.add.PTCONT.1912911,R DA CORREDOURA,,6430-165,MEDA,-7.262189600224513,40.96143911487356
pt.ine.add.PTCONT.1912969,EN 331,,6430-313,OUTEIRO DE GATOS,-7.3023108238984165,40.96463468877148
pt.ine.add.PTCONT.1912970,,,6430-312,OUTEIRO DE GATOS,-7.319006160524752,40.95357912088255
pt.ine.add.PTCONT.1912971,R DA CASA DO POVO,,6430-321,PAI PENELA,-7.2973017372409,40.9040335349063
pt.ine.add.PTCONT.1912972,R DA FONTE,,6430-337,POÇO DO CANTO,-7.275556010624153,41.01073097706694
pt.ine.add.PTCONT.1912973,R DO BALCÃO,,6430-337,POÇO DO CANTO,-7.27458808361053,41.01111996847
pt.ine.add.PTCONT.1912974,R DO SACO,,6430-337,POÇO DO CANTO,-7.274649735675219,41.01094934262429
pt.ine.add.PTCONT.1913023,CAM DE CÓTIMOS,,6430-351,RABAÇAL MDA,-7.25250477035483,40.84810529304979
pt.ine.add.PTCONT.1913024,R AVENIDA,,6430-351,RABAÇAL MDA,-7.255730305131666,40.85079526817327
pt.ine.add.PTCONT.1913025,R DOS OLIVAIS,,6430-351,RABAÇAL MDA,-7.259337923422361,40.85330795321849
pt.ine.add.PTCONT.1913095,R DA CARREIRA,,6430-361,RANHADOS,-7.355135070578022,41.000211028232556
pt.ine.add.PTCONT.1913096,TV DO CASTELO,,6430-362,RANHADOS,-7.330445822348996,40.99360352089843
pt.ine.add.PTCONT.1913097,EN 331,,6430-362,RANHADOS,-7.328622578620157,40.99303253048191
pt.ine.add.PTCONT.1913098,R DA EIRA,,6430-371,VALE FLOR,-7.279383786249173,40.91394244631976
pt.ine.add.PTCONT.1913099,R DO ROSMANINHO,,6430-371,VALE FLOR,-7.282395504019255,40.91327134768517
pt.ine.add.PTCONT.1913560,R DA CORREDOURA,,6430-011,AVELOSO,-7.316848439423073,40.93204288375037
pt.ine.add.PTCONT.1913561,R DA CAPELA,,6430-011,AVELOSO,-7.317179624207929,40.931180785037604
pt.ine.add.PTCONT.1913562,R DE S SEBASTIÃO,,6430-021,BARREIRA,-7.188491487612381,40.911702923961904
pt.ine.add.PTCONT.1913608,R DA CALÇADA,,6430-041,CASTEIÇÃO,-7.3257058227580965,40.881309999602536
pt.ine.add.PTCONT.1913609,LG DO ROSSIO,,6430-041,CASTEIÇÃO,-7.324340130693086,40.88141749190112
pt.ine.add.PTCONT.1913610,AV DR LUIS DE ALMEIDA,,6430-051,CORISCADA,-7.208082080815288,40.86528073654573
pt.ine.add.PTCONT.1913611,R TRAVESSA FERRADA,,6430-051,CORISCADA,-7.207313492634459,40.86425704155352
pt.ine.add.PTCONT.1913612,QTA PAIOLA,,6430-051,CORISCADA,-7.2212216092091825,40.88623116425675
pt.ine.add.PTCONT.1913655,R DR DUARTE REBOREDO,,6430-211,MEDA,-7.261667605409533,40.96500097019901
pt.ine.add.PTCONT.1913712,R ARRAEL,,6430-362,RANHADOS,-7.334468352599575,40.99018272766255
pt.ine.add.PTCONT.1913766,LG CAPELA,,6430-041,CASTEIÇÃO,-7.324311884961515,40.880813979487144
pt.ine.add.PTCONT.1914202,R DA QTA NOVA,,6430-075,LONGROIVA,-7.183733803430562,40.9671228977264
pt.ine.add.PTCONT.1914203,QTA PÊRO SOUSA,,6430-118,MEDA,-7.286450202693373,40.95921561714435
pt.ine.add.PTCONT.1914204,R DOS BADALOS,,6430-150,MEDA,-7.257577017444301,40.96711305734152
pt.ine.add.PTCONT.1914205,R DIREITA,84,6430-169,MEDA,-7.2623129559909545,40.96289878326001
pt.ine.add.PTCONT.1914206,EM 601,,6430-312,OUTEIRO DE GATOS,-7.286205596181045,40.9579081592979
pt.ine.add.PTCONT.1914209,R DR DINIS ALVES,,6430-105,MEDA,-7.255145411795254,40.96504153002788
pt.ine.add.PTCONT.1914210,AV 25 DE ABRIL,,6430-105,MEDA,-7.266191419047777,40.962441767623
pt.ine.add.PTCONT.1914211,R DOS LAMEIRINHOS,,6430-362,RANHADOS,-7.329797363965618,40.9970927566527
pt.ine.add.PTCONT.1914213,R ANTÓNIO MARTINS SIMÃO,,6430-051,CORISCADA,-7.209133642322097,40.86472187059432
pt.ine.add.PTCONT.1914217,AV DR LUIS DE ALMEIDA,,6430-051,CORISCADA,-7.2078030351703175,40.86572873203831
pt.ine.add.PTCONT.1914218,R DO OUTEIRO GORDO,,6430-071,LONGROIVA,-7.211942547438641,40.96236324315808
pt.ine.add.PTCONT.1914219,R LUIS LOPES,100,6430-102,MEDA,-7.2563229189363705,40.9640329782325
pt.ine.add.PTCONT.1914223,EN 331,,6430-198,MEDA,-7.257602733091485,40.95977454987956
pt.ine.add.PTCONT.1914224,R DO BALCÃO,,6430-337,POÇO DO CANTO,-7.274801803215079,41.01113956912037
pt.ine.add.PTCONT.1914227,R DA FONTE DA DORNA,,6430-051,CORISCADA,-7.207229041259678,40.86521085933914
pt.ine.add.PTCONT.1914228,R DA FONTE DA DORNA,,6430-051,CORISCADA,-7.207064256236838,40.86511948968313
pt.ine.add.PTCONT.1914229,R D MANUEL I,91,6430-189,MEDA,-7.260030818756691,40.96480849532261
pt.ine.add.PTCONT.1914230,R ALDEIA VELHA,,6430-341,PROVA,-7.3448413795920935,40.91041941699208
pt.ine.add.PTCONT.1914232,R DO FUNDO DO POVO,,6430-022,BARREIRA,-7.180015426104107,40.885330700160466
pt.ine.add.PTCONT.1914233,R DO CIMO DO POVO,,6430-022,BARREIRA,-7.180836069376026,40.88519340499071
pt.ine.add.PTCONT.1914234,R NOVA,,6430-081,MARIALVA,-7.233607526523638,40.90821870252439
pt.ine.add.PTCONT.1914235,R DOS PELÂMES,,6430-202,MEDA,-7.258645379554923,40.964473831338054
pt.ine.add.PTCONT.1914237,R DO RIBEIRO,31,6430-031,CARVALHAL MDA,-7.2844704157443765,40.88466985501745
pt.ine.add.PTCONT.1914238,R DA MOIRA,,6430-081,MARIALVA,-7.22918876239343,40.910219193673754
pt.ine.add.PTCONT.1914239,BR DO CADOIÇO,,6430-312,OUTEIRO DE GATOS,-7.271330156493755,40.96463238139595
pt.ine.add.PTCONT.1914240,R DO ROSSIO,,6430-351,RABAÇAL MDA,-7.258598145702675,40.85545447281505
pt.ine.add.PTCONT.1914243,AV 25 DE ABRIL,,6430-081,MARIALVA,-7.231161431484771,40.90917209514835
pt.ine.add.PTCONT.1914244,BR SENHORA DAS TÁBUAS,,6430-110,MEDA,-7.2622177028697665,40.97375753580106
pt.ine.add.PTCONT.1914245,BR SENHORA DAS TÁBUAS,,6430-110,MEDA,-7.2622177028697665,40.97375753580106
pt.ine.add.PTCONT.1914248,R DO CIMO DO POVO,,6430-335,POÇO DO CANTO,-7.268750829699116,40.99933449574257
pt.ine.add.PTCONT.1914249,R DO CIMO DO POVO,,6430-335,POÇO DO CANTO,-7.270297506890692,40.998301562288475
pt.ine.add.PTCONT.1914253,R DIREITA,,6430-332,POÇO DO CANTO,-7.281028878922904,40.99098869301671
pt.ine.add.PTCONT.1914257,R DA QUELHA,,6430-042,CASTEIÇÃO,-7.325389243202101,40.89466172551795
pt.ine.add.PTCONT.1914258,R DO FORNO,,6430-332,POÇO DO CANTO,-7.280601913681415,40.99092250456803
pt.ine.add.PTCONT.1914263,AV GAGO COUTINHO E SACADURA CABRAL,,6430-183,MEDA,-7.261134576504808,40.97120106604589
pt.ine.add.PTCONT.1914264,AV GAGO COUTINHO E SACADURA CABRAL,,6430-183,MEDA,-7.261134576504808,40.97120106604589
pt.ine.add.PTCONT.1914265,R DO MERCADO,76,6430-193,MEDA,-7.262487067487229,40.96501616611661
pt.ine.add.PTCONT.1914266,R DO MERCADO,76,6430-193,MEDA,-7.262487067487229,40.96501616611661
pt.ine.add.PTCONT.1914267,R DO MERCADO,76,6430-193,MEDA,-7.262487067487229,40.96501616611661
pt.ine.add.PTCONT.1914270,R DA FONTE DOS CANOS,,6430-011,AVELOSO,-7.316750925272652,40.93321279271133
pt.ine.add.PTCONT.1914271,R DO CASTELO,,6430-333,POÇO DO CANTO,-7.274035352190479,40.987776202499845
pt.ine.add.PTCONT.1914720,R DO MEIO,,6430-021,BARREIRA,-7.186115232582711,40.911035102928686
pt.ine.add.PTCONT.1914721,BR SENHORA DAS TÁBUAS,,6430-110,MEDA,-7.2622177028697665,40.97375753580106
pt.ine.add.PTCONT.1914750,LG CAPELA,,6430-041,CASTEIÇÃO,-7.324311884961515,40.880813979487144
pt.ine.add.PTCONT.1914814,LG DA PRAÇA,,6430-011,AVELOSO,-7.317030750348401,40.93266549234196
pt.ine.add.PTCONT.1914815,TV DA SERVENTIA,,6430-022,BARREIRA,-7.179607001908922,40.88650693114973
pt.ine.add.PTCONT.1914816,R DO RIBEIRO,30,6430-031,CARVALHAL MDA,-7.2863526379623,40.88314389013778
pt.ine.add.PTCONT.1914817,R DO MEIO,,6430-031,CARVALHAL MDA,-7.28426595862839,40.883956981180816
pt.ine.add.PTCONT.1914818,R DO CABECINHO,15,6430-031,CARVALHAL MDA,-7.282297662641971,40.88293395420639
pt.ine.add.PTCONT.1914874,AV DR LUIS DE ALMEIDA,,6430-051,CORISCADA,-7.207971331335857,40.86556799790018
pt.ine.add.PTCONT.1914875,R ANTÓNIO MARTINS SIMÃO,,6430-051,CORISCADA,-7.208424141184128,40.86541854947591
pt.ine.add.PTCONT.1914876,LG DO CHORÃO,,6430-051,CORISCADA,-7.207956508170608,40.864928547034694
pt.ine.add.PTCONT.1914877,LG DE STA BARBARA,,6430-051,CORISCADA,-7.20679711582668,40.86301025015001
pt.ine.add.PTCONT.1914878,R BR DO AFIFE,,6430-051,CORISCADA,-7.212879105779972,40.85891677956248
pt.ine.add.PTCONT.1914879,AV LÚCIO SARAIVA,,6430-051,CORISCADA,-7.2098803712292,40.86219753525478
pt.ine.add.PTCONT.1914880,R DA LADEIRA,,6430-062,FONTE LONGA MDA,-7.2333326827317865,41.01330853224157
pt.ine.add.PTCONT.1914881,CM 1011,,6430-061,FONTE LONGA MDA,-7.197268014336475,41.00805989469139
pt.ine.add.PTCONT.1914882,R DIREITA,,6430-061,FONTE LONGA MDA,-7.197652425055109,41.00777487268276
pt.ine.add.PTCONT.1914918,EN 324,41,6430-081,MARIALVA,-7.229522316083106,40.90925831393752
pt.ine.add.PTCONT.1914919,QTA DA COUTADA,,6430-250,MEDA,-7.256171107157568,40.97191079241962
pt.ine.add.PTCONT.1914962,R DA PORTELA DA DEVESA,,6430-206,MEDA,-7.258452004887883,40.96472449156644
pt.ine.add.PTCONT.1914963,R DA POÇA,20,6430-203,MEDA,-7.26348405090191,40.96417726379534
pt.ine.add.PTCONT.1914964,R DOS PELÂMES,,6430-202,MEDA,-7.258294156323923,40.96408397140019
pt.ine.add.PTCONT.1915010,R DA POÇA,,6430-203,MEDA,-7.263631430183931,40.963809189086085
pt.ine.add.PTCONT.1915009,AV 25 DE ABRIL,,6430-105,MEDA,-7.256447133245414,40.96182780965844
pt.ine.add.PTCONT.1915011,R CMDT FRANCISCO TRIGO,16,6430-182,MEDA,-7.264251721581013,40.96270630645072
pt.ine.add.PTCONT.1915054,TV DAS FLORES,,6430-312,OUTEIRO DE GATOS,-7.3036632485101824,40.952443239792885
pt.ine.add.PTCONT.1915055,R DO RIBEIRO,,6430-312,OUTEIRO DE GATOS,-7.303419717203741,40.95197324958169
pt.ine.add.PTCONT.1915056,EM 600,,6430-321,PAI PENELA,-7.29547388156622,40.90874771051743
pt.ine.add.PTCONT.1915057,R DA LAMEIRA,,6430-336,POÇO DO CANTO,-7.251028118533988,41.00837579917809
pt.ine.add.PTCONT.1915106,R DA MARRAFEIRA,,6430-351,RABAÇAL MDA,-7.259936724024935,40.85557267002333
pt.ine.add.PTCONT.1915107,R DO FORNO,,6430-351,RABAÇAL MDA,-7.258629421997527,40.85397793749512
pt.ine.add.PTCONT.1915108,,,6430-351,RABAÇAL MDA,-7.256040991605736,40.849717064995545
pt.ine.add.PTCONT.1915162,LG DA PRAÇA,,6430-362,RANHADOS,-7.3297435044135835,40.993697678065026
pt.ine.add.PTCONT.1915163,,,6430-362,RANHADOS,-7.346286003670944,40.99074123748901
pt.ine.add.PTCONT.1915164,TV DO FUNDO DO POVO,,6430-371,VALE FLOR,-7.280729249892964,40.91361922831582
pt.ine.add.PTCONT.1915165,,,6430-371,VALE FLOR,-7.273636491061234,40.91686227410124
pt.ine.add.PTCONT.1915728,R DA QUEIMADA,2,6430-031,CARVALHAL MDA,-7.283018328097739,40.884100871314864
pt.ine.add.PTCONT.1915730,R DA FONTE DOS GARFOS,,6430-361,RANHADOS,-7.328369596426111,40.99819935743101
pt.ine.add.PTCONT.1915739,R DO CIMO DA VILA,,6430-071,LONGROIVA,-7.212228204053777,40.96403136289979
pt.ine.add.PTCONT.1915755,R DA FORJA,,6430-341,PROVA,-7.3420972136685245,40.912606765725904
pt.ine.add.PTCONT.1915863,AV 25 DE ABRIL,,6430-105,MEDA,-7.265335529347896,40.9624893557568
pt.ine.add.PTCONT.1915864,EN 331,,6430-313,OUTEIRO DE GATOS,-7.301808895707662,40.964874193614996
pt.ine.add.PTCONT.1915865,R DA ENCOSTA,,6430-312,OUTEIRO DE GATOS,-7.303314751799319,40.95181941637572
pt.ine.add.PTCONT.1915866,R DO ADRO,,6430-341,PROVA,-7.341524769408009,40.91183744244645
pt.ine.add.PTCONT.1915867,R DO CASTELO,,6430-351,RABAÇAL MDA,-7.261539145836782,40.85365778091542
pt.ine.add.PTCONT.1915868,R DO CASTELO,,6430-361,RANHADOS,-7.356294578813127,41.00066006961401
pt.ine.add.PTCONT.1915869,TV DA PORTELA,,6430-371,VALE FLOR,-7.282866127951464,40.91174403158124
pt.ine.add.PTCONT.1916365,R DA CORREDOURA,,6430-011,AVELOSO,-7.316859646752016,40.93209699075402
pt.ine.add.PTCONT.1916366,R DA FONTE SALGUEIRO,,6430-011,AVELOSO,-7.3193442114222735,40.93088092034774
pt.ine.add.PTCONT.1916367,R DO RIBEIRO,,6430-031,CARVALHAL MDA,-7.2843360039298775,40.88497502477591
pt.ine.add.PTCONT.1916368,R DO CABECINHO,,6430-031,CARVALHAL MDA,-7.282649529101461,40.883251713020336
pt.ine.add.PTCONT.1916369,R DO FUNDO DO POVO,,6430-042,CASTEIÇÃO,-7.32621517920376,40.89602721244918
pt.ine.add.PTCONT.1916370,R DIREITA,,6430-051,CORISCADA,-7.204871635715197,40.866695692028486
pt.ine.add.PTCONT.1916371,EN 324,,6430-062,FONTE LONGA MDA,-7.235787581067162,41.013741875622365
pt.ine.add.PTCONT.1916372,R DA PORTELA,,6430-075,LONGROIVA,-7.18584572270804,40.96896818607612
pt.ine.add.PTCONT.1916373,R DA PORTELA,,6430-075,LONGROIVA,-7.185243143843705,40.968738120422806
pt.ine.add.PTCONT.1916374,R DA CORREDOURA,,6430-081,MARIALVA,-7.2322602267079485,40.91566400508974
pt.ine.add.PTCONT.1916375,R DA PORTELA DA DEVESA,,6430-206,MEDA,-7.258581354426624,40.96482452280718
pt.ine.add.PTCONT.1916376,R DO TANQUE,,6430-214,MEDA,-7.259569835229312,40.96463391700071
pt.ine.add.PTCONT.1916377,AV CIDADE DE CANTANHEDE,,6430-121,MEDA,-7.266304077714704,40.96744914114116
pt.ine.add.PTCONT.1916378,R NOVA,,6430-199,MEDA,-7.263215762713171,40.96470650781239
pt.ine.add.PTCONT.1916379,R DA POÇA,,6430-203,MEDA,-7.265066752760705,40.963964077913765
pt.ine.add.PTCONT.1916380,R DO BALCÃO,,6430-337,POÇO DO CANTO,-7.274968795552423,41.01109579015638
pt.ine.add.PTCONT.1916381,R DE BAIXO,,6430-335,POÇO DO CANTO,-7.267767153207931,40.999120011879526
pt.ine.add.PTCONT.1916382,R DR JOÃO MARIA LACERDA,,6430-341,PROVA,-7.340091919112072,40.912547969787724
pt.ine.add.PTCONT.1916778,R DAS FIGUEIRAS,,6430-041,CASTEIÇÃO,-7.325323970923407,40.88051491287483
pt.ine.add.PTCONT.1916830,BR DO CADOIÇO,,6430-312,OUTEIRO DE GATOS,-7.272160325156021,40.96473763403301
pt.ine.add.PTCONT.1916880,AV DR LUIS DE ALMEIDA,,6430-051,CORISCADA,-7.206385851413409,40.866987013094075
pt.ine.add.PTCONT.1916881,R DIREITA,,6430-051,CORISCADA,-7.206372675289382,40.866230514698174
pt.ine.add.PTCONT.1916928,,,6430-074,LONGROIVA,-7.194305335327586,40.97977976105408
pt.ine.add.PTCONT.1916929,R NOVA,,6430-081,MARIALVA,-7.233368341405285,40.908351905860464
pt.ine.add.PTCONT.1916930,R DA MOIRA,,6430-081,MARIALVA,-7.228937079902305,40.91039731283789
pt.ine.add.PTCONT.1916931,AV 25 DE ABRIL,,6430-081,MARIALVA,-7.230142018834032,40.90907407113927
pt.ine.add.PTCONT.1916932,QTA DA LOVEIRA,,6430-081,MARIALVA,-7.234067619846714,40.89878544166239
pt.ine.add.PTCONT.1916993,BR DO BARROCAL,,6430-102,MEDA,-7.256625153795645,40.96543098027084
pt.ine.add.PTCONT.1916994,TV DA R DO TANQUE,,6430-145,MEDA,-7.259873192079367,40.96414996988356
pt.ine.add.PTCONT.1916995,AV GAGO COUTINHO E SACADURA CABRAL,416,6430-183,MEDA,-7.262786906090218,40.97022305339683
pt.ine.add.PTCONT.1917044,R DIREITA,150,6430-169,MEDA,-7.263122997767352,40.962724807974425
pt.ine.add.PTCONT.1917045,BR DO CADOIÇO,14,6430-312,OUTEIRO DE GATOS,-7.271433192994666,40.96493030157592
pt.ine.add.PTCONT.1917046,R DO RIBEIRO,,6430-312,OUTEIRO DE GATOS,-7.301810615942886,40.95242989669016
pt.ine.add.PTCONT.1917109,R DIREITA,,6430-312,OUTEIRO DE GATOS,-7.301803709583541,40.95203364558409
pt.ine.add.PTCONT.1917110,R DA LAMEIRA,,6430-336,POÇO DO CANTO,-7.250702632759904,41.009606920373656
pt.ine.add.PTCONT.1917111,R DA LAMEIRA,,6430-336,POÇO DO CANTO,-7.250473925627302,41.00892983392316
pt.ine.add.PTCONT.1917112,R DO ARRABALDE,,6430-335,POÇO DO CANTO,-7.2683331167843095,41.00037588363111
pt.ine.add.PTCONT.1917165,R NSA SRA DA PAZ,,6430-341,PROVA,-7.341662526513633,40.913225103916545
pt.ine.add.PTCONT.1917166,R DA FONTE DA TEJA,,6430-341,PROVA,-7.342798794563328,40.911504004116544
pt.ine.add.PTCONT.1917167,LG AUGUSTO CESAR DE CARVALHO,,6430-351,RABAÇAL MDA,-7.258215703677814,40.85477621949457
pt.ine.add.PTCONT.1917168,R DO FORNO,,6430-351,RABAÇAL MDA,-7.2589067746740135,40.853628856079695
pt.ine.add.PTCONT.1917169,R DA ESCOLA,235,6430-351,RABAÇAL MDA,-7.256805776631664,40.85197405630385
pt.ine.add.PTCONT.1917170,LG DA PRAÇA,,6430-361,RANHADOS,-7.355599098050939,41.00016913654793
pt.ine.add.PTCONT.1917207,R DA CORREDOURA,,6430-362,RANHADOS,-7.330545038345764,40.99326203991991
pt.ine.add.PTCONT.1917208,R SALGADA,,6430-362,RANHADOS,-7.330815093454268,40.99255256259274
pt.ine.add.PTCONT.1917209,R PROPES,,6430-371,VALE FLOR,-7.2823470102138135,40.912424554782866
pt.ine.add.PTCONT.1917210,,,6430-371,VALE FLOR,-7.27373689104506,40.921941625908644
pt.ine.add.PTCONT.1917682,R DO OUTEIRO,,6430-021,BARREIRA,-7.186058509703551,40.91168296808622
pt.ine.add.PTCONT.1917683,R DO FUNDO DO POVO,,6430-021,BARREIRA,-7.186124996316438,40.91035083364768
pt.ine.add.PTCONT.1917707,R DA DEVESA,,6430-321,PAI PENELA,-7.298972894352848,40.901380258334875
pt.ine.add.PTCONT.1917765,R DA POÇA,,6430-203,MEDA,-7.26379689185856,40.963873468674045
pt.ine.add.PTCONT.1917790,R DA IGREJA,,6430-311,OUTEIRO DE GATOS,-7.298653108497308,40.97020910258279
pt.ine.add.PTCONT.1917800,ESTR NACIONAL,,6430-312,OUTEIRO DE GATOS,-7.2762915314597,40.96219311039748
pt.ine.add.PTCONT.1918286,R DA POÇA,38,6430-203,MEDA,-7.263592960514626,40.96402500801563
pt.ine.add.PTCONT.1918289,R DO EIROL,238,6430-173,MEDA,-7.261612296113023,40.962884484295884
pt.ine.add.PTCONT.1918290,R DE S SEBASTIÃO,,6430-021,BARREIRA,-7.186903589552169,40.91151881811077
pt.ine.add.PTCONT.1918291,R DA FONTE,,6430-321,PAI PENELA,-7.298462588525747,40.90326754275643
pt.ine.add.PTCONT.1918292,R SUCURCHÃO,,6430-341,PROVA,-7.342518983993571,40.91406841104057
pt.ine.add.PTCONT.1918293,R PADRE AMÂNDIO JOSÉ DO AMARAL,,6430-341,PROVA,-7.341467575275617,40.91364698418078
pt.ine.add.PTCONT.1918296,R DO BOEIRO,,6430-051,CORISCADA,-7.2049996662994555,40.866021371863795
pt.ine.add.PTCONT.1918297,R PROF TITO ROBOREDO,,6430-215,MEDA,-7.255760752784544,40.966117754730845
pt.ine.add.PTCONT.1918298,AV GAGO COUTINHO E SACADURA CABRAL,,6430-183,MEDA,-7.261251674377844,40.96230546672665
pt.ine.add.PTCONT.1918299,AV DR JOAQUIM E ALDA SARAIVA,,6430-187,MEDA,-7.2617249976024105,40.96244411344595
pt.ine.add.PTCONT.1918300,AV DR JOAQUIM E ALDA SARAIVA,,6430-187,MEDA,-7.2617249976024105,40.96244411344595
pt.ine.add.PTCONT.1918301,AV DR JOAQUIM E ALDA SARAIVA,,6430-187,MEDA,-7.2617249976024105,40.96244411344595
pt.ine.add.PTCONT.1918302,EN 331,,6430-362,RANHADOS,-7.328023322888596,40.994424047265234
pt.ine.add.PTCONT.1918305,BR DO BARROCAL,,6430-102,MEDA,-7.256303016683135,40.96553658517567
pt.ine.add.PTCONT.1918306,R DE STO ANTÓNIO,,6430-362,RANHADOS,-7.329155274356306,40.99516131360266
pt.ine.add.PTCONT.1918308,TV DA CAPELA,140,6430-021,BARREIRA,-7.188124451861398,40.90997103377777
pt.ine.add.PTCONT.1918350,R DO EIROL,,6430-173,MEDA,-7.260752464136125,40.96232870401735
pt.ine.add.PTCONT.1918309,LG DR FELIZARDO SARAIVA,,6430-051,CORISCADA,-7.206686936386764,40.865809819617866
pt.ine.add.PTCONT.1918310,AV GAGO COUTINHO E SACADURA CABRAL,,6430-183,MEDA,-7.260996511881792,40.9654461225558
pt.ine.add.PTCONT.1918311,AV GAGO COUTINHO E SACADURA CABRAL,,6430-183,MEDA,-7.260996511881792,40.9654461225558
pt.ine.add.PTCONT.1918312,AV GAGO COUTINHO E SACADURA CABRAL,,6430-183,MEDA,-7.260996511881792,40.9654461225558
pt.ine.add.PTCONT.1918313,AV GAGO COUTINHO E SACADURA CABRAL,,6430-183,MEDA,-7.260996511881792,40.9654461225558
pt.ine.add.PTCONT.1918314,AV GAGO COUTINHO E SACADURA CABRAL,,6430-183,MEDA,-7.260996511881792,40.9654461225558
pt.ine.add.PTCONT.1918315,R D MARIA CARMO LACERDA FARIA,,6430-190,MEDA,-7.257315466783673,40.962635813825244
pt.ine.add.PTCONT.1918317,R DA PORTELA DA DEVESA,,6430-206,MEDA,-7.25879551375686,40.96479913353976
pt.ine.add.PTCONT.1918318,R DA PORTELA DA DEVESA,,6430-206,MEDA,-7.25879551375686,40.96479913353976
pt.ine.add.PTCONT.1918319,R ANTÓNIO BRANDÃO,,6430-105,MEDA,-7.254790327025725,40.964048325846626
pt.ine.add.PTCONT.1918320,R DA CAPELA,,6430-336,POÇO DO CANTO,-7.252456101747325,41.00915209862707
pt.ine.add.PTCONT.1918322,R DA SERVENTIA,,6430-022,BARREIRA,-7.179104235407898,40.88598950924765
pt.ine.add.PTCONT.1918323,,,6430-081,MARIALVA,-7.2322854869723345,40.91117990619083
pt.ine.add.PTCONT.1918324,R DE S DOMINGOS,,6430-171,MEDA,-7.259867604770666,40.96367268676644
pt.ine.add.PTCONT.1918325,R ARRAEL,,6430-362,RANHADOS,-7.33467144496203,40.99009408928198
pt.ine.add.PTCONT.1918326,R NOVA,,6430-371,VALE FLOR,-7.2818292401890865,40.913924506634025
pt.ine.add.PTCONT.1918327,R CRUZEIRO,,6430-371,VALE FLOR,-7.283280127964087,40.91371009258396
pt.ine.add.PTCONT.1918329,R D MARIA CARMO LACERDA FARIA,,6430-190,MEDA,-7.25982816490435,40.96306007901946
pt.ine.add.PTCONT.1918330,R DO ARRABALDE,,6430-335,POÇO DO CANTO,-7.268790250344974,40.999956101263415
pt.ine.add.PTCONT.1918331,R DO MADORRO,,6430-371,VALE FLOR,-7.277282181161361,40.91398990045242
pt.ine.add.PTCONT.1918335,R DO FORNO,,6430-351,RABAÇAL MDA,-7.258710416227001,40.85413163158748
pt.ine.add.PTCONT.1918338,R DO EIROL,,6430-173,MEDA,-7.259610919154513,40.96241911051277
pt.ine.add.PTCONT.1918339,R DO CIMO DO POVO,,6430-335,POÇO DO CANTO,-7.26938245331607,40.99920416301797
pt.ine.add.PTCONT.1918340,R DO FUNDO DO POVO,,6430-041,CASTEIÇÃO,-7.325615606151445,40.89556377774484
pt.ine.add.PTCONT.1918341,R DA RIBEIRA,,6430-081,MARIALVA,-7.2305024625899925,40.908752726754145
pt.ine.add.PTCONT.1918342,R ALTO DO POÇO DO CANTO,,6430-335,POÇO DO CANTO,-7.267966866657218,40.99384487624648
pt.ine.add.PTCONT.1918345,AV MQ DE POMBAL,,6430-011,AVELOSO,-7.315898994413372,40.9348996241261
pt.ine.add.PTCONT.1918346,PC DE STO ANTÓNIO,,6430-109,MEDA,-7.261803359030619,40.97093598666521
pt.ine.add.PTCONT.1918347,PC DE STO ANTÓNIO,,6430-109,MEDA,-7.261803359030619,40.97093598666521
pt.ine.add.PTCONT.1918348,PC DE STO ANTÓNIO,,6430-109,MEDA,-7.261803359030619,40.97093598666521
pt.ine.add.PTCONT.1918349,PC DE STO ANTÓNIO,,6430-109,MEDA,-7.261803359030619,40.97093598666521
pt.ine.add.PTCONT.1918351,R DIREITA,,6430-332,POÇO DO CANTO,-7.2801423646536945,40.99154041607018
pt.ine.add.PTCONT.1918352,R DO FORNO,,6430-332,POÇO DO CANTO,-7.280903502457778,40.990573558750064
pt.ine.add.PTCONT.1918353,QTA DA ROSALINA,,6430-351,RABAÇAL MDA,-7.239782968605712,40.856778056645034
pt.ine.add.PTCONT.1918355,TV DA DEVESA,,6430-041,CASTEIÇÃO,-7.323365481997159,40.881563732898236
pt.ine.add.PTCONT.1918356,R DA QTA DO MEIO,,6430-075,LONGROIVA,-7.183234144015135,40.970486468060805
pt.ine.add.PTCONT.1918745,R DE STO ANTÓNIO,,6430-362,RANHADOS,-7.328606001964039,40.995373589815244
pt.ine.add.PTCONT.1918754,R NOVA,,6430-081,MARIALVA,-7.2326829636627625,40.90900389341871
pt.ine.add.PTCONT.1918783,AV ESTADOS UNIDOS DA AMÉRICA,,6430-176,MEDA,-7.258966794972803,40.96442224162679
pt.ine.add.PTCONT.1918784,AV ESTADOS UNIDOS DA AMÉRICA,,6430-176,MEDA,-7.258966794972803,40.96442224162679
pt.ine.add.PTCONT.1918785,AV ESTADOS UNIDOS DA AMÉRICA,,6430-176,MEDA,-7.258966794972803,40.96442224162679
pt.ine.add.PTCONT.1918786,AV ESTADOS UNIDOS DA AMÉRICA,,6430-176,MEDA,-7.258966794972803,40.96442224162679
pt.ine.add.PTCONT.1919345,R DAS FLORES,,6430-362,RANHADOS,-7.329689521553498,40.994228568508554
pt.ine.add.PTCONT.1919324,AV ALBANO BEIRÃO,,6430-011,AVELOSO,-7.31655496943264,40.93273416086997
pt.ine.add.PTCONT.1919325,LG DA IGREJA,,6430-041,CASTEIÇÃO,-7.327631844334664,40.87999977680645
pt.ine.add.PTCONT.1919326,R DA PORTELA,,6430-075,LONGROIVA,-7.18573946071013,40.96892229033355
pt.ine.add.PTCONT.1919330,R DAS FRAGAS NEGRAS,,6430-150,MEDA,-7.257928828620479,40.968358354725
pt.ine.add.PTCONT.1919331,ESTR PRINCIPAL,,6430-361,RANHADOS,-7.354826935852684,40.99609388190517
pt.ine.add.PTCONT.1919334,R DE S SEBASTIÃO,,6430-021,BARREIRA,-7.187174632109525,40.91165611077871
pt.ine.add.PTCONT.1919337,R DAS FLORES,,6430-051,CORISCADA,-7.206264427632754,40.866337700980274
pt.ine.add.PTCONT.1919338,R SENHOR DOS PASSOS,,6430-051,CORISCADA,-7.206248239909458,40.86579729047432
pt.ine.add.PTCONT.1919339,LG DA PRAÇA,,6430-071,LONGROIVA,-7.209642017601009,40.96378556268681
pt.ine.add.PTCONT.1919341,R DO MEIO,8,6430-021,BARREIRA,-7.18632641729631,40.91120792439715
pt.ine.add.PTCONT.1919342,R DA CORREDOURA,,6430-165,MEDA,-7.2630777341737875,40.96255338001387
pt.ine.add.PTCONT.1919344,R NSA SRA DOS MILAGRES,,6430-021,BARREIRA,-7.187998136174315,40.90967284676853
pt.ine.add.PTCONT.1919346,R DA PRAÇA,,6430-362,RANHADOS,-7.329957732211936,40.99367215733336
pt.ine.add.PTCONT.1919349,TV DA FERRADA,,6430-051,CORISCADA,-7.207380889879885,40.864527722803444
pt.ine.add.PTCONT.1919350,EN 331,,6430-198,MEDA,-7.259495800605103,40.957636822642826
pt.ine.add.PTCONT.1919351,R DA CAPELA,,6430-311,OUTEIRO DE GATOS,-7.298228411887188,40.972799336535104
pt.ine.add.PTCONT.1919352,PC VELHA,,6430-362,RANHADOS,-7.329613225070621,40.993660751946955
pt.ine.add.PTCONT.1919354,TV DA FERRADA,,6430-051,CORISCADA,-7.20767863904535,40.86444006538351
pt.ine.add.PTCONT.1919355,R ARRAEL,,6430-362,RANHADOS,-7.334287069002179,40.990433598301635
pt.ine.add.PTCONT.1919357,R DE BAIXO,,6430-022,BARREIRA,-7.180114725445393,40.8850253631579
pt.ine.add.PTCONT.1919358,,,6430-362,RANHADOS,-7.313234579797093,40.97943532842872
pt.ine.add.PTCONT.1919363,R D MARIA CARMO LACERDA FARIA,,6430-190,MEDA,-7.259470411420079,40.96316542306638
pt.ine.add.PTCONT.1919364,R NSA SRA DA SAUDE,,6430-371,VALE FLOR,-7.279551747143287,40.91288114365938
pt.ine.add.PTCONT.1919367,QTA DO MAIDO,,6430-031,CARVALHAL MDA,-7.286401936696904,40.86903390780802
pt.ine.add.PTCONT.1919368,R DIREITA,,6430-042,CASTEIÇÃO,-7.324143048035247,40.895652509105986
pt.ine.add.PTCONT.1919369,R DOS LAMEIROS,86,6430-351,RABAÇAL MDA,-7.258712409209961,40.85307809542453
pt.ine.add.PTCONT.1919371,R DO VALINHO,,6430-062,FONTE LONGA MDA,-7.232389974956094,41.012697870306894
pt.ine.add.PTCONT.1919372,R DA FONTE NOVA,,6430-371,VALE FLOR,-7.283538483471493,40.912073153715184
pt.ine.add.PTCONT.1919374,R DA QUELHA,,6430-041,CASTEIÇÃO,-7.325410346035511,40.89487798542002
pt.ine.add.PTCONT.1919375,LG DA CAPELA,,6430-041,CASTEIÇÃO,-7.324618602270303,40.88193271169951
pt.ine.add.PTCONT.1919376,LG DA CAPELA,,6430-041,CASTEIÇÃO,-7.324999761289986,40.881809317325924
pt.ine.add.PTCONT.1919377,,,6430-074,LONGROIVA,-7.188359547261939,40.980955796476024
pt.ine.add.PTCONT.1919378,R DO FORNO,,6430-332,POÇO DO CANTO,-7.280688687503875,40.9906440064984
pt.ine.add.PTCONT.1919379,QTA DO CASAL,,6430-351,RABAÇAL MDA,-7.246944816732113,40.846207742107694
pt.ine.add.PTCONT.1919381,R DA BOGALHA,,6430-333,POÇO DO CANTO,-7.274558078213712,40.98687064117084
pt.ine.add.PTCONT.1919734,R DE BAIXO,,6430-011,AVELOSO,-7.315748202027489,40.93364691488056
pt.ine.add.PTCONT.1919754,AV ESTADOS UNIDOS DA AMÉRICA,,6430-176,MEDA,-7.259983791920719,40.96567257513839
pt.ine.add.PTCONT.1919766,QTA DA AREEIRA,,6430-334,POÇO DO CANTO,-7.279264944372166,40.989543923635054
pt.ine.add.PTCONT.1919829,R DA CADEIA,,6430-154,MEDA,-7.263670784118871,40.96262088585249
pt.ine.add.PTCONT.1919830,TV DA CAUTELA,55,6430-162,MEDA,-7.2622643803632405,40.96297945725442
pt.ine.add.PTCONT.1919831,AV 25 DE ABRIL,,6430-312,OUTEIRO DE GATOS,-7.268759811293457,40.964063861792425
pt.ine.add.PTCONT.1919832,AV 25 DE ABRIL,,6430-312,OUTEIRO DE GATOS,-7.268759811293457,40.964063861792425
pt.ine.add.PTCONT.1919833,AV 25 DE ABRIL,,6430-312,OUTEIRO DE GATOS,-7.268759811293457,40.964063861792425
pt.ine.add.PTCONT.1919834,LG DA DEVESA,,6430-321,PAI PENELA,-7.297986007347385,40.90247168330624
pt.ine.add.PTCONT.1919835,R VALE DO SAPO,,6430-341,PROVA,-7.343051972915234,40.912172083088024
pt.ine.add.PTCONT.1919836,EN 511,,6430-341,PROVA,-7.348515053521653,40.922960926261425
pt.ine.add.PTCONT.1919837,R DO ROSSIO,,6430-351,RABAÇAL MDA,-7.258473743184247,40.8549942894202
pt.ine.add.PTCONT.1919838,ESTR PRINCIPAL,,6430-361,RANHADOS,-7.354642620514503,40.99559738843404
pt.ine.add.PTCONT.1919839,R DOS LAMEIRINHOS,7,6430-362,RANHADOS,-7.328924846567838,40.99651938830557
pt.ine.add.PTCONT.1919840,,,6430-371,VALE FLOR,-7.282544143467154,40.91371367092821
pt.ine.add.PTCONT.1919841,R DA FONTE DE STO ANTÓNIO,,6430-371,VALE FLOR,-7.282212018100416,40.90999230824106
pt.ine.add.PTCONT.1920296,AV MQ DE POMBAL,,6430-011,AVELOSO,-7.315908093187638,40.93512480376792
pt.ine.add.PTCONT.1920297,R DO MEIO,47,6430-021,BARREIRA,-7.186236996153103,40.91081999247123
pt.ine.add.PTCONT.1920298,TV DA CAPELA,,6430-021,BARREIRA,-7.188637205132779,40.909804147144285
pt.ine.add.PTCONT.1920299,R NSA SRA DOS MILAGRES,,6430-021,BARREIRA,-7.188787780906782,40.907563234352644
pt.ine.add.PTCONT.1920300,BR DO POMAR,,6430-031,CARVALHAL MDA,-7.27875119370094,40.8865456243273
pt.ine.add.PTCONT.1920301,LG DA CAPELA,,6430-041,CASTEIÇÃO,-7.324837180652428,40.88152002794744
pt.ine.add.PTCONT.1920302,R DIREITA,,6430-051,CORISCADA,-7.206491653118576,40.86620445657893
pt.ine.add.PTCONT.1920303,,,6430-070,LONGROIVA,-7.195828440529937,40.992209342623255
pt.ine.add.PTCONT.1920304,R DA VALOIRA,120,6430-071,LONGROIVA,-7.212546764418301,40.96504241395723
pt.ine.add.PTCONT.1920305,R DA DEVESA,,6430-081,MARIALVA,-7.231834966492971,40.9093934720445
pt.ine.add.PTCONT.1920306,LG DO NEGRILHO,,6430-081,MARIALVA,-7.230203304776465,40.90980392492926
pt.ine.add.PTCONT.1920307,AV GAGO COUTINHO E SACADURA CABRAL,,6430-183,MEDA,-7.260992456321359,40.969363066060836
pt.ine.add.PTCONT.1920308,R DO ESTÁDIO,,6430-175,MEDA,-7.25983496370078,40.96614868850999
pt.ine.add.PTCONT.1920309,R DE S DOMINGOS,,6430-171,MEDA,-7.260103735542482,40.96378252962963
pt.ine.add.PTCONT.1920310,R VALE POMBO,,6430-217,MEDA,-7.26583017956167,40.96916544388185
pt.ine.add.PTCONT.1920311,LG MERCADO,,6430-193,MEDA,-7.262435886892652,40.965294920407594
pt.ine.add.PTCONT.1920312,R DONEGUINHA,,6430-203,MEDA,-7.265141757254468,40.96458595620572
pt.ine.add.PTCONT.1920313,R DO TANQUE,,6430-214,MEDA,-7.259300917887703,40.96340726121634
pt.ine.add.PTCONT.1920314,R DA CAPELA,,6430-337,POÇO DO CANTO,-7.275157808178315,41.01118724200392
pt.ine.add.PTCONT.1920315,R DO ARRABALDE,,6430-335,POÇO DO CANTO,-7.2682633407941415,41.000258301745866
pt.ine.add.PTCONT.1920316,R DO FORNO,,6430-335,POÇO DO CANTO,-7.268406424464233,40.99931390363284
pt.ine.add.PTCONT.1920317,R ALTO DO POÇO DO CANTO,,6430-335,POÇO DO CANTO,-7.26947124127237,40.996044250570975
pt.ine.add.PTCONT.1920318,,,6430-335,POÇO DO CANTO,-7.260979818980456,41.000986813604996
pt.ine.add.PTCONT.1920319,TV ALDEIA VELHA,,6430-341,PROVA,-7.344324936688439,40.91092915083754
pt.ine.add.PTCONT.1920618,ADRO DA IGREJA,,6430-341,PROVA,-7.3405881102352355,40.91174996718256
pt.ine.add.PTCONT.1920631,R DIREITA,,6430-341,PROVA,-7.342986917403677,40.913648399755836
pt.ine.add.PTCONT.1920664,R AVENIDA,104,6430-351,RABAÇAL MDA,-7.257068886638154,40.85630732049585
pt.ine.add.PTCONT.1920684,R DA POÇA,,6430-203,MEDA,-7.2632391091898345,40.96383324321137
pt.ine.add.PTCONT.1920694,R DA REPÚBLICA,,6430-041,CASTEIÇÃO,-7.323517180493653,40.881771905734425
pt.ine.add.PTCONT.1920720,TV DAS FLORES,,6430-312,OUTEIRO DE GATOS,-7.303521639947811,40.952370184341056
pt.ine.add.PTCONT.1922156,R DO MEIO,,6430-022,BARREIRA,-7.180326716890375,40.885135170324844
pt.ine.add.PTCONT.1921175,,,6430-041,CASTEIÇÃO,-7.327599857705549,40.87970239849029
pt.ine.add.PTCONT.1921176,AV CIDADE NOVA,43,6430-150,MEDA,-7.257370349749877,40.96657121533263
pt.ine.add.PTCONT.1921185,R DAS PISCINAS,,6430-021,BARREIRA,-7.189000198331512,40.91098672217894
pt.ine.add.PTCONT.1921186,R DO OUTEIRO,,6430-021,BARREIRA,-7.185776115325877,40.91150956115644
pt.ine.add.PTCONT.1921187,AV GAGO COUTINHO E SACADURA CABRAL,,6430-183,MEDA,-7.261047130534621,40.96611284148876
pt.ine.add.PTCONT.1921188,R DOS LAMEIRINHOS,,6430-362,RANHADOS,-7.329526657703612,40.99687476141507
pt.ine.add.PTCONT.1921191,R DA PORTELA DA DEVESA,,6430-206,MEDA,-7.259390481277152,40.965623057411044
pt.ine.add.PTCONT.1921195,R D MARIA CARMO LACERDA FARIA,,6430-190,MEDA,-7.257193477149911,40.96287800974222
pt.ine.add.PTCONT.1921196,R DO CHÃO,,6430-337,POÇO DO CANTO,-7.274447201592597,41.01098385187979
pt.ine.add.PTCONT.1921198,R DA PORTELA DA DEVESA,,6430-206,MEDA,-7.258512107721466,40.964670920292335
pt.ine.add.PTCONT.1921203,TV RUA MEIO,,6430-022,BARREIRA,-7.180160370757582,40.88515180521756
pt.ine.add.PTCONT.1921204,URB DO PRAZO,,6430-312,OUTEIRO DE GATOS,-7.269872869478897,40.9625144147227
pt.ine.add.PTCONT.1921205,R DO MADORRO,,6430-371,VALE FLOR,-7.2782601080741705,40.914555440935146
pt.ine.add.PTCONT.1921208,AV LÚCIO SARAIVA,,6430-051,CORISCADA,-7.211107766030141,40.86007324317896
pt.ine.add.PTCONT.1921210,LG DO NEGRILHO,,6430-081,MARIALVA,-7.230159017609325,40.909569458147196
pt.ine.add.PTCONT.1921211,R DA RIBEIRA,,6430-081,MARIALVA,-7.231685568223917,40.90815867166227
pt.ine.add.PTCONT.1921212,BR VALE POMBO,8,6430-112,MEDA,-7.264372776054743,40.97068524167217
pt.ine.add.PTCONT.1921213,R ALTO DO POÇO DO CANTO,,6430-335,POÇO DO CANTO,-7.267363270355911,40.99547015873727
pt.ine.add.PTCONT.1921214,LG DO CRUZEIRO,,6430-371,VALE FLOR,-7.2829180762982935,40.91324818778128
pt.ine.add.PTCONT.1921217,R DIREITA,,6430-041,CASTEIÇÃO,-7.325497277255846,40.895535935155884
pt.ine.add.PTCONT.1921218,R DO NOBRE,,6430-081,MARIALVA,-7.2290460343623035,40.90849819314114
pt.ine.add.PTCONT.1921219,R NOVA,,6430-312,OUTEIRO DE GATOS,-7.304028809250969,40.952652974366956
pt.ine.add.PTCONT.1921220,R ALTO DO POÇO DO CANTO,,6430-335,POÇO DO CANTO,-7.267937561345719,40.99517732217709
pt.ine.add.PTCONT.1921221,R DO FUNDO DO POVO,,6430-371,VALE FLOR,-7.280476001927944,40.913005041400865
pt.ine.add.PTCONT.1921222,R DE STO ANTÓNIO,,6430-011,AVELOSO,-7.315521397731809,40.934707850572856
pt.ine.add.PTCONT.1921223,R DIREITA,,6430-061,FONTE LONGA MDA,-7.198348830947155,41.00812269188078
pt.ine.add.PTCONT.1921224,R DA ESCOLA,,6430-351,RABAÇAL MDA,-7.2563074074977045,40.85109681188732
pt.ine.add.PTCONT.1921226,QTA DAS CANCELINHAS,,6430-351,RABAÇAL MDA,-7.253068998300763,40.86013088546657
pt.ine.add.PTCONT.1922536,R DO ADRO,,6430-361,RANHADOS,-7.35555240633284,41.000096785444256
pt.ine.add.PTCONT.1921616,BR DAS LAMEIRINHAS,,6430-105,MEDA,-7.254542270501712,40.96304693156909
pt.ine.add.PTCONT.1921653,R DA FONTE DA TEJA,,6430-341,PROVA,-7.343896170252414,40.91105228236541
pt.ine.add.PTCONT.1921654,R DO CASTELO,,6430-361,RANHADOS,-7.356398369553878,41.00093090456634
pt.ine.add.PTCONT.1921655,R DA FONTE DOS GARFOS,,6430-361,RANHADOS,-7.327663108165988,40.999608131325935
pt.ine.add.PTCONT.1921656,R DA CORREDOURA,,6430-362,RANHADOS,-7.330832419608841,40.99308394998829
pt.ine.add.PTCONT.1921689,R DIREITA,,6430-312,OUTEIRO DE GATOS,-7.299200814958968,40.95501337110097
pt.ine.add.PTCONT.1922091,R DOS POUSADOUROS,,6430-011,AVELOSO,-7.316545615905005,40.929636508007086
pt.ine.add.PTCONT.1922153,R DAS PISCINAS,59,6430-021,BARREIRA,-7.188223700029776,40.91050311843555
pt.ine.add.PTCONT.1922154,R NSA SRA DOS MILAGRES,,6430-021,BARREIRA,-7.188789227102356,40.909130047077745
pt.ine.add.PTCONT.1922155,R DO CIMO DO POVO,,6430-022,BARREIRA,-7.1805307040113515,40.88580319832412
pt.ine.add.PTCONT.1922157,R DO RIBEIRO,,6430-031,CARVALHAL MDA,-7.284702150048106,40.88417630290362
pt.ine.add.PTCONT.1922158,AV DA IGREJA,,6430-031,CARVALHAL MDA,-7.283057836009169,40.88379500360976
pt.ine.add.PTCONT.1922159,R DAS EIRAS,,6430-042,CASTEIÇÃO,-7.3231382063269965,40.89825680958003
pt.ine.add.PTCONT.1922160,R DIREITA,,6430-051,CORISCADA,-7.205300613997419,40.86655506881586
pt.ine.add.PTCONT.1922161,,,6430-051,CORISCADA,-7.204938102905002,40.86618296058307
pt.ine.add.PTCONT.1922162,AV DR LUIS DE ALMEIDA,,6430-051,CORISCADA,-7.208031633808794,40.86549644416337
pt.ine.add.PTCONT.1922199,PC FRANCISCO DOS ANJOS CALDAS,,6430-062,FONTE LONGA MDA,-7.232798274256534,41.014141773664306
pt.ine.add.PTCONT.1922200,R DO FORNO,,6430-062,FONTE LONGA MDA,-7.23325057950619,41.01322685113748
pt.ine.add.PTCONT.1922201,R DOS POMBAIS,,6430-062,FONTE LONGA MDA,-7.23263419586189,41.01309597477113
pt.ine.add.PTCONT.1922202,R DO ALTINHO,,6430-075,LONGROIVA,-7.187137819613718,40.96999630541461
pt.ine.add.PTCONT.1922203,R DA PORTELA,,6430-075,LONGROIVA,-7.185149920805344,40.96861129075902
pt.ine.add.PTCONT.1922204,R DO CIMO DA VILA,,6430-071,LONGROIVA,-7.212717945903806,40.96298174413521
pt.ine.add.PTCONT.1922205,LG DA PRAÇA,,6430-071,LONGROIVA,-7.210047862959441,40.963644740486494
pt.ine.add.PTCONT.1922206,R DO FORNO,,6430-071,LONGROIVA,-7.210824417418508,40.96332679258236
pt.ine.add.PTCONT.1922207,QTA DO POLEIRO,,6430-071,LONGROIVA,-7.2110207614262585,40.940681934114174
pt.ine.add.PTCONT.1922251,R NOVA,183,6430-081,MARIALVA,-7.233359036753651,40.908162736259214
pt.ine.add.PTCONT.1922252,BR DO BARROCAL,,6430-102,MEDA,-7.2564768978705985,40.965862070922036
pt.ine.add.PTCONT.1922253,R ANTÓNIO MANUEL DINIS,72,6430-145,MEDA,-7.259871530433083,40.96427602089743
pt.ine.add.PTCONT.1922301,R POCA,,6430-203,MEDA,-7.264352195589197,40.96410276819725
pt.ine.add.PTCONT.1922302,R POCA,86,6430-203,MEDA,-7.264352195589197,40.96410276819725
pt.ine.add.PTCONT.1922303,BR DAS LAMEIRINHAS,,6430-105,MEDA,-7.253834560756993,40.96356379959123
pt.ine.add.PTCONT.1922304,R DA POÇA,,6430-203,MEDA,-7.26327592475,40.96374347554297
pt.ine.add.PTCONT.1922382,R DA POÇA,229,6430-203,MEDA,-7.266070026872414,40.96354841399537
pt.ine.add.PTCONT.1922383,URB DO PRAZO,,6430-312,OUTEIRO DE GATOS,-7.269895686030636,40.96258662195426
pt.ine.add.PTCONT.1922384,R PRINCIPAL,,6430-313,OUTEIRO DE GATOS,-7.301446327407412,40.96442135086263
pt.ine.add.PTCONT.1922385,R DA CASA DO POVO,,6430-312,OUTEIRO DE GATOS,-7.299826081743654,40.954405581151065
pt.ine.add.PTCONT.1922386,R DIREITA,,6430-312,OUTEIRO DE GATOS,-7.302685901705881,40.95176986581658
pt.ine.add.PTCONT.1922471,LG DA DEVESA,,6430-321,PAI PENELA,-7.297534725456813,40.90249542833161
pt.ine.add.PTCONT.1922534,,,6430-351,RABAÇAL MDA,-7.255926529970655,40.85749626470606
pt.ine.add.PTCONT.1922535,R DA CARREIRA,,6430-361,RANHADOS,-7.355918606388636,41.00028835000227
pt.ine.add.PTCONT.1922537,R DA FONTE NOVA,,6430-371,VALE FLOR,-7.283698305215502,40.912569585736364
pt.ine.add.PTCONT.1922698,R DA FONTE DO VALE,33,6430-312,OUTEIRO DE GATOS,-7.302109770134947,40.95225196178308
pt.ine.add.PTCONT.1922718,R DA PORTELA DA REGADA,,6430-207,MEDA,-7.257727512234264,40.96201762964328
pt.ine.add.PTCONT.1922763,R DOS POMBAIS,,6430-062,FONTE LONGA MDA,-7.232431757214254,41.013121406386276
pt.ine.add.PTCONT.1922764,LG DO ADRO,,6430-062,FONTE LONGA MDA,-7.233116641598404,41.01345992128563
pt.ine.add.PTCONT.1922765,R DA LADEIRA,,6430-062,FONTE LONGA MDA,-7.233964016926451,41.01321441003763
pt.ine.add.PTCONT.1922766,R DA LADEIRA,,6430-062,FONTE LONGA MDA,-7.2333815764647245,41.013209864879215
pt.ine.add.PTCONT.1922767,BR DO BARROCAL,,6430-062,FONTE LONGA MDA,-7.232888349972982,41.01189136250852
pt.ine.add.PTCONT.1922768,LG DO EIRÃO,,6430-061,FONTE LONGA MDA,-7.196738679383641,41.008505818283474
pt.ine.add.PTCONT.1922769,R DE S PEDRO,83,6430-071,LONGROIVA,-7.209413908773281,40.96481025109846
pt.ine.add.PTCONT.1922770,R DO ADRO,,6430-071,LONGROIVA,-7.209638674929776,40.96317322811986
pt.ine.add.PTCONT.1922815,R BOM JESUS DOS PASSOS,,6430-206,MEDA,-7.260251753925389,40.96517034996048
pt.ine.add.PTCONT.1922816,R VALE POMBO,,6430-217,MEDA,-7.263882067728767,40.96915077175996
pt.ine.add.PTCONT.1922817,AV CIDADE DE CANTANHEDE,,6430-121,MEDA,-7.266904724500179,40.966030938202096
pt.ine.add.PTCONT.1922868,R DA POÇA,224,6430-203,MEDA,-7.2660312117499855,40.96379124480727
pt.ine.add.PTCONT.1922869,R LUIS LOPES,,6430-102,MEDA,-7.255968492918772,40.963886209500714
pt.ine.add.PTCONT.1922870,BR DO BARROCAL,,6430-102,MEDA,-7.254491949442606,40.964154106736224
pt.ine.add.PTCONT.1922871,AV GAGO COUTINHO E SACADURA CABRAL,,6430-183,MEDA,-7.260971498702585,40.96283461576304
pt.ine.add.PTCONT.1922872,LOTEAM DAS PEREIRAS,,6430-117,MEDA,-7.265567010960803,40.96114041562937
pt.ine.add.PTCONT.1922923,LOTEAM LAMEIRO DE AGUA,,6430-198,MEDA,-7.259070973260052,40.95652604263296
pt.ine.add.PTCONT.1922924,BR DO PRAZO,,6430-312,OUTEIRO DE GATOS,-7.269398962540618,40.96333027915296
pt.ine.add.PTCONT.1922925,LG DA FONTE DO VALE,,6430-312,OUTEIRO DE GATOS,-7.302464238953726,40.95239858933791
pt.ine.add.PTCONT.1922926,R DA LAMEIRA,,6430-336,POÇO DO CANTO,-7.250313172388846,41.00850539265197
pt.ine.add.PTCONT.1922976,R DO POÇO,,6430-335,POÇO DO CANTO,-7.267504773492672,40.99828062400637
pt.ine.add.PTCONT.1922977,R DO POÇO,,6430-335,POÇO DO CANTO,-7.266863746705701,40.99822178145456
pt.ine.add.PTCONT.1922978,R DA MINA,,6430-341,PROVA,-7.341565804811855,40.91436803020979
pt.ine.add.PTCONT.1922979,R PADRE AMÂNDIO JOSÉ DO AMARAL,,6430-341,PROVA,-7.341222086308211,40.91333013599052
pt.ine.add.PTCONT.1923028,R DO OUTEIRO,,6430-362,RANHADOS,-7.328300803589074,40.994083813212576
pt.ine.add.PTCONT.1923029,R DE VALVERDE,,6430-371,VALE FLOR,-7.281699549423206,40.91200556323227
pt.ine.add.PTCONT.1923030,R DA PORTELA,,6430-371,VALE FLOR,-7.2824455554158245,40.911218661255496
pt.ine.add.PTCONT.1923504,LG DA PRAÇA,,6430-011,AVELOSO,-7.316381548734846,40.93331823223838
pt.ine.add.PTCONT.1923505,R DOS POUSADOUROS,,6430-011,AVELOSO,-7.316970435830909,40.92888312796698
pt.ine.add.PTCONT.1923506,R DO FUNDO DO POVO,,6430-021,BARREIRA,-7.186231422427033,40.910378721383424
pt.ine.add.PTCONT.1923569,R DA SERVENTIA,,6430-022,BARREIRA,-7.1793964293309385,40.88629808344926
pt.ine.add.PTCONT.1923570,R DO CIMO DO POVO,,6430-022,BARREIRA,-7.180370796013775,40.88619808130352
pt.ine.add.PTCONT.1923571,EM 600 1,,6430-031,CARVALHAL MDA,-7.280536879548112,40.88423563371454
pt.ine.add.PTCONT.1923572,R DO TANQUE,,6430-031,CARVALHAL MDA,-7.283833461034695,40.88437701684401
pt.ine.add.PTCONT.1923573,R DON SOEIRO,,6430-042,CASTEIÇÃO,-7.324446112781326,40.893178349988034
pt.ine.add.PTCONT.1923609,EN 331,,6430-361,RANHADOS,-7.327324286375675,41.00205498965384
pt.ine.add.PTCONT.1923613,R DO CASTELO,,6430-062,FONTE LONGA MDA,-7.232595838958679,41.01329377318326
pt.ine.add.PTCONT.1923639,R DO FORNO,,6430-062,FONTE LONGA MDA,-7.233538551047976,41.01303100096342
pt.ine.add.PTCONT.1923643,R DO EIROL,6,6430-173,MEDA,-7.260727286368769,40.96243656805065
pt.ine.add.PTCONT.1923660,LG DA ESCOLA,,6430-042,CASTEIÇÃO,-7.32272937234043,40.89772266219958
pt.ine.add.PTCONT.1923666,R DOS POUSADOUROS,,6430-011,AVELOSO,-7.316522104232926,40.930581825964715
pt.ine.add.PTCONT.1923692,R DAS AMOREIRINHAS,,6430-011,AVELOSO,-7.317465993812702,40.93106575113208
pt.ine.add.PTCONT.1923704,R DIREITA,,6430-312,OUTEIRO DE GATOS,-7.30232114019775,40.95149710069803
pt.ine.add.PTCONT.1924132,LG DO ALTINHO,,6430-075,LONGROIVA,-7.185904728601423,40.96899568443607
pt.ine.add.PTCONT.1924133,R DA PORTELA,,6430-075,LONGROIVA,-7.185373033164842,40.96879321537521
pt.ine.add.PTCONT.1924134,R DO DESCANSO,,6430-361,RANHADOS,-7.354773872667722,41.00060478863236
pt.ine.add.PTCONT.1924136,R DIREITA,144,6430-169,MEDA,-7.263039736514572,40.96273318417958
pt.ine.add.PTCONT.1924137,R DA FONTE DOS GARFOS,,6430-361,RANHADOS,-7.327512119380292,40.99931893182885
pt.ine.add.PTCONT.1924144,R DA PORTELA DA DEVESA,,6430-206,MEDA,-7.259206490039646,40.965162431259124
pt.ine.add.PTCONT.1924145,R DA PORTELA DA DEVESA,,6430-206,MEDA,-7.259275026206931,40.9653700552092
pt.ine.add.PTCONT.1924146,TV DA R DA IGREJA,,6430-341,PROVA,-7.3406551293549525,40.91210160908523
pt.ine.add.PTCONT.1924147,R DA PORTELA,162,6430-362,RANHADOS,-7.330006849892904,40.995500416941624
pt.ine.add.PTCONT.1924148,R NSA SRA DOS MILAGRES,,6430-021,BARREIRA,-7.188851896161274,40.90889644061178
pt.ine.add.PTCONT.1924149,EN 102,,6430-071,LONGROIVA,-7.184101894675239,41.011887185211485
pt.ine.add.PTCONT.1924150,EN 331,,6430-362,RANHADOS,-7.327827330441516,40.99392742967647
pt.ine.add.PTCONT.1924154,LG DO TERREIRO,,6430-051,CORISCADA,-7.208345168519312,40.86427432242646
pt.ine.add.PTCONT.1924155,R DA CORREDOURA,,6430-362,RANHADOS,-7.331037599123341,40.99282424669338
pt.ine.add.PTCONT.1924156,LG DO CHORÃO,,6430-051,CORISCADA,-7.207770259000448,40.864674922042695
pt.ine.add.PTCONT.1924157,R DA CORREDOURA,44,6430-081,MARIALVA,-7.23257002713481,40.914702931811505
