id,street,house,postcode,city,lon,lat
pt.ine.add.PTCONT.849767,EN 221,,5210-065,DUAS IGREJAS MDR,-6.357732045335886,41.47240043171862
pt.ine.add.PTCONT.849746,R DO CABECICO,,5225-012,ATENOR,-6.503176030623789,41.44619301524645
pt.ine.add.PTCONT.849766,R DA FONTE DE BAIXO,,5210-041,DUAS IGREJAS MDR,-6.311900468067721,41.47523101378767
pt.ine.add.PTCONT.849790,R DE S LOURENÇO,19,5210-080,GENÍSIO,-6.361567800093261,41.59206806634311
pt.ine.add.PTCONT.849791,R DE VILARINHO,,5210-090,GENÍSIO,-6.378024848181807,41.54945617646174
pt.ine.add.PTCONT.849792,EN 218,,5210-090,GENÍSIO,-6.385148450076043,41.54662064591661
pt.ine.add.PTCONT.849793,LG DO CRUZEIRO,,5210-090,GENÍSIO,-6.381681974891935,41.54672994446794
pt.ine.add.PTCONT.849794,R DA VEIGA,8,5210-115,IFANES,-6.267251088690611,41.58015899468087
pt.ine.add.PTCONT.849795,R DA FEIRA,,5210-150,MALHADAS,-6.3276125123129265,41.54484008345526
pt.ine.add.PTCONT.849796,R DO CONCELHO,7,5210-150,MALHADAS,-6.325351541596383,41.542544739020094
pt.ine.add.PTCONT.849824,R DA PEDREADA,,5210-170,MIRANDA DO DOURO,-6.236820467809724,41.538705600171525
pt.ine.add.PTCONT.849843,R ABADE DE BAÇAL,34,5210-201,MIRANDA DO DOURO,-6.274427174909806,41.494609697921824
pt.ine.add.PTCONT.849863,R DO CRUZEIRO,10,5210-263,PARADELA MDR,-6.212641214030636,41.582743706680446
pt.ine.add.PTCONT.849864,AV VALE DE MORAIS,5,5225-072,PICOTE,-6.371966338814205,41.405111730593426
pt.ine.add.PTCONT.849886,TV DA RACHALINA,,5225-122,SENDIM,-6.424420923649783,41.39443242283176
pt.ine.add.PTCONT.849887,R DAS LINGUEIRAS,13,5225-118,SENDIM,-6.425427062572852,41.38888319331778
pt.ine.add.PTCONT.849904,R DO BAIUNCO,,5225-100,SENDIM,-6.42463753881196,41.3861614118851
pt.ine.add.PTCONT.849905,R DAS ESCALAVADAS,,5225-116,SENDIM,-6.423976860394568,41.38399975680209
pt.ine.add.PTCONT.849906,R DOS BARREAIS,,5225-131,SENDIM,-6.432952006833407,41.39465786317992
pt.ine.add.PTCONT.849907,TV DA FONTE NOVA,8,5225-127,SENDIM,-6.42934937238358,41.387932957493156
pt.ine.add.PTCONT.849908,R DO MATADOURO,,5225-127,SENDIM,-6.430228116982481,41.38770287368376
pt.ine.add.PTCONT.849933,R DA FRÁGUA,4,5225-102,SENDIM,-6.426340197047664,41.385511421941764
pt.ine.add.PTCONT.849934,TV DO SANTO CRISTO,,5225-152,SENDIM,-6.427387770990817,41.38613919885864
pt.ine.add.PTCONT.849935,R DA LAGOA,3,5225-163,SILVA MDR,-6.4421344248747925,41.50937992049423
pt.ine.add.PTCONT.849936,R DA CAPELA,,5225-031,ÁGUAS VIVAS,-6.413020181608798,41.4757616709325
pt.ine.add.PTCONT.850055,BR DA EDP,,5225-071,PICOTE,-6.3529558399068105,41.38527257821506
pt.ine.add.PTCONT.850074,BR DE STA LÚZIA,67,5210-199,MIRANDA DO DOURO,-6.283639151845572,41.493650840258695
pt.ine.add.PTCONT.850082,LG DA IGREJA,9,5225-041,PALAÇOULO,-6.429896398754778,41.430617594686574
pt.ine.add.PTCONT.850098,TV 25 DE ABRIL,,5210-230,MIRANDA DO DOURO,-6.271395569237361,41.498441059473535
pt.ine.add.PTCONT.850103,R DO BAIUNCO,140,5225-100,SENDIM,-6.4224926940407325,41.38543626727409
pt.ine.add.PTCONT.850145,URB BELA VISTA,,5210-002,MIRANDA DO DOURO,-6.2825506774525195,41.50117807030333
pt.ine.add.PTCONT.850146,URB BELA VISTA,,5210-002,MIRANDA DO DOURO,-6.2825506774525195,41.50117807030333
pt.ine.add.PTCONT.850147,URB BELA VISTA,,5210-002,MIRANDA DO DOURO,-6.2825506774525195,41.50117807030333
pt.ine.add.PTCONT.850148,URB BELA VISTA,,5210-002,MIRANDA DO DOURO,-6.2825506774525195,41.50117807030333
pt.ine.add.PTCONT.850150,LG DA FONTE,,5225-162,SILVA MDR,-6.468457356212169,41.514211693112415
pt.ine.add.PTCONT.850402,R 1 DE MAIO,17,5225-108,SENDIM,-6.424954440003463,41.38547284684611
pt.ine.add.PTCONT.850403,R DO RINCÃO,6,5210-347,VILA CHÃ DE BRACIOSA,-6.344811271824294,41.42986633948894
pt.ine.add.PTCONT.850409,EN 221,,5225-103,SENDIM,-6.442398753787419,41.38308350702402
pt.ine.add.PTCONT.850411,R DO TANQUE,,5225-162,SILVA MDR,-6.468757118178371,41.51560255005219
pt.ine.add.PTCONT.850414,R DO PRADO,45,5225-032,PALAÇOULO,-6.439848682652426,41.4596475866461
pt.ine.add.PTCONT.850418,R DAS EIRINHAS,83,5225-032,PALAÇOULO,-6.439649511253053,41.45948259234872
pt.ine.add.PTCONT.850419,R CAMINHO DO PRADO,93,5225-125,SENDIM,-6.426532372234517,41.38913368729647
pt.ine.add.PTCONT.850422,LG DA CRUZ,,5225-032,PALAÇOULO,-6.4453327224860235,41.458629782648494
pt.ine.add.PTCONT.850423,R DO RODELÃO,,5225-032,PALAÇOULO,-6.4458495132586435,41.45531510023954
pt.ine.add.PTCONT.850427,AV DO CICLO PREPARATÓRIO,,5225-101,SENDIM,-6.425826736828401,41.3896004033159
pt.ine.add.PTCONT.850428,R DAS FACEIRAS,23,5225-117,SENDIM,-6.429962413978778,41.38734780295867
pt.ine.add.PTCONT.850434,R DO SACO,28,5210-329,VILA CHÃ DE BRACIOSA,-6.395561811596571,41.43646045246052
pt.ine.add.PTCONT.850435,LG DA PRAÇA,,5225-041,PALAÇOULO,-6.431691532835049,41.431508495712585
pt.ine.add.PTCONT.850436,R DOS GATOS,7,5210-330,VILA CHÃ DE BRACIOSA,-6.395146835004667,41.43631913103415
pt.ine.add.PTCONT.850437,R DOS LAGARES,,5210-333,VILA CHÃ DE BRACIOSA,-6.314953068378772,41.43496230231817
pt.ine.add.PTCONT.850441,R DO BAIUNCO,,5225-100,SENDIM,-6.424146395583682,41.38619913431573
pt.ine.add.PTCONT.850442,R DO BAIUNCO,49,5225-100,SENDIM,-6.4244196041181025,41.38626621728879
pt.ine.add.PTCONT.850443,R DA CALÇADA,,5225-111,SENDIM,-6.428787375680172,41.386105921671515
pt.ine.add.PTCONT.850444,R DO SANTO CRISTO,16,5225-130,SENDIM,-6.427475139599928,41.38645561748059
pt.ine.add.PTCONT.850506,R DA MACIEIRA,,5210-057,DUAS IGREJAS MDR,-6.356476781363787,41.471462702687816
pt.ine.add.PTCONT.850507,R DO BISPO,14,5210-150,MALHADAS,-6.325778702439254,41.543127662573816
pt.ine.add.PTCONT.850515,R DAS EIRAS,,5210-080,GENÍSIO,-6.361788610447621,41.58969462746753
pt.ine.add.PTCONT.850519,EN 221,,5210-064,DUAS IGREJAS MDR,-6.3039670181361815,41.48574700423483
pt.ine.add.PTCONT.850520,R DA PEDREADA,,5210-170,MIRANDA DO DOURO,-6.23801648592426,41.536321471521816
pt.ine.add.PTCONT.850524,BR DE BAIXO,,5210-090,GENÍSIO,-6.383945698457647,41.54589109370871
pt.ine.add.PTCONT.850525,R DA PRAL,,5210-111,IFANES,-6.262634219992559,41.582667855922615
pt.ine.add.PTCONT.850526,R JOÃO DE SOUSA CARVALHO,,5210-221,MIRANDA DO DOURO,-6.2715592197125005,41.503179425044976
pt.ine.add.PTCONT.850529,R JAIME PIRES ALVES,,5210-131,IFANES,-6.2643642331161695,41.582137802095176
pt.ine.add.PTCONT.850530,R DO CABECICO,,5225-012,ATENOR,-6.50430314631251,41.44610094127479
pt.ine.add.PTCONT.850531,R ABADE DE BAÇAL,63,5210-201,MIRANDA DO DOURO,-6.274256261683182,41.49556128173671
pt.ine.add.PTCONT.850533,R DA VEIGA,,5210-115,IFANES,-6.266848522241473,41.57998139909001
pt.ine.add.PTCONT.850534,R DA ESPERANÇA,2,5210-175,MIRANDA DO DOURO,-6.274434128423573,41.49520402629303
pt.ine.add.PTCONT.850537,R DA MALHADA,8,5210-049,DUAS IGREJAS MDR,-6.355828504601038,41.473721530357146
pt.ine.add.PTCONT.850779,R DA LAGOA,3,5225-163,SILVA MDR,-6.444376011388944,41.50977299928928
pt.ine.add.PTCONT.850798,R DO CHOUPO,,5210-206,MIRANDA DO DOURO,-6.283203950244742,41.504312716472235
pt.ine.add.PTCONT.850811,R DE STO AMARO,,5210-020,CICOURO,-6.297033736704276,41.64451575094063
pt.ine.add.PTCONT.850866,URB BELA VISTA,,5210-002,MIRANDA DO DOURO,-6.282517916159264,41.50064635014112
pt.ine.add.PTCONT.850871,URB BELA VISTA,,5210-002,MIRANDA DO DOURO,-6.282517916159264,41.50064635014112
pt.ine.add.PTCONT.851194,R DO PALÁCIO,10,5210-266,PARADELA MDR,-6.217293180332209,41.57830177880269
pt.ine.add.PTCONT.851196,URB DAS EIRAS,12,5225-131,SENDIM,-6.431990198161367,41.39531890737701
pt.ine.add.PTCONT.851197,R DO BAIRRO ALTO,,5225-123,SENDIM,-6.425697184516883,41.38404330966487
pt.ine.add.PTCONT.851204,R DAS MOREIRIÇAS,29,5210-343,VILA CHÃ DE BRACIOSA,-6.343389851515169,41.42543255864454
pt.ine.add.PTCONT.851207,TV DA CAPELA,4,5210-300,SÃO MARTINHO DE ANGUEIRA,-6.3493825446813394,41.638227812618815
pt.ine.add.PTCONT.851211,R DO SERRO,,5225-072,PICOTE,-6.36896819954788,41.40012288753463
pt.ine.add.PTCONT.851213,R DAS EIRINHAS,93,5225-032,PALAÇOULO,-6.43845546519027,41.459374969209485
pt.ine.add.PTCONT.851215,R DE TRÁS OS PALHEIROS,2,5225-032,PALAÇOULO,-6.444777018798799,41.45882870470656
pt.ine.add.PTCONT.851217,R DOS CASAIS,113,5210-291,PÓVOA,-6.315592253609431,41.571363187677186
pt.ine.add.PTCONT.851218,R DO CEMITÉRIO,13,5210-327,VILA CHÃ DE BRACIOSA,-6.395510189415335,41.43839540960415
pt.ine.add.PTCONT.851221,R DA ERMIDA,37,5225-112,SENDIM,-6.424640397369084,41.387421946835765
pt.ine.add.PTCONT.851222,R DO PRADO,,5225-041,PALAÇOULO,-6.428473910047031,41.433774740807905
pt.ine.add.PTCONT.851223,BC PRINCIPAL,26,5210-292,PÓVOA,-6.314071240927425,41.570024661485284
pt.ine.add.PTCONT.851299,R DAS EIRAS,10,5210-020,CICOURO,-6.291750293003399,41.645439552536416
pt.ine.add.PTCONT.851300,R ABADE DE BAÇAL,23,5210-201,MIRANDA DO DOURO,-6.274782384333275,41.49391318414033
pt.ine.add.PTCONT.851301,R DO JUNCAL,,5210-209,MIRANDA DO DOURO,-6.286004040187093,41.49723614723545
pt.ine.add.PTCONT.851306,R DO SANTO,,5210-055,DUAS IGREJAS MDR,-6.3553266968268565,41.47105778408219
pt.ine.add.PTCONT.851307,R DAS AMOREIRAS,,5210-150,MALHADAS,-6.323816542212649,41.542583613117955
pt.ine.add.PTCONT.851308,R DE MALVAZ,7,5210-150,MALHADAS,-6.319881417766001,41.54231453783498
pt.ine.add.PTCONT.851310,R DOS PAULITEIROS,13,5210-030,CONSTANTIM MDR,-6.272474267656825,41.62415188345613
pt.ine.add.PTCONT.851311,R DE MALVAZ,19,5210-150,MALHADAS,-6.3182122475033475,41.542009097871784
pt.ine.add.PTCONT.851320,URB BELA VISTA,,5210-002,MIRANDA DO DOURO,-6.2820917726438,41.50089158194958
pt.ine.add.PTCONT.851321,R COR EDUARDO BEÇA,29,5210-192,MIRANDA DO DOURO,-6.278509571147844,41.501779198903876
pt.ine.add.PTCONT.851332,,,5210-060,DUAS IGREJAS MDR,-6.310603889610336,41.48988587030169
pt.ine.add.PTCONT.851333,R DO MOLINICO,,5210-090,GENÍSIO,-6.384641468931518,41.548089471571195
pt.ine.add.PTCONT.851334,R DO MOLINICO,,5210-090,GENÍSIO,-6.384382128827508,41.54837363126424
pt.ine.add.PTCONT.851338,R DO BALHICO,,5210-170,MIRANDA DO DOURO,-6.23216241648424,41.53859265525396
pt.ine.add.PTCONT.851339,EN 218,,5210-003,MIRANDA DO DOURO,-6.277508364996818,41.50077268560702
pt.ine.add.PTCONT.851340,EN 218,,5210-003,MIRANDA DO DOURO,-6.278620746165285,41.50124079620442
pt.ine.add.PTCONT.851344,R DO CABEÇO DO FORTE,,5210-185,MIRANDA DO DOURO,-6.270595340338557,41.49920238010918
pt.ine.add.PTCONT.851346,R JOÃO DE SOUSA CARVALHO,1,5210-221,MIRANDA DO DOURO,-6.271407208506539,41.50305091812418
pt.ine.add.PTCONT.851352,R DO MERCADO,27,5210-210,MIRANDA DO DOURO,-6.27131991876898,41.497737579786474
pt.ine.add.PTCONT.851363,R DA COVA,22,5225-011,ATENOR,-6.478572002480873,41.42412530392934
pt.ine.add.PTCONT.851364,R GEN HUMBERTO DELGADO,,5210-191,MIRANDA DO DOURO,-6.272860869069583,41.50121977513417
pt.ine.add.PTCONT.851367,R DA ESPERANÇA,3,5210-195,MIRANDA DO DOURO,-6.275266448230187,41.49499239619682
pt.ine.add.PTCONT.851609,R DA CANADA,,5210-300,SÃO MARTINHO DE ANGUEIRA,-6.35066580906396,41.64261423410423
pt.ine.add.PTCONT.851622,R DO VALE DE CIMA,65,5210-063,DUAS IGREJAS MDR,-6.307628405991621,41.48924445196344
pt.ine.add.PTCONT.851634,R DO MATADOURO,59,5225-127,SENDIM,-6.4303344986366735,41.387749465976796
pt.ine.add.PTCONT.851969,R MANUEL SANTOS PERES,10,5225-133,SENDIM,-6.42484375810243,41.3860474285773
pt.ine.add.PTCONT.851971,R DA CALÇADA,,5225-111,SENDIM,-6.428995703293732,41.3859109304229
pt.ine.add.PTCONT.851976,BR DO CABEÇO ADROSO,,5210-300,SÃO MARTINHO DE ANGUEIRA,-6.352966903893599,41.63401591464149
pt.ine.add.PTCONT.851977,R DA RESTOLHA,31,5210-197,MIRANDA DO DOURO,-6.2802739343430085,41.494082838044655
pt.ine.add.PTCONT.851978,R ALEXANDRE ANTÃO,13,5225-072,PICOTE,-6.369424795564906,41.403578215475676
pt.ine.add.PTCONT.851979,R DO PARQUE DE CAMPISMO,14,5210-212,MIRANDA DO DOURO,-6.283572846702262,41.49261439646197
pt.ine.add.PTCONT.851980,R DE STO ANTÓNIO,16,5225-120,SENDIM,-6.425330205598982,41.38436198919002
pt.ine.add.PTCONT.851984,AV VALE DE MORAIS,,5225-072,PICOTE,-6.36849049800115,41.40363591406047
pt.ine.add.PTCONT.851985,R DA FONTE,,5210-300,SÃO MARTINHO DE ANGUEIRA,-6.347387745405274,41.638755024804695
pt.ine.add.PTCONT.851986,TV DA ABADIA,1,5210-300,SÃO MARTINHO DE ANGUEIRA,-6.348690884995135,41.63893732363981
pt.ine.add.PTCONT.851987,R DE S JOÃO,16,5225-149,SENDIM,-6.430877219328804,41.39169203504866
pt.ine.add.PTCONT.851988,AV DA INDÚSTRIA,,5225-031,ÁGUAS VIVAS,-6.418435322623196,41.475608455222165
pt.ine.add.PTCONT.851992,R DA IGREJA,39,5225-072,PICOTE,-6.367772715389708,41.400554720053805
pt.ine.add.PTCONT.851999,R DA INDÚSTRIA,5,5225-032,PALAÇOULO,-6.443235702342414,41.45550180873819
pt.ine.add.PTCONT.852000,BR DA EDP,,5225-071,PICOTE,-6.352873828491943,41.38564945507034
pt.ine.add.PTCONT.852009,R DAS PINHAS DO TRIGO,91,5210-288,PÓVOA,-6.317481439376794,41.57325670438198
pt.ine.add.PTCONT.852013,R DAS PINHAS DO TRIGO,89,5210-288,PÓVOA,-6.316937231967367,41.572996017647334
pt.ine.add.PTCONT.852015,R DAS LAGOAS,1,5210-326,VILA CHÃ DE BRACIOSA,-6.395997503792155,41.43761947273236
pt.ine.add.PTCONT.852016,R DA FONTE DOS CARVALHOS,6,5210-324,VILA CHÃ DE BRACIOSA,-6.396181019330116,41.43701901463766
pt.ine.add.PTCONT.852017,R PRINCIPAL,27,5210-292,PÓVOA,-6.314209992325605,41.57020692099238
pt.ine.add.PTCONT.852018,R CAMINHO DO PRADO,38,5225-125,SENDIM,-6.425808494011844,41.387556334442316
pt.ine.add.PTCONT.852019,R DIREITA,17,5210-323,VILA CHÃ DE BRACIOSA,-6.394363042816614,41.436100205569744
pt.ine.add.PTCONT.852026,R DA CANADA,,5210-300,SÃO MARTINHO DE ANGUEIRA,-6.349922074087779,41.6443402952885
pt.ine.add.PTCONT.852027,R DOS LAGARES,,5210-333,VILA CHÃ DE BRACIOSA,-6.316074891595316,41.43634854543329
pt.ine.add.PTCONT.852031,R DO CASTANHEIRO,3,5210-265,PARADELA MDR,-6.212438431985897,41.57906704827651
pt.ine.add.PTCONT.852032,R DOS LAGARES,,5210-333,VILA CHÃ DE BRACIOSA,-6.314412019300581,41.434629626018825
pt.ine.add.PTCONT.852033,R DAS CASICAS,9,5210-342,VILA CHÃ DE BRACIOSA,-6.3493688709483225,41.43293524827929
pt.ine.add.PTCONT.852100,R DO JUNCAL,,5210-209,MIRANDA DO DOURO,-6.285615067032857,41.49786012709688
pt.ine.add.PTCONT.852105,R DOS BARREIROS,5,5210-150,MALHADAS,-6.329533562647833,41.54212425144863
pt.ine.add.PTCONT.852106,R DO CONCELHO,2,5210-150,MALHADAS,-6.325615318583101,41.542539883447986
pt.ine.add.PTCONT.852111,R DO PINHAL,9,5210-214,MIRANDA DO DOURO,-6.273793154988419,41.50086572142175
pt.ine.add.PTCONT.852115,R DO CRUZEIRO,,5210-080,GENÍSIO,-6.363137408214709,41.594316035443825
pt.ine.add.PTCONT.852116,R DO CRUZEIRO,,5210-080,GENÍSIO,-6.363366721603164,41.593824391329065
pt.ine.add.PTCONT.852117,R DE TRÁS DA TORRE,4,5210-150,MALHADAS,-6.320984524022601,41.540576300809
pt.ine.add.PTCONT.852118,R DO BOM SUCESSO,51,5210-203,MIRANDA DO DOURO,-6.268244901563097,41.49973148677395
pt.ine.add.PTCONT.852121,R DO CARANGUEJO B,5,5210-030,CONSTANTIM MDR,-6.275004980274002,41.621680967388656
pt.ine.add.PTCONT.852126,R DO BALHICO,,5210-170,MIRANDA DO DOURO,-6.231125156219527,41.538413440893684
pt.ine.add.PTCONT.852130,EN 218,12,5210-003,MIRANDA DO DOURO,-6.279167893383552,41.500952512212415
pt.ine.add.PTCONT.852135,R DAS AMOREIRAS,,5210-116,IFANES,-6.2649451381423455,41.58112088698577
pt.ine.add.PTCONT.852141,R DA COVA,16,5225-011,ATENOR,-6.477996663905433,41.42417104748747
pt.ine.add.PTCONT.852142,ESTR DE S PEDRO,,5210-043,DUAS IGREJAS MDR,-6.362188744591248,41.47182991348014
pt.ine.add.PTCONT.852143,R D DINIS,3,5210-217,MIRANDA DO DOURO,-6.272920924679008,41.49744837873906
pt.ine.add.PTCONT.852370,R DAS MOREIRIÇAS,,5210-343,VILA CHÃ DE BRACIOSA,-6.344452691462354,41.42724077132556
pt.ine.add.PTCONT.852752,R DO PALÁCIO,8,5210-266,PARADELA MDR,-6.216284905816362,41.57874412710375
pt.ine.add.PTCONT.852753,BR DA EDP,,5210-189,MIRANDA DO DOURO,-6.2771567166134865,41.492538019714516
pt.ine.add.PTCONT.852754,R CAMINHO DAS VINHAS,20,5225-124,SENDIM,-6.427897493681893,41.38539045979172
pt.ine.add.PTCONT.852755,R ENG AUGUSTO CÉSAR MEIRINHOS,15,5210-350,VILA CHÃ DE BRACIOSA,-6.348193257733229,41.42868540745333
pt.ine.add.PTCONT.852759,AV VALE DE MORAIS,16,5225-072,PICOTE,-6.370706498375438,41.40393999180351
pt.ine.add.PTCONT.852760,TV DA RIBEIRA,16,5210-300,SÃO MARTINHO DE ANGUEIRA,-6.348682499690165,41.64098089990417
pt.ine.add.PTCONT.852765,BR DE STA LÚZIA,,5210-199,MIRANDA DO DOURO,-6.282845600012139,41.49376411905313
pt.ine.add.PTCONT.852768,EN 221,,5225-103,SENDIM,-6.428872088884305,41.39018577052936
pt.ine.add.PTCONT.852769,AV DA INDÚSTRIA,,5225-031,ÁGUAS VIVAS,-6.419065419555917,41.475320737023516
pt.ine.add.PTCONT.852770,AV DA INDÚSTRIA,32,5225-031,ÁGUAS VIVAS,-6.4205674163087965,41.474199684620274
pt.ine.add.PTCONT.852771,R DO VALE PEREIRO,1,5225-031,ÁGUAS VIVAS,-6.418164664636878,41.47679286611107
pt.ine.add.PTCONT.852781,R DA VEIGA,,5210-300,SÃO MARTINHO DE ANGUEIRA,-6.352341362108916,41.62971173185703
pt.ine.add.PTCONT.852782,R 1 DE DEZEMBRO,13,5225-107,SENDIM,-6.427579582831364,41.38932028470585
pt.ine.add.PTCONT.852783,AV DO CICLO PREPARATÓRIO,62,5225-101,SENDIM,-6.425470671789853,41.39041443809269
pt.ine.add.PTCONT.852898,R DO JUNCAL,,5210-209,MIRANDA DO DOURO,-6.285148750292352,41.497834626729194
pt.ine.add.PTCONT.852899,R DA MACIEIRA,3,5210-057,DUAS IGREJAS MDR,-6.356265991912942,41.47172954651644
pt.ine.add.PTCONT.852902,EN 221,,5210-065,DUAS IGREJAS MDR,-6.360254913171351,41.47207021673906
pt.ine.add.PTCONT.852905,R DAS CARVOEIRAS,14,5210-030,CONSTANTIM MDR,-6.273076182599809,41.62491788693096
pt.ine.add.PTCONT.852906,R DA PENA DO CORVO,,5210-150,MALHADAS,-6.322282600927019,41.54086685239389
pt.ine.add.PTCONT.852908,R DA VEIGA,11,5210-150,MALHADAS,-6.324426689285886,41.5409006058244
pt.ine.add.PTCONT.852911,TV DO BAIRRO ALTO,2,5210-030,CONSTANTIM MDR,-6.278034008895732,41.62023538891839
pt.ine.add.PTCONT.852912,R DA QTA DO CORDEIRO,,5210-059,DUAS IGREJAS MDR,-6.352298542074455,41.49814698112234
pt.ine.add.PTCONT.852914,R DO MOLINICO,,5210-090,GENÍSIO,-6.384329507007873,41.54810273287449
pt.ine.add.PTCONT.852917,TV 25 DE ABRIL,,5210-170,MIRANDA DO DOURO,-6.232957504945072,41.53885788943203
pt.ine.add.PTCONT.852918,R DIREITA,,5210-172,MIRANDA DO DOURO,-6.263795357288799,41.54074096951122
pt.ine.add.PTCONT.852922,R DE BAIXO,,5210-173,MIRANDA DO DOURO,-6.243614067997645,41.52761748490234
pt.ine.add.PTCONT.852923,EN 218,,5210-003,MIRANDA DO DOURO,-6.29433410166157,41.51433182516017
pt.ine.add.PTCONT.852931,URB DO GIDRO DE CIMA,,5210-208,MIRANDA DO DOURO,-6.270614659750369,41.50354226472343
pt.ine.add.PTCONT.852932,URB DO GIDRO DE CIMA,,5210-208,MIRANDA DO DOURO,-6.270614659750369,41.50354226472343
pt.ine.add.PTCONT.852933,URB DO GIDRO DE CIMA,,5210-208,MIRANDA DO DOURO,-6.270614659750369,41.50354226472343
pt.ine.add.PTCONT.852934,URB DO GIDRO DE CIMA,,5210-208,MIRANDA DO DOURO,-6.270614659750369,41.50354226472343
pt.ine.add.PTCONT.852935,URB DO GIDRO DE CIMA,,5210-208,MIRANDA DO DOURO,-6.270614659750369,41.50354226472343
pt.ine.add.PTCONT.852936,URB DO GIDRO DE CIMA,,5210-208,MIRANDA DO DOURO,-6.270614659750369,41.50354226472343
pt.ine.add.PTCONT.852940,R PRINCIPAL,13,5225-012,ATENOR,-6.505201940746673,41.4441329007719
pt.ine.add.PTCONT.852944,ESTR DE S PEDRO,,5210-043,DUAS IGREJAS MDR,-6.361610427053567,41.472406224163336
pt.ine.add.PTCONT.853157,URB DO GIDRO DE CIMA,,5210-208,MIRANDA DO DOURO,-6.270614659750369,41.50354226472343
pt.ine.add.PTCONT.853177,R DO TOMBEIRINHO,2,5225-163,SILVA MDR,-6.44174310795117,41.51014845305968
pt.ine.add.PTCONT.853188,URB DO GIDRO DE CIMA,,5210-208,MIRANDA DO DOURO,-6.270614659750369,41.50354226472343
pt.ine.add.PTCONT.853205,R D DINIS,6,5210-217,MIRANDA DO DOURO,-6.2734101415949155,41.497510312178214
pt.ine.add.PTCONT.853217,R DO CAMPO DE FUTEBOL,,5225-153,SENDIM,-6.421973617602185,41.38699515945668
pt.ine.add.PTCONT.853218,R ABADE DE BAÇAL,30,5210-201,MIRANDA DO DOURO,-6.274480970914804,41.494403492266564
pt.ine.add.PTCONT.853234,R DA PRESA,,5225-103,SENDIM,-6.421031511731822,41.3932835998575
pt.ine.add.PTCONT.853498,R DOS HORTOS,2,5210-267,PARADELA MDR,-6.214401987821953,41.58118856653273
pt.ine.add.PTCONT.853499,R DA ERMIDA,,5225-112,SENDIM,-6.425307809675111,41.38704470561577
pt.ine.add.PTCONT.853500,R ENG AUGUSTO CÉSAR MEIRINHOS,1,5210-350,VILA CHÃ DE BRACIOSA,-6.347137891718155,41.42921823237889
pt.ine.add.PTCONT.853505,R CAMINHO DAS VINHAS,6,5225-124,SENDIM,-6.427999636480245,41.38559905479693
pt.ine.add.PTCONT.853508,R DA RESTOLHA,23,5210-197,MIRANDA DO DOURO,-6.280527853257937,41.49399689675131
pt.ine.add.PTCONT.853509,R DA RESTOLHA,23,5210-197,MIRANDA DO DOURO,-6.280527853257937,41.49399689675131
pt.ine.add.PTCONT.853510,R ALEXANDRE ANTÃO,5,5225-072,PICOTE,-6.368826140168149,41.4031638792004
pt.ine.add.PTCONT.853511,URB DAS EIRAS,4,5225-131,SENDIM,-6.431993935038716,41.39563408548013
pt.ine.add.PTCONT.853512,R CAMINHO DAS VINHAS,,5225-124,SENDIM,-6.427834024623541,41.385074395710134
pt.ine.add.PTCONT.853517,R DA PRETA,,5225-072,PICOTE,-6.367404694574515,41.403106054621155
pt.ine.add.PTCONT.853518,R DO VALE PEREIRO,,5225-031,ÁGUAS VIVAS,-6.419619179981461,41.477021626471895
pt.ine.add.PTCONT.853524,R DO TOMBEIRINHO,8,5225-163,SILVA MDR,-6.441325450944491,41.51008828836363
pt.ine.add.PTCONT.853527,R DO SERRO,,5225-072,PICOTE,-6.369017494090546,41.400510792514716
pt.ine.add.PTCONT.853528,TV 1 DE DEZEMBRO,18,5225-136,SENDIM,-6.4282326083567085,41.3899512071441
pt.ine.add.PTCONT.853529,R DA PISCINA,,5225-146,SENDIM,-6.434815787157827,41.38920225228541
pt.ine.add.PTCONT.853533,R DA INDÚSTRIA,7,5225-032,PALAÇOULO,-6.442668757614496,41.45567354532176
pt.ine.add.PTCONT.853536,R DOS CASAIS,85,5210-291,PÓVOA,-6.316041077922908,41.57245966956016
pt.ine.add.PTCONT.853537,R DA PADARIA,,5225-114,SENDIM,-6.425571054780765,41.3897766786958
pt.ine.add.PTCONT.853540,R DAS LATAS,5,5225-032,PALAÇOULO,-6.444786539967029,41.456154826248934
pt.ine.add.PTCONT.853541,AV DO CICLO PREPARATÓRIO,,5225-101,SENDIM,-6.42584057198931,41.38952858052838
pt.ine.add.PTCONT.853546,R DO SANTO CRISTO,9,5225-130,SENDIM,-6.426573914391571,41.386631325720984
pt.ine.add.PTCONT.853552,R CAMINHO DO PRADO,,5225-125,SENDIM,-6.426606777104884,41.388117393717074
pt.ine.add.PTCONT.853553,R CAMINHO DO PRADO,,5225-125,SENDIM,-6.4264593661676015,41.38826826667352
pt.ine.add.PTCONT.853554,R DA ERMIDA,30,5225-112,SENDIM,-6.424945995272196,41.387165382969386
pt.ine.add.PTCONT.853561,R DO CAMPO DE FUTEBOL,14,5225-153,SENDIM,-6.421917405731729,41.38685927057819
pt.ine.add.PTCONT.853621,R DA FONTE DA RÃ,10,5210-150,MALHADAS,-6.321179775090038,41.542596103122776
pt.ine.add.PTCONT.853623,R DA ABADIA,1,5210-020,CICOURO,-6.295590196108968,41.64547401147123
pt.ine.add.PTCONT.853624,R DA ABADIA,,5210-020,CICOURO,-6.294650567527456,41.64559402809932
pt.ine.add.PTCONT.853625,R DA ABADIA,,5210-020,CICOURO,-6.294452979811479,41.645788934270314
pt.ine.add.PTCONT.853626,EN 221,42,5210-065,DUAS IGREJAS MDR,-6.357643372247258,41.4725791297744
pt.ine.add.PTCONT.853627,R DOS BARREIROS,7,5210-150,MALHADAS,-6.329635865659494,41.54232392768893
pt.ine.add.PTCONT.853628,R DO POMBAL,1,5210-020,CICOURO,-6.294908936399416,41.644949940247855
pt.ine.add.PTCONT.853634,TV DO CICLO,1,5210-235,MIRANDA DO DOURO,-6.2713958284235165,41.50135812096939
pt.ine.add.PTCONT.853635,R PEDRO DE MELO,40,5210-226,MIRANDA DO DOURO,-6.270721914667732,41.5006359492067
pt.ine.add.PTCONT.853647,R DA IGREJA,,5210-173,MIRANDA DO DOURO,-6.243880402241806,41.52752282673083
pt.ine.add.PTCONT.853648,URB FRANCISCO REIS,15,5210-193,MIRANDA DO DOURO,-6.2796255018458815,41.50128400762157
pt.ine.add.PTCONT.853649,R DA AMOREIRA,,5210-041,DUAS IGREJAS MDR,-6.3116427394524255,41.47673948973226
pt.ine.add.PTCONT.853650,R 25 DE ABRIL,13,5210-178,MIRANDA DO DOURO,-6.271076763349909,41.49828284141725
pt.ine.add.PTCONT.853657,R DA VARANDA,,5210-041,DUAS IGREJAS MDR,-6.309398465940565,41.47480421715519
pt.ine.add.PTCONT.853658,R DO FERRADAL,16 B,5210-053,DUAS IGREJAS MDR,-6.348193574883684,41.47493576993
pt.ine.add.PTCONT.853659,URB DO GIDRO,47,5210-208,MIRANDA DO DOURO,-6.266545095715489,41.50220681010912
pt.ine.add.PTCONT.853660,R PRINCIPAL,7,5225-012,ATENOR,-6.505202579555466,41.44362871479811
pt.ine.add.PTCONT.853664,R DA VEIGA,,5210-115,IFANES,-6.267067167014321,41.58030005919703
pt.ine.add.PTCONT.853665,R DO COELHO,2,5210-207,MIRANDA DO DOURO,-6.27146157446412,41.501989413780436
pt.ine.add.PTCONT.853667,R DA PRAÇA,56,5225-011,ATENOR,-6.480440063841592,41.42121701927779
pt.ine.add.PTCONT.853668,R ABADE DE BAÇAL,28,5210-201,MIRANDA DO DOURO,-6.274518937347234,41.494332079798774
pt.ine.add.PTCONT.853904,R DE STO HONOFRE,,5225-072,PICOTE,-6.369737176307638,41.40573483141553
pt.ine.add.PTCONT.853921,R DA CANTEIRA,27,5210-194,MIRANDA DO DOURO,-6.2694170820456625,41.501452109323616
pt.ine.add.PTCONT.853932,R DA CRUZ DA CANDENA,4,5210-020,CICOURO,-6.29407952568917,41.645836976476886
pt.ine.add.PTCONT.853990,R DO PARQUE DE CAMPISMO,13,5210-212,MIRANDA DO DOURO,-6.28366981335817,41.492994093991015
pt.ine.add.PTCONT.853991,R CAMINHO DO PRADO,,5225-125,SENDIM,-6.426812710598989,41.38847158557232
pt.ine.add.PTCONT.854051,R DAS PEREIRAS,,5225-163,SILVA MDR,-6.4455248701177315,41.50888953173281
pt.ine.add.PTCONT.854052,R DA CRUZ,3,5210-322,VILA CHÃ DE BRACIOSA,-6.393301780662386,41.43955047574666
pt.ine.add.PTCONT.854337,R DO CÂNTICO,,5225-012,ATENOR,-6.505493180097995,41.44540651349286
pt.ine.add.PTCONT.854338,R DO CABO DO LUGAR,53,5225-011,ATENOR,-6.47968487578567,41.422223561669696
pt.ine.add.PTCONT.854371,R DO CARANGUEJO,13 A,5210-030,CONSTANTIM MDR,-6.27412996704516,41.622486097669515
pt.ine.add.PTCONT.854372,TV DO BAIRRO ALTO,14,5210-030,CONSTANTIM MDR,-6.277452174706461,41.62044206966128
pt.ine.add.PTCONT.854373,R DAS LASTRAS,,5210-041,DUAS IGREJAS MDR,-6.309025400757663,41.47444717028007
pt.ine.add.PTCONT.854374,R DA IGREJA,,5210-041,DUAS IGREJAS MDR,-6.309824335518873,41.47455887748081
pt.ine.add.PTCONT.854375,EN 221,,5210-065,DUAS IGREJAS MDR,-6.3561778923611705,41.47276357100212
pt.ine.add.PTCONT.854413,EN 221,,5210-065,DUAS IGREJAS MDR,-6.368189417991117,41.469500262841116
pt.ine.add.PTCONT.854414,EN 221,91,5210-065,DUAS IGREJAS MDR,-6.367621187779961,41.469707621160175
pt.ine.add.PTCONT.854415,R DA ESCOLA,,5210-080,GENÍSIO,-6.361965932222498,41.59461310063031
pt.ine.add.PTCONT.854416,R DA IGREJA,,5210-080,GENÍSIO,-6.3624028347263275,41.5917928317993
pt.ine.add.PTCONT.854417,R DE VILARINHO,,5210-090,GENÍSIO,-6.379992185611802,41.54717235738628
pt.ine.add.PTCONT.854418,R DA PANEIRA,4,5210-109,IFANES,-6.263762586041659,41.579301030941764
pt.ine.add.PTCONT.854419,R DAS AMOREIRAS,21,5210-150,MALHADAS,-6.324038362235041,41.54279417846607
pt.ine.add.PTCONT.854420,LG DO SAGRADO,,5210-150,MALHADAS,-6.325883501796286,41.543237348970216
pt.ine.add.PTCONT.854452,R DE VILA VERDE,7,5210-150,MALHADAS,-6.32272725571852,41.54253945435599
pt.ine.add.PTCONT.854453,R DE BAIXO,,5210-173,MIRANDA DO DOURO,-6.243313903140936,41.527639560682545
pt.ine.add.PTCONT.854489,URB SENHORA DOS CAMINHOS,,5210-192,MIRANDA DO DOURO,-6.281259152615361,41.5036331739683
pt.ine.add.PTCONT.854490,R DOS ADIS,15,5210-219,MIRANDA DO DOURO,-6.272359604462063,41.50283225082364
pt.ine.add.PTCONT.854522,R ABADE DE BAÇAL,53,5210-201,MIRANDA DO DOURO,-6.274460126020055,41.495132420375135
pt.ine.add.PTCONT.854523,R DO PENEDO AMARELO,9,5210-213,MIRANDA DO DOURO,-6.269730295983508,41.49888225302842
pt.ine.add.PTCONT.854524,BR DO FUNDO DO FOMENTO,26,5210-005,,-6.270135108451303,41.500635445875716
pt.ine.add.PTCONT.854556,R DO JUNCAL,,5210-209,MIRANDA DO DOURO,-6.285421099471602,41.49710073508206
pt.ine.add.PTCONT.854557,R DO SANTO CRISTO,,5225-041,PALAÇOULO,-6.431129440018431,41.43195935573041
pt.ine.add.PTCONT.854608,AV VALE DE MORAIS,9,5225-072,PICOTE,-6.371444761872126,41.404941681436824
pt.ine.add.PTCONT.854609,R DO POCEIRÃO,36,5210-289,PÓVOA,-6.3134012876170145,41.57040119452468
pt.ine.add.PTCONT.854610,R DO CABEÇO,33,5210-300,SÃO MARTINHO DE ANGUEIRA,-6.348212212361901,41.64149577652118
pt.ine.add.PTCONT.854611,R DA ESCOLA,1,5210-300,SÃO MARTINHO DE ANGUEIRA,-6.34870681814084,41.641404423720694
pt.ine.add.PTCONT.854648,R DA PADARIA,,5225-114,SENDIM,-6.425245379027795,41.3894297105584
pt.ine.add.PTCONT.854649,R CAMINHO DO PRADO,62,5225-125,SENDIM,-6.425954432529419,41.38791864094294
pt.ine.add.PTCONT.854650,R DO BAIUNCO,108,5225-100,SENDIM,-6.423181561158814,41.385608571936004
pt.ine.add.PTCONT.854651,R DA TRINDADE,,5225-122,SENDIM,-6.427402489699438,41.39517894510541
pt.ine.add.PTCONT.854702,TV DO MATADOURO,8,5225-127,SENDIM,-6.429498185985252,41.387728080446735
pt.ine.add.PTCONT.854703,R DO CANZELO,2,5225-126,SENDIM,-6.426819642969725,41.38729222759374
pt.ine.add.PTCONT.854704,R DO MATADOURO,8,5225-127,SENDIM,-6.429162898659945,41.38729094571211
pt.ine.add.PTCONT.854705,R NOVA,,5225-134,SENDIM,-6.427518000776565,41.38664532687742
pt.ine.add.PTCONT.854706,R MANUEL SANTOS PERES,8,5225-133,SENDIM,-6.424901389206595,41.38612931602655
pt.ine.add.PTCONT.854707,R DO BAIRRO ALTO,43,5225-123,SENDIM,-6.426548765255392,41.38530743518098
pt.ine.add.PTCONT.854708,R DO BAIRRO ALTO,19,5225-123,SENDIM,-6.426792423770832,41.38559015865561
pt.ine.add.PTCONT.854709,R DO BAIRRO ALTO,94,5225-123,SENDIM,-6.4261024845805075,41.38454451811607
pt.ine.add.PTCONT.854710,R CAMINHO DAS VINHAS,49,5225-124,SENDIM,-6.427490057286394,41.38497025767985
pt.ine.add.PTCONT.854720,BR DA EDP,,5225-071,PICOTE,-6.352579005661845,41.386815343875504
pt.ine.add.PTCONT.854751,R DOS LAGARES,,5210-333,VILA CHÃ DE BRACIOSA,-6.3145854690312,41.434416287530496
pt.ine.add.PTCONT.854767,R DE CEBADAIS,2,5225-072,PICOTE,-6.368990863909248,41.39972708264636
pt.ine.add.PTCONT.854775,R DO TOURALICO,,5210-051,DUAS IGREJAS MDR,-6.355893578556888,41.474406790848974
pt.ine.add.PTCONT.854805,EN 218,,5210-003,MIRANDA DO DOURO,-6.28701075251914,41.50690382088098
pt.ine.add.PTCONT.855119,R DO BAIUNCO,3,5225-100,SENDIM,-6.425784006984908,41.38666462273437
pt.ine.add.PTCONT.855120,R ENG AUGUSTO CÉSAR MEIRINHOS,5,5210-350,VILA CHÃ DE BRACIOSA,-6.347543715502687,41.42925154363638
pt.ine.add.PTCONT.855123,BR DO CABEÇO ADROSO,,5210-300,SÃO MARTINHO DE ANGUEIRA,-6.354374033392849,41.63739586771789
pt.ine.add.PTCONT.855125,AV VALE DE MORAIS,22,5225-072,PICOTE,-6.369988572138071,41.403956000187826
pt.ine.add.PTCONT.855128,R DO CABEÇO,,5210-300,SÃO MARTINHO DE ANGUEIRA,-6.346760273327638,41.64105006893206
pt.ine.add.PTCONT.855130,EN 221,24,5225-103,SENDIM,-6.429997170827961,41.389680228839595
pt.ine.add.PTCONT.855131,EN 221,,5225-103,SENDIM,-6.430523541282154,41.388751654638654
pt.ine.add.PTCONT.855132,LG DO CANTO,29,5225-032,PALAÇOULO,-6.445642397088328,41.460534049825455
pt.ine.add.PTCONT.855142,R DO RODELÃO,22,5225-032,PALAÇOULO,-6.445149179064004,41.457861797510525
pt.ine.add.PTCONT.855143,R NOVA DO CANZELO,,5225-135,SENDIM,-6.428068250256052,41.38846319098502
pt.ine.add.PTCONT.855147,R DAS LINGUEIRAS,17,5225-118,SENDIM,-6.425021911480254,41.388832160722075
pt.ine.add.PTCONT.855154,LG DO MEIO,143,5210-281,PÓVOA,-6.31368305394594,41.571468031185475
pt.ine.add.PTCONT.855157,R PRINCIPAL,13,5210-292,PÓVOA,-6.315913161808379,41.56846923362453
pt.ine.add.PTCONT.855158,R DO SANTO CRISTO,17,5225-130,SENDIM,-6.426911586739993,41.38651928866593
pt.ine.add.PTCONT.855161,R DO BAIRRO ALTO,89,5225-123,SENDIM,-6.426012005860224,41.384804277645586
pt.ine.add.PTCONT.855163,R DA FRÁGUA,43,5225-102,SENDIM,-6.426231881606253,41.38599600496976
pt.ine.add.PTCONT.855215,R DA CRUZ DA CANDENA,1,5210-020,CICOURO,-6.294635273597883,41.64528767893829
pt.ine.add.PTCONT.855218,R DO AMADOR,17,5210-052,DUAS IGREJAS MDR,-6.352789768174851,41.4710275391181
pt.ine.add.PTCONT.855221,R DA MOAGEM,2,5210-150,MALHADAS,-6.325095152012778,41.54142430553502
pt.ine.add.PTCONT.855222,R DAS EIRAS,,5210-080,GENÍSIO,-6.361955803540286,41.59059752304536
pt.ine.add.PTCONT.855223,R DA PENA DO CORVO,8,5210-150,MALHADAS,-6.323252398135217,41.540467975495915
pt.ine.add.PTCONT.855225,EN 221,,5210-064,DUAS IGREJAS MDR,-6.302984004560178,41.48664069610929
pt.ine.add.PTCONT.855226,R PRINCIPAL,50,5210-064,DUAS IGREJAS MDR,-6.305741095621026,41.488656268831676
pt.ine.add.PTCONT.855239,R DA FONTE DE BAIXO,,5210-041,DUAS IGREJAS MDR,-6.311933975459874,41.474889418172275
pt.ine.add.PTCONT.855240,R DA TORRE,1,5210-101,IFANES,-6.264107213623346,41.581071251995404
pt.ine.add.PTCONT.855243,R DA CRUZ,10,5210-046,DUAS IGREJAS MDR,-6.363685011470771,41.47447292359398
pt.ine.add.PTCONT.855244,R DA COVA,6,5210-104,IFANES,-6.27089635188841,41.58015509031018
pt.ine.add.PTCONT.855245,R DO BATOCO,,5210-121,,-6.269813475822222,41.57986744617347
pt.ine.add.PTCONT.855246,R DA VEIGA,,5210-115,IFANES,-6.268868063359783,41.57896980730921
pt.ine.add.PTCONT.855247,R DO GIDRO,3,5210-208,MIRANDA DO DOURO,-6.268267745117891,41.50185662665184
pt.ine.add.PTCONT.855248,R DO CABIDO,4,5210-241,MIRANDA DO DOURO,-6.273687527047488,41.49409355560897
pt.ine.add.PTCONT.855249,R DA CAPELA,32,5225-011,ATENOR,-6.482829773109334,41.42179154014835
pt.ine.add.PTCONT.855500,R DA FRÁGUA,,5225-102,SENDIM,-6.426209571861269,41.38639182881242
pt.ine.add.PTCONT.855544,R 25 DE ABRIL,53,5210-178,MIRANDA DO DOURO,-6.271104828704726,41.498139243678324
pt.ine.add.PTCONT.855545,R 25 DE ABRIL,53,5210-178,MIRANDA DO DOURO,-6.271104828704726,41.498139243678324
pt.ine.add.PTCONT.855546,R 25 DE ABRIL,53,5210-178,MIRANDA DO DOURO,-6.271104828704726,41.498139243678324
pt.ine.add.PTCONT.855547,R 25 DE ABRIL,53,5210-178,MIRANDA DO DOURO,-6.271104828704726,41.498139243678324
pt.ine.add.PTCONT.855548,R 25 DE ABRIL,53,5210-178,MIRANDA DO DOURO,-6.271104828704726,41.498139243678324
pt.ine.add.PTCONT.855549,R 25 DE ABRIL,53,5210-178,MIRANDA DO DOURO,-6.271104828704726,41.498139243678324
pt.ine.add.PTCONT.855550,R 25 DE ABRIL,53,5210-178,MIRANDA DO DOURO,-6.271104828704726,41.498139243678324
pt.ine.add.PTCONT.855551,R 25 DE ABRIL,53,5210-178,MIRANDA DO DOURO,-6.271104828704726,41.498139243678324
pt.ine.add.PTCONT.855552,R 25 DE ABRIL,53,5210-178,MIRANDA DO DOURO,-6.271104828704726,41.498139243678324
pt.ine.add.PTCONT.855553,R 25 DE ABRIL,53,5210-178,MIRANDA DO DOURO,-6.271104828704726,41.498139243678324
pt.ine.add.PTCONT.855688,R DA CRUZ,7,5210-046,DUAS IGREJAS MDR,-6.365374444801192,41.47441787670211
pt.ine.add.PTCONT.855752,R DIREITA,,5210-172,MIRANDA DO DOURO,-6.264361476471531,41.541056282623046
pt.ine.add.PTCONT.855753,R COR EDUARDO BEÇA,,5210-192,MIRANDA DO DOURO,-6.281379458478518,41.50319395164641
pt.ine.add.PTCONT.855754,EN 218,4,5210-003,MIRANDA DO DOURO,-6.277888289248184,41.50004955196203
pt.ine.add.PTCONT.855755,R DA COSTANILHA,31,5210-176,MIRANDA DO DOURO,-6.275354212238164,41.49443561133168
pt.ine.add.PTCONT.855756,R DA CANTEIRA,41,5210-194,MIRANDA DO DOURO,-6.269953331954765,41.50112767973964
pt.ine.add.PTCONT.855757,R DA TERRONHA,4,5210-198,MIRANDA DO DOURO,-6.269396719333068,41.50007428035246
pt.ine.add.PTCONT.855758,R VALENTIM GUERRA,5,5210-185,MIRANDA DO DOURO,-6.270200326777486,41.49919598059895
pt.ine.add.PTCONT.855759,R 25 DE ABRIL,,5210-178,MIRANDA DO DOURO,-6.271692128084132,41.498121743405704
pt.ine.add.PTCONT.855760,R DAS EIRINHAS,31,5225-032,PALAÇOULO,-6.438116951306415,41.45904585727466
pt.ine.add.PTCONT.855761,R DOS HORTOS,13,5210-267,PARADELA MDR,-6.2137486956267365,41.5805744501804
pt.ine.add.PTCONT.855762,R DE STO ANTÓNIO,4,5225-072,PICOTE,-6.367481543083508,41.40335933111105
pt.ine.add.PTCONT.855763,R DA IGREJA,139,5210-284,PÓVOA,-6.312827407738329,41.57162554477786
pt.ine.add.PTCONT.855764,R DO CANO,,5210-284,PÓVOA,-6.313892725806609,41.57083212340842
pt.ine.add.PTCONT.855765,R DA COSTA,,5210-300,SÃO MARTINHO DE ANGUEIRA,-6.352816561844754,41.6416572325156
pt.ine.add.PTCONT.855766,R DAS EIRAS,,5210-300,SÃO MARTINHO DE ANGUEIRA,-6.3477641721353,41.64207401854337
pt.ine.add.PTCONT.855767,R DA FACEIRA,,5210-300,SÃO MARTINHO DE ANGUEIRA,-6.353323289787568,41.63807283894976
pt.ine.add.PTCONT.855768,TV DA ABADIA,4,5210-300,SÃO MARTINHO DE ANGUEIRA,-6.3488044864477535,41.63829986650175
pt.ine.add.PTCONT.855769,R DE NSA SRA DA CONCEIÇÃO,19,5225-119,SENDIM,-6.4245103960514625,41.385538280761715
pt.ine.add.PTCONT.855770,R NOVA DO CANZELO,21,5225-135,SENDIM,-6.428859902319365,41.38744852068112
pt.ine.add.PTCONT.855771,LG DA IGREJA,,5225-106,SENDIM,-6.4266968957747705,41.38695727670651
pt.ine.add.PTCONT.855772,R DA FRÁGUA,,5225-102,SENDIM,-6.426569786572267,41.385874968826855
pt.ine.add.PTCONT.855773,R DA BOAVISTA,4,5225-110,SENDIM,-6.425226659855914,41.38420739212064
pt.ine.add.PTCONT.855774,R DAS CASICAS,,5210-342,VILA CHÃ DE BRACIOSA,-6.349972726354427,41.43360186061287
pt.ine.add.PTCONT.856050,R JAIME PIRES ALVES,,5210-131,IFANES,-6.265258414444827,41.5819002489002
pt.ine.add.PTCONT.856051,R DA CORREDOURA,,5210-150,MALHADAS,-6.327120715493633,41.54399505752098
pt.ine.add.PTCONT.856190,R DA CORREDOURA,,5210-150,MALHADAS,-6.328125640716256,41.544488011969904
pt.ine.add.PTCONT.856208,ESTR DE AVELANOSO,8,5210-300,SÃO MARTINHO DE ANGUEIRA,-6.3546447210606205,41.639335727624676
pt.ine.add.PTCONT.856221,R DA PENA DO CORVO,16,5210-150,MALHADAS,-6.322458581408036,41.54057251745307
pt.ine.add.PTCONT.856250,URB DOS BARREAIS,,5225-131,SENDIM,-6.429874814687128,41.393450889723596
pt.ine.add.PTCONT.856314,R COR EDUARDO BEÇA,,5210-192,MIRANDA DO DOURO,-6.2852006885949345,41.50358855152365
pt.ine.add.PTCONT.856598,R NOVA,,5225-134,SENDIM,-6.427363821174466,41.38659802326692
pt.ine.add.PTCONT.856599,R DE NSA SRA DA CONCEIÇÃO,8,5225-119,SENDIM,-6.424895565022013,41.38589513804634
pt.ine.add.PTCONT.856600,R DO BAIUNCO,92,5225-100,SENDIM,-6.4239266471579395,41.385916760545555
pt.ine.add.PTCONT.856601,R DO BAIUNCO,168,5225-100,SENDIM,-6.421046290187894,41.384064222497514
pt.ine.add.PTCONT.856606,R DO BAIRRO ALTO,22,5225-123,SENDIM,-6.427425317537245,41.385617551362245
pt.ine.add.PTCONT.856610,BR DE STA LÚZIA,35,5210-199,MIRANDA DO DOURO,-6.281161022040885,41.49362895908629
pt.ine.add.PTCONT.856611,R DO QUARTEL,7,5210-300,SÃO MARTINHO DE ANGUEIRA,-6.3507029521897636,41.63734798891899
pt.ine.add.PTCONT.856615,R DO TELHADAL,14,5225-072,PICOTE,-6.368191231975493,41.404972838024406
pt.ine.add.PTCONT.856617,R DO CABECINHO,,5225-032,PALAÇOULO,-6.4565975965108455,41.485930841369616
pt.ine.add.PTCONT.856618,R DA FONTE,,5225-162,SILVA MDR,-6.469256844045313,41.514799480387076
pt.ine.add.PTCONT.856619,R DA CAPELA,7,5225-031,ÁGUAS VIVAS,-6.41330619327865,41.47581096567081
pt.ine.add.PTCONT.856627,R DAS CASAS ALTAS,8,5225-072,PICOTE,-6.367590000906578,41.400236794579314
pt.ine.add.PTCONT.856628,R DA REZINA ESCOLA,,5225-163,SILVA MDR,-6.439368172654156,41.50935721124122
pt.ine.add.PTCONT.856631,R DO TOURAL,4,5225-163,SILVA MDR,-6.444787777585855,41.509598979213756
pt.ine.add.PTCONT.856638,R DA BOCA DO PRADO,97,5210-283,PÓVOA,-6.317565853173825,41.57409533419067
pt.ine.add.PTCONT.856639,R DO CANZELO,6,5225-126,SENDIM,-6.427035694754685,41.387259417880095
pt.ine.add.PTCONT.856642,R DA FEIRA,,5225-032,PALAÇOULO,-6.4448434398308505,41.45534535276539
pt.ine.add.PTCONT.856643,EN 221,,5210-321,VILA CHÃ DE BRACIOSA,-6.391909160075074,41.44106898583917
pt.ine.add.PTCONT.856647,R DA IGREJA,40,5225-041,PALAÇOULO,-6.430583878901632,41.430861863012574
pt.ine.add.PTCONT.856648,LG DAS LASTRAS,159,5210-282,PÓVOA,-6.314481320823724,41.570364268431284
pt.ine.add.PTCONT.856649,R DO REI,,5225-129,SENDIM,-6.425321217910548,41.38835941814084
pt.ine.add.PTCONT.856650,R DO MATADOURO,3,5225-127,SENDIM,-6.42898763591892,41.3871352897488
pt.ine.add.PTCONT.856651,LG DO SAGRADO,8,5210-321,VILA CHÃ DE BRACIOSA,-6.395273971158047,41.43738345671669
pt.ine.add.PTCONT.856656,R CAMINHO DO PRADO,,5225-125,SENDIM,-6.426783213500576,41.38822805309619
pt.ine.add.PTCONT.856657,TV DA ERMIDA,6,5225-137,SENDIM,-6.424068727638673,41.38688224784514
pt.ine.add.PTCONT.856662,R DA MALHADA,8,5210-264,PARADELA MDR,-6.217124968119501,41.58196324329249
pt.ine.add.PTCONT.856721,EN 221,,5210-065,DUAS IGREJAS MDR,-6.35416074573059,41.4729844772818
pt.ine.add.PTCONT.856722,R DE MALVAZ,10,5210-150,MALHADAS,-6.31971856291349,41.542996214729136
pt.ine.add.PTCONT.856723,R DA CORREDOURA DE CIMA,7,5210-239,MIRANDA DO DOURO,-6.274911986944029,41.49398730492364
pt.ine.add.PTCONT.856725,R DO CONVENTO,2,5210-176,MIRANDA DO DOURO,-6.275200638515102,41.49268649462747
pt.ine.add.PTCONT.856726,R DO CONVENTO,4,5210-176,MIRANDA DO DOURO,-6.27530733015436,41.49272423165764
pt.ine.add.PTCONT.856735,R DA VEIGA,7,5210-150,MALHADAS,-6.324600091353021,41.5411284148216
pt.ine.add.PTCONT.856737,R DA MACIEIRA,,5210-090,GENÍSIO,-6.377559346428512,41.544956441374055
pt.ine.add.PTCONT.856742,URB FRANCISCO REIS,,5210-193,MIRANDA DO DOURO,-6.277442668619143,41.49971824312633
pt.ine.add.PTCONT.856746,R 25 DE ABRIL,,5210-178,MIRANDA DO DOURO,-6.270671954962357,41.498618408992115
pt.ine.add.PTCONT.856752,R DAS LASTRAS,,5210-041,DUAS IGREJAS MDR,-6.309314200084143,41.47482088733959
pt.ine.add.PTCONT.856759,R DO PINCHADO,,5210-125,IFANES,-6.270329867531737,41.57858836574004
pt.ine.add.PTCONT.856760,R DO MARGALHO,,5210-124,IFANES,-6.263280036117488,41.57898707481318
pt.ine.add.PTCONT.856761,URB DA VINHA,,5210-244,MIRANDA DO DOURO,-6.280998435892266,41.49933441603979
pt.ine.add.PTCONT.856767,R DE S ROQUE,7,5210-118,IFANES,-6.263225605297157,41.57921126799016
pt.ine.add.PTCONT.856768,R DO CASTELO,11,5210-205,MIRANDA DO DOURO,-6.275428103440745,41.49520208338944
pt.ine.add.PTCONT.856770,R DA MALHADA,4,5210-049,DUAS IGREJAS MDR,-6.356276900523486,41.473521382580834
pt.ine.add.PTCONT.856945,R MOUZINHO DE ALBUQUERQUE,36,5210-225,MIRANDA DO DOURO,-6.27365057957503,41.49580357971098
pt.ine.add.PTCONT.856967,R DA IGREJA,,5210-333,VILA CHÃ DE BRACIOSA,-6.313250362614366,41.43338679043354
pt.ine.add.PTCONT.856978,URB DO GIDRO,23,5210-208,MIRANDA DO DOURO,-6.26671379882884,41.5025876855769
pt.ine.add.PTCONT.857018,R DO CIMO DO POVO,,5225-162,SILVA MDR,-6.468958624166519,41.5152183223352
pt.ine.add.PTCONT.857019,LG DO CRUZEIRO,,5225-162,SILVA MDR,-6.4692605466851285,41.514187305456566
pt.ine.add.PTCONT.857020,URB DO GIDRO DE CIMA,,5210-208,MIRANDA DO DOURO,-6.27068354244982,41.503228266516196
pt.ine.add.PTCONT.857021,URB DO GIDRO DE CIMA,,5210-208,MIRANDA DO DOURO,-6.27068354244982,41.503228266516196
pt.ine.add.PTCONT.857022,URB DO GIDRO DE CIMA,,5210-208,MIRANDA DO DOURO,-6.27068354244982,41.503228266516196
pt.ine.add.PTCONT.857023,URB DO GIDRO DE CIMA,,5210-208,MIRANDA DO DOURO,-6.27068354244982,41.503228266516196
pt.ine.add.PTCONT.857024,URB DO GIDRO DE CIMA,,5210-208,MIRANDA DO DOURO,-6.27068354244982,41.503228266516196
pt.ine.add.PTCONT.857025,URB DO GIDRO DE CIMA,,5210-208,MIRANDA DO DOURO,-6.27068354244982,41.503228266516196
pt.ine.add.PTCONT.857026,URB DO GIDRO DE CIMA,,5210-208,MIRANDA DO DOURO,-6.27068354244982,41.503228266516196
pt.ine.add.PTCONT.857027,URB DO GIDRO DE CIMA,,5210-208,MIRANDA DO DOURO,-6.27068354244982,41.503228266516196
pt.ine.add.PTCONT.857028,URB DO GIDRO DE CIMA,,5210-208,MIRANDA DO DOURO,-6.27068354244982,41.503228266516196
pt.ine.add.PTCONT.857029,R 1 DE MAIO,39,5210-191,MIRANDA DO DOURO,-6.2726629605277395,41.498929743904206
pt.ine.add.PTCONT.857030,R 1 DE MAIO,39,5210-191,MIRANDA DO DOURO,-6.2726629605277395,41.498929743904206
pt.ine.add.PTCONT.857031,R 1 DE MAIO,39,5210-191,MIRANDA DO DOURO,-6.2726629605277395,41.498929743904206
pt.ine.add.PTCONT.857032,R 1 DE MAIO,39,5210-191,MIRANDA DO DOURO,-6.2726629605277395,41.498929743904206
pt.ine.add.PTCONT.857033,R 1 DE MAIO,39,5210-191,MIRANDA DO DOURO,-6.2726629605277395,41.498929743904206
pt.ine.add.PTCONT.857034,R 1 DE MAIO,39,5210-191,MIRANDA DO DOURO,-6.2726629605277395,41.498929743904206
pt.ine.add.PTCONT.857343,BR DO CABEÇO ADROSO,,5210-300,SÃO MARTINHO DE ANGUEIRA,-6.352505085285481,41.635098137615195
pt.ine.add.PTCONT.857344,R MANUEL SANTOS PERES,,5225-133,SENDIM,-6.424093008568782,41.38595524620846
pt.ine.add.PTCONT.857350,R DO QUARTEL,7,5210-300,SÃO MARTINHO DE ANGUEIRA,-6.350765413268561,41.63725892653743
pt.ine.add.PTCONT.857353,AV DO EMIGRANTE,9,5210-335,VILA CHÃ DE BRACIOSA,-6.344817780593007,41.42570686484569
pt.ine.add.PTCONT.857354,R DA VEIGA,3,5225-031,ÁGUAS VIVAS,-6.415237212164305,41.47884695875379
pt.ine.add.PTCONT.857359,R DA FONTE,5,5210-300,SÃO MARTINHO DE ANGUEIRA,-6.3481310993795,41.63921672943572
pt.ine.add.PTCONT.857360,AV DA INDÚSTRIA,20,5225-031,ÁGUAS VIVAS,-6.417218373085143,41.47590542146555
pt.ine.add.PTCONT.857362,R DO MEIO,8,5225-032,PALAÇOULO,-6.44540416015574,41.45956718738403
pt.ine.add.PTCONT.857363,R DAS EIRINHAS,59,5225-032,PALAÇOULO,-6.441393200652555,41.4596253000237
pt.ine.add.PTCONT.857365,R DE CEBADAIS,1,5225-072,PICOTE,-6.368848894835437,41.39967088449687
pt.ine.add.PTCONT.857366,R DO RIBEIRO DE MATANÇA,,5210-300,SÃO MARTINHO DE ANGUEIRA,-6.352420578533712,41.63075732222535
pt.ine.add.PTCONT.857371,R DA INDÚSTRIA,13,5225-032,PALAÇOULO,-6.442748908136684,41.45489142496843
pt.ine.add.PTCONT.857374,BR DA EDP,,5225-071,PICOTE,-6.353881293888652,41.385529989520684
pt.ine.add.PTCONT.857375,R DO MATADOURO,51,5225-127,SENDIM,-6.42992021876825,41.38759027328905
pt.ine.add.PTCONT.857376,R DE CIMA,,5225-161,SILVA MDR,-6.4542612322566635,41.4883096635013
pt.ine.add.PTCONT.857379,LG DO CANZELO,,5225-126,SENDIM,-6.4286643054595345,41.386698330669
pt.ine.add.PTCONT.857380,R DO CEMITÉRIO,89,5210-327,VILA CHÃ DE BRACIOSA,-6.395658988507606,41.43819958217559
pt.ine.add.PTCONT.857385,LG DA IGREJA,13,5225-106,SENDIM,-6.4257715251034435,41.387141623958485
pt.ine.add.PTCONT.857386,R DIREITA,6,5210-323,VILA CHÃ DE BRACIOSA,-6.395199139706029,41.43704919914543
pt.ine.add.PTCONT.857389,R CAMINHO DO PRADO,82,5225-125,SENDIM,-6.426297706313165,41.38804978383675
pt.ine.add.PTCONT.857392,R CAMINHO DO PRADO,,5225-125,SENDIM,-6.426487740662115,41.38809762080011
pt.ine.add.PTCONT.857393,R DO BAIUNCO,,5225-100,SENDIM,-6.42556401433251,41.386391251971894
pt.ine.add.PTCONT.857395,R DA CANADA,3,5210-300,SÃO MARTINHO DE ANGUEIRA,-6.3505297109390595,41.643197325066666
pt.ine.add.PTCONT.857396,R DA IGREJA,,5210-333,VILA CHÃ DE BRACIOSA,-6.313052100789805,41.433203585422056
pt.ine.add.PTCONT.857453,R DO VAL DA FONTE,3,5210-150,MALHADAS,-6.326815513244955,41.54161340783221
pt.ine.add.PTCONT.857459,R DA IGREJA,10,5210-150,MALHADAS,-6.326064986723659,41.542745023901915
pt.ine.add.PTCONT.857461,EN 221,,5210-065,DUAS IGREJAS MDR,-6.365662283360715,41.469992647743666
pt.ine.add.PTCONT.857462,R COR EDUARDO BEÇA,,5210-192,MIRANDA DO DOURO,-6.2816428187052775,41.503198192872986
pt.ine.add.PTCONT.857464,R DO BAIRRO ALTO,18,5210-030,CONSTANTIM MDR,-6.280057653210325,41.620376074502744
pt.ine.add.PTCONT.857466,R DE TRÁS DA TORRE,22,5210-150,MALHADAS,-6.319089181083605,41.54193290668414
pt.ine.add.PTCONT.857469,R DOS PAULITEIROS,35,5210-030,CONSTANTIM MDR,-6.27645240397275,41.620578974303626
pt.ine.add.PTCONT.857486,EN 221,,5210-041,DUAS IGREJAS MDR,-6.312210935612333,41.479107358490396
pt.ine.add.PTCONT.857488,R DA MACIEIRA,,5210-090,GENÍSIO,-6.3762651097578,41.542298713062614
pt.ine.add.PTCONT.857491,R DE S BARTOLOMEU,,5210-117,IFANES,-6.264141215490671,41.57989239283097
pt.ine.add.PTCONT.857494,R DA PADARIA,4,5210-108,IFANES,-6.2698158169116684,41.57853501780352
pt.ine.add.PTCONT.857495,R MOUZINHO DE ALBUQUERQUE,34,5210-225,MIRANDA DO DOURO,-6.273664351336116,41.495740779536284
pt.ine.add.PTCONT.857496,R MOUZINHO DE ALBUQUERQUE,34,5210-225,MIRANDA DO DOURO,-6.273664351336116,41.495740779536284
pt.ine.add.PTCONT.857500,R DA PANEIRA,,5210-109,IFANES,-6.265042681605348,41.579817016201076
pt.ine.add.PTCONT.857503,R DO LAGAR,,5225-011,ATENOR,-6.481427715295437,41.421420279243286
pt.ine.add.PTCONT.857762,R DA CASA DO POVO,,5210-150,MALHADAS,-6.326104983286668,41.54216944543363
pt.ine.add.PTCONT.857799,R DA CANTEIRA,18,5210-194,MIRANDA DO DOURO,-6.268934036099628,41.501174180619785
pt.ine.add.PTCONT.857800,R DA CANTEIRA,18,5210-194,MIRANDA DO DOURO,-6.268934036099628,41.501174180619785
pt.ine.add.PTCONT.857890,R DAS EIRAS,1,5210-030,CONSTANTIM MDR,-6.277847030863201,41.6200613116507
pt.ine.add.PTCONT.857891,TV DA MACIEIRA,,5210-057,DUAS IGREJAS MDR,-6.354963392468114,41.470773062873654
pt.ine.add.PTCONT.857892,R DA IGREJA,,5210-080,GENÍSIO,-6.363392168219531,41.592015142432004
pt.ine.add.PTCONT.857893,R DO SAGRADO,2,5210-127,IFANES,-6.266468155936186,41.58194691147666
pt.ine.add.PTCONT.857894,R DR JÚLIO MIGUEL,,5210-130,IFANES,-6.268884601555884,41.57964531180472
pt.ine.add.PTCONT.857895,R DA MOAGEM,4,5210-150,MALHADAS,-6.325177552450832,41.54104746544872
pt.ine.add.PTCONT.857896,R DA PEDREADA,,5210-170,MIRANDA DO DOURO,-6.23671597233314,41.53900098156021
pt.ine.add.PTCONT.857897,R DA PEDREADA,,5210-170,MIRANDA DO DOURO,-6.236699907294337,41.53873062094049
pt.ine.add.PTCONT.857898,R DAS PARADIÇAS,,5210-173,MIRANDA DO DOURO,-6.243498916501962,41.52663424263008
pt.ine.add.PTCONT.857899,R COR EDUARDO BEÇA,,5210-192,MIRANDA DO DOURO,-6.282482245559388,41.503580841087356
pt.ine.add.PTCONT.857900,R DA COSTANILHA,24,5210-176,MIRANDA DO DOURO,-6.275399002739602,41.49454437429623
pt.ine.add.PTCONT.857901,R DO JUNCAL,,5210-209,MIRANDA DO DOURO,-6.286008797049469,41.49791146933248
pt.ine.add.PTCONT.857902,R COR BESSA,12,5225-032,PALAÇOULO,-6.445559955861248,41.456328239472775
pt.ine.add.PTCONT.857903,R DA MALHADA,16,5210-264,PARADELA MDR,-6.222602396216941,41.5820454188304
pt.ine.add.PTCONT.857904,TV VALE DE MORAIS,3,5225-072,PICOTE,-6.369651392412733,41.40315852693061
pt.ine.add.PTCONT.857905,BR DA EDP,,5225-071,PICOTE,-6.352826192326961,41.386080884684674
pt.ine.add.PTCONT.857906,BC DO RIBEIRO,72,5210-290,PÓVOA,-6.315688755469818,41.57091455402478
pt.ine.add.PTCONT.858123,R CAMINHO DO PRADO,,5225-125,SENDIM,-6.426544959978069,41.387738328958484
pt.ine.add.PTCONT.858124,R DOS BARREAIS,,5225-131,SENDIM,-6.4288163653838195,41.39231877779301
pt.ine.add.PTCONT.858125,R DOS BARREAIS,,5225-131,SENDIM,-6.4288163653838195,41.39231877779301
pt.ine.add.PTCONT.858126,R CAMINHO DO PRADO,8,5225-125,SENDIM,-6.426729525815688,41.38845234466869
pt.ine.add.PTCONT.858127,R DA FRÁGUA,28,5225-102,SENDIM,-6.426537411727823,41.38619861528055
pt.ine.add.PTCONT.858128,R 1 DE MAIO,30,5225-108,SENDIM,-6.425034387310311,41.38515891070891
pt.ine.add.PTCONT.858129,R DO SANTO CRISTO,,5225-130,SENDIM,-6.428002369793958,41.38640941219765
pt.ine.add.PTCONT.858130,R DAS EIRAS,21,5225-163,SILVA MDR,-6.442430651236239,41.508582978215586
pt.ine.add.PTCONT.858131,R DA IGREJA,,5225-161,SILVA MDR,-6.454426825494467,41.48792493526855
pt.ine.add.PTCONT.858144,TV DO EMIGRANTE,4,5210-348,VILA CHÃ DE BRACIOSA,-6.346869125048006,41.42462231773892
pt.ine.add.PTCONT.858145,R DA VEIGA,,5225-031,ÁGUAS VIVAS,-6.414521408414756,41.47648638050098
pt.ine.add.PTCONT.858416,R DE MALVAZ,17,5210-150,MALHADAS,-6.318640698999338,41.54211489676815
pt.ine.add.PTCONT.858417,R LUIS DE CAMÕES,11,5225-072,PICOTE,-6.364493480487154,41.40462793146734
pt.ine.add.PTCONT.858434,R DO BAIRRO ALTO,15,5210-030,CONSTANTIM MDR,-6.278308804991917,41.62027583681666
pt.ine.add.PTCONT.858436,R DA RESTOLHA,16,5210-197,MIRANDA DO DOURO,-6.280795964370374,41.494253308067975
pt.ine.add.PTCONT.858462,EN 218,,5210-150,MALHADAS,-6.3161575123861695,41.530650565058544
pt.ine.add.PTCONT.858500,R DO CRUZEIRO,,5210-080,GENÍSIO,-6.363454200999477,41.59281738131577
pt.ine.add.PTCONT.858501,R DO CHOUPO,,5210-206,MIRANDA DO DOURO,-6.281645558218298,41.50352235452211
pt.ine.add.PTCONT.858549,R DA FONTE,38,5225-032,PALAÇOULO,-6.445361995421354,41.4547317271047
pt.ine.add.PTCONT.858548,R DA FEIRA,,5225-032,PALAÇOULO,-6.44454844098384,41.456106313456914
pt.ine.add.PTCONT.858550,R DA IGREJA,,5225-041,PALAÇOULO,-6.430699231346068,41.43102563269663
pt.ine.add.PTCONT.858551,R DO CAMINHO DE SENDIM,57,5225-041,PALAÇOULO,-6.432222466977503,41.43041792648631
pt.ine.add.PTCONT.858552,R DOS HORTOS,5,5210-267,PARADELA MDR,-6.214042975439881,41.581164566481405
pt.ine.add.PTCONT.858582,R DE STA CRUZ,16,5225-072,PICOTE,-6.369762479752209,41.40081932956472
pt.ine.add.PTCONT.858583,LG DO TOMBAR,4,5225-072,PICOTE,-6.368699642889858,41.40032584820844
pt.ine.add.PTCONT.858584,BR DA EDP,,5225-071,PICOTE,-6.353346665707666,41.385845844473174
pt.ine.add.PTCONT.858585,R DA IGREJA,138,5210-284,PÓVOA,-6.313107834985136,41.571458924761
pt.ine.add.PTCONT.858622,R DE NSA SRA DA CONCEIÇÃO,15,5225-119,SENDIM,-6.424641848734855,41.38554023306917
pt.ine.add.PTCONT.858623,EN 221,,5225-103,SENDIM,-6.4297935332794465,41.38969522085907
pt.ine.add.PTCONT.858624,R DA FONTE NOVA,,5225-147,SENDIM,-6.432130152804219,41.387658985175506
pt.ine.add.PTCONT.858625,R DAS FACEIRAS,,5225-117,SENDIM,-6.430430394401077,41.3868235227509
pt.ine.add.PTCONT.858652,R DA FRÁGUA,2,5225-102,SENDIM,-6.426202743957038,41.38665282955782
pt.ine.add.PTCONT.858653,R DA LAGOA,2,5225-163,SILVA MDR,-6.4417386097424,41.5094011087032
pt.ine.add.PTCONT.858654,R DAS NOGUEIRAS,,5225-161,SILVA MDR,-6.457876427444235,41.48834438158908
pt.ine.add.PTCONT.858655,AV DA INDÚSTRIA,,5225-031,ÁGUAS VIVAS,-6.420284132380506,41.47359223835609
pt.ine.add.PTCONT.858927,R DO CURRAL NOVO,8,5210-020,CICOURO,-6.291981364071551,41.64491207387838
pt.ine.add.PTCONT.858928,R DA IGREJA,14,5210-030,CONSTANTIM MDR,-6.272040781775304,41.62712488585802
pt.ine.add.PTCONT.858958,TV DO BAIRRO ALTO,8,5210-030,CONSTANTIM MDR,-6.277207936003972,41.62059117824597
pt.ine.add.PTCONT.858994,R DA SILVEIRA,9,5210-114,IFANES,-6.261693925860105,41.583255760236035
pt.ine.add.PTCONT.858995,R DO VALE DE ANGUEIRA,,5210-150,MALHADAS,-6.330934192544496,41.544334004226386
pt.ine.add.PTCONT.858996,R DA CORREDOURA,17,5210-150,MALHADAS,-6.325353127693999,41.543778207237736
pt.ine.add.PTCONT.858997,R DE VILA VERDE,1,5210-150,MALHADAS,-6.323206464184413,41.54211484468875
pt.ine.add.PTCONT.858998,R DA VEIGA,2,5210-150,MALHADAS,-6.323980421756408,41.54143377798535
pt.ine.add.PTCONT.858999,R DA VARANDINHA,10,5210-150,MALHADAS,-6.32421616302648,41.54028507315383
pt.ine.add.PTCONT.859030,EN 218,,5210-003,MIRANDA DO DOURO,-6.2885645057167,41.50997186102089
pt.ine.add.PTCONT.859028,R DE CIMA,,5210-173,MIRANDA DO DOURO,-6.244109744716848,41.52911115967346
pt.ine.add.PTCONT.859029,R DO CARRASCALICO,,5210-173,MIRANDA DO DOURO,-6.24454505649818,41.52732667360697
pt.ine.add.PTCONT.859061,R COR EDUARDO BEÇA,,5210-192,MIRANDA DO DOURO,-6.278896384804199,41.50207354216064
pt.ine.add.PTCONT.859062,TV DO MERCADO,,5210-237,MIRANDA DO DOURO,-6.270468617736511,41.49819196164774
pt.ine.add.PTCONT.859063,TV DAS FLORES,5,5210-176,MIRANDA DO DOURO,-6.275287935196592,41.494659622287294
pt.ine.add.PTCONT.859089,R DA TRINDADE,6,5210-001,MIRANDA DO DOURO,-6.274276718058134,41.493589895758596
pt.ine.add.PTCONT.859090,R DA TRINDADE,2,5210-001,MIRANDA DO DOURO,-6.274339263450162,41.49307772024955
pt.ine.add.PTCONT.859091,R DO MERCADO,,5210-210,MIRANDA DO DOURO,-6.269481665058713,41.49836503727653
pt.ine.add.PTCONT.859136,R DO MERCADO,,5210-210,MIRANDA DO DOURO,-6.269481665058713,41.49836503727653
pt.ine.add.PTCONT.859137,R DO MERCADO,,5210-210,MIRANDA DO DOURO,-6.269481665058713,41.49836503727653
pt.ine.add.PTCONT.859138,R DO MERCADO,,5210-210,MIRANDA DO DOURO,-6.269481665058713,41.49836503727653
pt.ine.add.PTCONT.859139,URB BUONAS BISTAS,,5210-003,MIRANDA DO DOURO,-6.283720986853348,41.499612325012265
pt.ine.add.PTCONT.859140,URB BUONAS BISTAS,,5210-003,MIRANDA DO DOURO,-6.283720986853348,41.499612325012265
pt.ine.add.PTCONT.859141,URB BUONAS BISTAS,,5210-003,MIRANDA DO DOURO,-6.283720986853348,41.499612325012265
pt.ine.add.PTCONT.859158,R DAS EIRAS,,5210-080,GENÍSIO,-6.361720835201788,41.588226062617004
pt.ine.add.PTCONT.859160,R DE STO HONOFRE,3,5225-072,PICOTE,-6.370013812548555,41.40567604774422
pt.ine.add.PTCONT.859167,R CAMINHO DO PRADO,123,5225-125,SENDIM,-6.427415935315825,41.390092160684674
pt.ine.add.PTCONT.859189,R DA VARANDINHA,,5210-150,MALHADAS,-6.323863345406355,41.54004543680838
pt.ine.add.PTCONT.859525,R DOS CASALÕES,1,5210-267,PARADELA MDR,-6.215499001081642,41.580990799822295
pt.ine.add.PTCONT.859526,R DAS EIRAS,,5210-300,SÃO MARTINHO DE ANGUEIRA,-6.347773932845038,41.642155198167515
pt.ine.add.PTCONT.859527,R DAS EIRAS,15,5210-300,SÃO MARTINHO DE ANGUEIRA,-6.348231807917976,41.64209028610516
pt.ine.add.PTCONT.859528,R DO BAIUNCO,33,5225-100,SENDIM,-6.424858704929159,41.38638978424313
pt.ine.add.PTCONT.859532,LG DA VEIGA,,5210-262,PARADELA MDR,-6.214709880065077,41.57969918897615
pt.ine.add.PTCONT.859543,R DA TRINDADE,9,5225-122,SENDIM,-6.427552267949888,41.39493807118379
pt.ine.add.PTCONT.859544,R 1 DE MAIO,48,5225-108,SENDIM,-6.424713281039354,41.38418176228639
pt.ine.add.PTCONT.859545,R DAS ESCALAVADAS,25,5225-116,SENDIM,-6.426584072205566,41.38395743062721
pt.ine.add.PTCONT.859548,R DOS NINHOS,,5225-162,SILVA MDR,-6.46784023818256,41.51398667617284
pt.ine.add.PTCONT.859549,CAM DO PRADO,1,5225-031,ÁGUAS VIVAS,-6.4156875082209135,41.47675589673077
pt.ine.add.PTCONT.859552,R LUIS DE CAMÕES,,5225-072,PICOTE,-6.362946196267181,41.40303752917372
pt.ine.add.PTCONT.859553,AV DA INDÚSTRIA,18,5225-031,ÁGUAS VIVAS,-6.4166010329166445,41.47661647896094
pt.ine.add.PTCONT.859555,R DAS EIRINHAS,63,5225-032,PALAÇOULO,-6.4412142095378995,41.459604660049095
pt.ine.add.PTCONT.859556,R DO TOURAL,46,5210-300,SÃO MARTINHO DE ANGUEIRA,-6.349252241939343,41.63773061862403
pt.ine.add.PTCONT.859557,AV DA INDÚSTRIA,35,5225-031,ÁGUAS VIVAS,-6.421220217746377,41.4721386242546
pt.ine.add.PTCONT.859565,R DAS LATAS,13,5225-032,PALAÇOULO,-6.444940137365034,41.45576993350221
pt.ine.add.PTCONT.859569,R DO REI,19,5225-129,SENDIM,-6.424580339773164,41.3878892377452
pt.ine.add.PTCONT.859575,R DA FONTE,,5225-041,PALAÇOULO,-6.431664294907995,41.43209331752581
pt.ine.add.PTCONT.859576,TV 25 DE ABRIL,4,5225-109,SENDIM,-6.426918908245073,41.38806800243354
pt.ine.add.PTCONT.859577,R 1 DE MAIO,38,5225-108,SENDIM,-6.42492407432037,41.38480613544988
pt.ine.add.PTCONT.859626,R DO JUNCAL,,5210-209,MIRANDA DO DOURO,-6.285166491751766,41.49847414435399
pt.ine.add.PTCONT.859627,R DA CORREDOURA DE BAIXO,11,5210-240,MIRANDA DO DOURO,-6.275643274874346,41.49437725851734
pt.ine.add.PTCONT.859629,R DO POMBAL,10,5210-020,CICOURO,-6.294439540970234,41.644573304397284
pt.ine.add.PTCONT.859635,R DO CARANGUEJO,19,5210-030,CONSTANTIM MDR,-6.274499474924361,41.621735814546966
pt.ine.add.PTCONT.859636,R DA VEIGA,17,5210-150,MALHADAS,-6.324666563569472,41.54046322087478
pt.ine.add.PTCONT.859637,R DOS ADIS,13,5210-219,MIRANDA DO DOURO,-6.272292418653478,41.50266910479828
pt.ine.add.PTCONT.859638,R DA IGREJA,,5210-080,GENÍSIO,-6.362605708823613,41.59139081356542
pt.ine.add.PTCONT.859641,R DE VILARINHO,,5210-090,GENÍSIO,-6.379151047637845,41.54814088246378
pt.ine.add.PTCONT.859650,R DA FRAGA,,5210-041,DUAS IGREJAS MDR,-6.310918093202818,41.47653893911357
pt.ine.add.PTCONT.859651,R DO MATADOURO,14,5210-214,MIRANDA DO DOURO,-6.273762782959282,41.50025300832197
pt.ine.add.PTCONT.859653,R 1 DE MAIO,85,5210-191,MIRANDA DO DOURO,-6.272703350182724,41.50002879573361
pt.ine.add.PTCONT.859654,R DA TERRONHA,77,5210-198,MIRANDA DO DOURO,-6.268591097136323,41.5001872644455
pt.ine.add.PTCONT.859655,R DE COREIXE,,5210-051,DUAS IGREJAS MDR,-6.3575899941076885,41.47497319764489
pt.ine.add.PTCONT.859656,R DO FERRADAL,8,5210-053,DUAS IGREJAS MDR,-6.347565576546177,41.47382761209146
pt.ine.add.PTCONT.859657,URB DO GIDRO,22,5210-208,MIRANDA DO DOURO,-6.2667280959166005,41.502506888351625
pt.ine.add.PTCONT.859659,R DA COSTANILHA,10 A,5210-175,MIRANDA DO DOURO,-6.274912121369088,41.49440145767738
pt.ine.add.PTCONT.859664,R DA IGREJA,44,5225-011,ATENOR,-6.481105234879641,41.420929459044295
pt.ine.add.PTCONT.859665,EN 221,72,5210-065,DUAS IGREJAS MDR,-6.362502791880939,41.47172670910029
pt.ine.add.PTCONT.859876,R DAS TUMILHEIRAS,79,5210-300,SÃO MARTINHO DE ANGUEIRA,-6.349345459035566,41.64305290480122
pt.ine.add.PTCONT.859918,TV 25 DE ABRIL,4,5225-109,SENDIM,-6.426918908245073,41.38806800243354
pt.ine.add.PTCONT.859923,R DA ERMIDA,19,5225-112,SENDIM,-6.425129900408966,41.38744722260918
pt.ine.add.PTCONT.859933,R DO CHOUPO,,5210-206,MIRANDA DO DOURO,-6.28242618641384,41.50512850015071
pt.ine.add.PTCONT.860293,R DO PALÁCIO,12,5210-266,PARADELA MDR,-6.217614629491685,41.57837916134562
pt.ine.add.PTCONT.860294,R DO CAMINHO DE MIRANDA,9,5210-261,PARADELA MDR,-6.216343256482614,41.58041967994401
pt.ine.add.PTCONT.860295,R DO BAIRRO ALTO,5,5225-123,SENDIM,-6.427526518113764,41.38586214688861
pt.ine.add.PTCONT.860296,R DAS CASICAS,,5210-342,VILA CHÃ DE BRACIOSA,-6.345431144139038,41.429074672545354
pt.ine.add.PTCONT.860301,BR DE STA LÚZIA,41,5210-199,MIRANDA DO DOURO,-6.281438363603649,41.49356139957676
pt.ine.add.PTCONT.860304,R DO TELHADAL,5,5225-072,PICOTE,-6.368806172824688,41.40390185667318
pt.ine.add.PTCONT.860305,AV DO EMIGRANTE,16,5210-335,VILA CHÃ DE BRACIOSA,-6.345546352756617,41.42443970558125
pt.ine.add.PTCONT.860306,AV DA INDÚSTRIA,6,5225-031,ÁGUAS VIVAS,-6.41513798991589,41.48079020633307
pt.ine.add.PTCONT.860309,LG DA IGREJA,,5225-072,PICOTE,-6.368110120339313,41.4017843686437
pt.ine.add.PTCONT.860310,R DA FONTE,,5225-162,SILVA MDR,-6.468861018462712,41.51435258703503
pt.ine.add.PTCONT.860316,R LUIS DE CAMÕES,24,5225-072,PICOTE,-6.360983726403551,41.40264717369249
pt.ine.add.PTCONT.860317,R DA CAPELA,,5225-162,SILVA MDR,-6.469632920008523,41.51321132703462
pt.ine.add.PTCONT.860323,R DO TOURAL,10,5210-300,SÃO MARTINHO DE ANGUEIRA,-6.350583148595551,41.63690497788378
pt.ine.add.PTCONT.860329,BR DA EDP,,5225-071,PICOTE,-6.353682657360943,41.38623819168852
pt.ine.add.PTCONT.860330,R DAS PEREIRAS,,5225-163,SILVA MDR,-6.445327407703063,41.508652546125255
pt.ine.add.PTCONT.860335,LG DA CRUZ,,5225-032,PALAÇOULO,-6.44474655370304,41.459080353390156
pt.ine.add.PTCONT.860336,R DAS PEREIRAS,,5225-163,SILVA MDR,-6.445124802332032,41.508613558491845
pt.ine.add.PTCONT.860348,R DAS FACEIRAS,,5225-117,SENDIM,-6.430259534976491,41.387415226109766
pt.ine.add.PTCONT.860349,R DO CEMITÉRIO,33,5210-327,VILA CHÃ DE BRACIOSA,-6.395018349136905,41.43889216967697
pt.ine.add.PTCONT.860359,R DO SANTO CRISTO,4,5225-130,SENDIM,-6.426689652887557,41.386777098890306
pt.ine.add.PTCONT.860368,R CAMINHO DO PRADO,90,5225-125,SENDIM,-6.426257616054651,41.38821125231561
pt.ine.add.PTCONT.860370,TV CAMINHO DO PRADO,,5225-141,SENDIM,-6.426457953618706,41.388322266818136
pt.ine.add.PTCONT.860372,TV DA ERMIDA,3,5225-137,SENDIM,-6.423896469731303,41.387068762462874
pt.ine.add.PTCONT.860504,R DO AMADOR,11,5210-052,DUAS IGREJAS MDR,-6.352662866137763,41.471727835974995
pt.ine.add.PTCONT.860443,R DA IGREJA,45,5225-011,ATENOR,-6.480235423096827,41.42126809980211
pt.ine.add.PTCONT.860444,R ABADE DE BAÇAL,15,5210-201,MIRANDA DO DOURO,-6.274873886892568,41.493644564766264
pt.ine.add.PTCONT.860445,BR DA EDP,,5210-189,MIRANDA DO DOURO,-6.277022231733611,41.492634884901506
pt.ine.add.PTCONT.860449,R DA ABADIA,12,5210-020,CICOURO,-6.294690624020221,41.64587376420401
pt.ine.add.PTCONT.860461,R DA VEIGA,3,5210-150,MALHADAS,-6.324957121991513,41.541647215534475
pt.ine.add.PTCONT.860468,R DO ESPANTALHO,1,5210-030,CONSTANTIM MDR,-6.2762021095207805,41.620520911677026
pt.ine.add.PTCONT.860472,R DE VILARINHO,,5210-090,GENÍSIO,-6.378794494361812,41.54935988514572
pt.ine.add.PTCONT.860476,BR DE BAIXO,,5210-090,GENÍSIO,-6.383735435431354,41.54637123820858
pt.ine.add.PTCONT.860490,R DE S SEBASTIÃO,9,5210-119,IFANES,-6.264027648858609,41.58258248628545
pt.ine.add.PTCONT.860497,R ALF JOSÉ LUIS CABREIRO,10,5210-120,IFANES,-6.265978628833826,41.58229008291207
pt.ine.add.PTCONT.860499,R DO MERCADO,,5210-210,MIRANDA DO DOURO,-6.270090481904414,41.498014773171136
pt.ine.add.PTCONT.860500,R DO MERCADO,,5210-210,MIRANDA DO DOURO,-6.270090481904414,41.498014773171136
pt.ine.add.PTCONT.860503,R DA COVA,8,5210-104,IFANES,-6.271038362326114,41.58022041309848
pt.ine.add.PTCONT.860505,R MOUZINHO DE ALBUQUERQUE,38,5210-225,MIRANDA DO DOURO,-6.273612868752762,41.495865992730664
pt.ine.add.PTCONT.860506,R DA COSTANILHA,10,5210-175,MIRANDA DO DOURO,-6.274841077708565,41.494373299690615
pt.ine.add.PTCONT.860507,R DO CASTELO,9,5210-205,MIRANDA DO DOURO,-6.275478038735837,41.49513086398746
pt.ine.add.PTCONT.860512,TV DA STA CRUZ,6,5210-233,MIRANDA DO DOURO,-6.274279298360267,41.495174513493595
pt.ine.add.PTCONT.860513,TV DA STA CRUZ,4,5210-233,MIRANDA DO DOURO,-6.274207739386927,41.4951643533285
pt.ine.add.PTCONT.860750,R DO CÂNTICO,18,5225-012,ATENOR,-6.504837086470001,41.445325198986026
pt.ine.add.PTCONT.860774,LG DAS EIRAS,,5210-041,DUAS IGREJAS MDR,-6.310285285893373,41.47605173353934
pt.ine.add.PTCONT.860805,LG DE STO ANTÓNIO,,5225-161,SILVA MDR,-6.453709249986456,41.48835562358898
pt.ine.add.PTCONT.860806,R DO CHOUPO,44,5210-206,MIRANDA DO DOURO,-6.282709620152733,41.504007654100555
pt.ine.add.PTCONT.860807,R DO CHOUPO,44,5210-206,MIRANDA DO DOURO,-6.282709620152733,41.504007654100555
pt.ine.add.PTCONT.860808,R DO CHOUPO,44,5210-206,MIRANDA DO DOURO,-6.282709620152733,41.504007654100555
pt.ine.add.PTCONT.860809,R DO CHOUPO,44,5210-206,MIRANDA DO DOURO,-6.282709620152733,41.504007654100555
pt.ine.add.PTCONT.860810,R DO CHOUPO,44,5210-206,MIRANDA DO DOURO,-6.282709620152733,41.504007654100555
pt.ine.add.PTCONT.860811,R DO CHOUPO,44,5210-206,MIRANDA DO DOURO,-6.282709620152733,41.504007654100555
pt.ine.add.PTCONT.860812,R DO CHOUPO,44,5210-206,MIRANDA DO DOURO,-6.282709620152733,41.504007654100555
pt.ine.add.PTCONT.860813,R DO CHOUPO,44,5210-206,MIRANDA DO DOURO,-6.282709620152733,41.504007654100555
pt.ine.add.PTCONT.860814,R DO CHOUPO,44,5210-206,MIRANDA DO DOURO,-6.282709620152733,41.504007654100555
pt.ine.add.PTCONT.860815,R DO CHOUPO,44,5210-206,MIRANDA DO DOURO,-6.282709620152733,41.504007654100555
pt.ine.add.PTCONT.860816,R DO CHOUPO,44,5210-206,MIRANDA DO DOURO,-6.282709620152733,41.504007654100555
pt.ine.add.PTCONT.860817,R DO CHOUPO,44,5210-206,MIRANDA DO DOURO,-6.282709620152733,41.504007654100555
pt.ine.add.PTCONT.860818,TV DA TERRONHA,,5210-232,MIRANDA DO DOURO,-6.269153280323112,41.50062853626374
pt.ine.add.PTCONT.860819,TV DA TERRONHA,,5210-232,MIRANDA DO DOURO,-6.26904141667547,41.50077077488399
pt.ine.add.PTCONT.860820,R DO BALHICO,,5210-170,MIRANDA DO DOURO,-6.231320217644888,41.538299626675965
pt.ine.add.PTCONT.861148,R DAS EIRAS,,5210-300,SÃO MARTINHO DE ANGUEIRA,-6.347797003104026,41.64262371822267
pt.ine.add.PTCONT.861150,R DA FRÁGUA,54,5225-102,SENDIM,-6.426742451096031,41.386129628650004
pt.ine.add.PTCONT.861154,R DO SANTO CRISTO,,5225-130,SENDIM,-6.428020670436668,41.38616658839353
pt.ine.add.PTCONT.861155,R DO BAIRRO ALTO,10,5225-123,SENDIM,-6.4274949018555185,41.38569961475916
pt.ine.add.PTCONT.861158,R DA FACEIRA,,5210-300,SÃO MARTINHO DE ANGUEIRA,-6.353265074106057,41.63713561300691
pt.ine.add.PTCONT.861159,R DAS MOREIRIÇAS,27,5210-343,VILA CHÃ DE BRACIOSA,-6.343773712503364,41.425393514054385
pt.ine.add.PTCONT.861162,R DO QUARTEL,59,5210-300,SÃO MARTINHO DE ANGUEIRA,-6.3492202185358515,41.638891523331004
pt.ine.add.PTCONT.861163,R DE STO ANTÓNIO,20,5225-120,SENDIM,-6.424823591940995,41.38453453774219
pt.ine.add.PTCONT.861167,R DA CANZELA,13,5225-072,PICOTE,-6.367107309272939,41.40216512942382
pt.ine.add.PTCONT.861169,ESTR DE CICOURO,12,5210-300,SÃO MARTINHO DE ANGUEIRA,-6.350033290036828,41.634213517847535
pt.ine.add.PTCONT.861170,R DA IGREJA,,5225-031,ÁGUAS VIVAS,-6.4150341594485605,41.475656727681276
pt.ine.add.PTCONT.861175,R DAS EIRAS,16,5225-163,SILVA MDR,-6.443045050587149,41.50890712818075
pt.ine.add.PTCONT.861178,R DA FEIRA,,5225-032,PALAÇOULO,-6.444793019235461,41.45544365033155
pt.ine.add.PTCONT.861191,R DA CANADA,,5210-300,SÃO MARTINHO DE ANGUEIRA,-6.350643481225224,41.643424167580825
pt.ine.add.PTCONT.861192,R DO CANZELO,,5225-126,SENDIM,-6.428488575217437,41.386560674056476
pt.ine.add.PTCONT.861193,R DA CALÇADA,18,5225-111,SENDIM,-6.428472668796042,41.38625431865385
pt.ine.add.PTCONT.861240,R DA COSTANILHA,25,5210-176,MIRANDA DO DOURO,-6.275140308985703,41.49437813539854
pt.ine.add.PTCONT.861242,R DO POSTIGO,,5210-241,MIRANDA DO DOURO,-6.273372980763675,41.49420551095561
pt.ine.add.PTCONT.861243,R DA CORREDOURA DE CIMA,24,5210-239,MIRANDA DO DOURO,-6.275106580812357,41.493882410320964
pt.ine.add.PTCONT.861254,R DO TOURAL,14,5210-150,MALHADAS,-6.3252551555063095,41.54299338508564
pt.ine.add.PTCONT.861255,R COR EDUARDO BEÇA,,5210-192,MIRANDA DO DOURO,-6.282282327419507,41.50345157735013
pt.ine.add.PTCONT.861256,R DO PINHAL,,5210-214,MIRANDA DO DOURO,-6.27339955258596,41.50039118598385
pt.ine.add.PTCONT.861261,R DA MOAGEM,,5210-150,MALHADAS,-6.3255186528383165,41.541277910288315
pt.ine.add.PTCONT.861263,R DAS VEIGAS,4,5210-030,CONSTANTIM MDR,-6.276268208190205,41.621980481189844
pt.ine.add.PTCONT.861264,R DA CANTEIRA,44,5210-194,MIRANDA DO DOURO,-6.270084232994358,41.50115681066379
pt.ine.add.PTCONT.861269,R DO VALE DE CIMA,,5210-063,DUAS IGREJAS MDR,-6.307386002612203,41.48934864290981
pt.ine.add.PTCONT.861272,ESTR PRINCIPAL,,5210-041,DUAS IGREJAS MDR,-6.3093528135931605,41.47856688076692
pt.ine.add.PTCONT.861276,R DA PRAL,,5210-111,IFANES,-6.263856693910663,41.58227359928061
pt.ine.add.PTCONT.861278,R DA PRAÇA,,5210-110,IFANES,-6.264689556990666,41.58125177974065
pt.ine.add.PTCONT.861285,R DA ESCOLA,28,5225-011,ATENOR,-6.481902908293343,41.422021332883716
pt.ine.add.PTCONT.861286,R DO FERRADAL,20,5210-053,DUAS IGREJAS MDR,-6.349313713510036,41.47425089027417
pt.ine.add.PTCONT.861288,CM 1125,,5210-173,MIRANDA DO DOURO,-6.2491686518975715,41.52859996237176
pt.ine.add.PTCONT.861519,R JOÃO DE NORONHA,8,5210-238,MIRANDA DO DOURO,-6.272119014525749,41.50328752311036
pt.ine.add.PTCONT.861527,R DAS EIRAS,,5225-163,SILVA MDR,-6.443953830190475,41.508965499351795
pt.ine.add.PTCONT.861559,R DO RODELÃO,34,5225-032,PALAÇOULO,-6.445026682944584,41.45750886582145
pt.ine.add.PTCONT.861630,BR DE STA LÚZIA,39,5210-199,MIRANDA DO DOURO,-6.281388436015528,41.49363262174618
pt.ine.add.PTCONT.861631,R DO MOLINICO,,5210-090,GENÍSIO,-6.38555502958742,41.546653837056574
pt.ine.add.PTCONT.861649,BR DE STA LÚZIA,39,5210-199,MIRANDA DO DOURO,-6.281388436015528,41.49363262174618
pt.ine.add.PTCONT.861958,R DO CAMINHO DE MIRANDA,7,5210-261,PARADELA MDR,-6.216256169028646,41.580526264957484
pt.ine.add.PTCONT.861959,R DO SANTO CRISTO,30,5225-130,SENDIM,-6.427760584825585,41.38605469089655
pt.ine.add.PTCONT.861965,R DA RESTOLHA,15,5210-197,MIRANDA DO DOURO,-6.280804427626867,41.49395633625766
pt.ine.add.PTCONT.861969,LG DAS EIRAS,14,5210-300,SÃO MARTINHO DE ANGUEIRA,-6.347682290344041,41.64112741988376
pt.ine.add.PTCONT.861977,R DAS EIRINHAS,65,5225-032,PALAÇOULO,-6.441095038190638,41.45958489992531
pt.ine.add.PTCONT.861978,R DA COSTA,,5225-163,SILVA MDR,-6.445552055612262,41.51060957132515
pt.ine.add.PTCONT.861982,R DA VEIGA,,5210-300,SÃO MARTINHO DE ANGUEIRA,-6.351652205124845,41.63207787620649
pt.ine.add.PTCONT.861983,EN 221,,5225-103,SENDIM,-6.438766285019008,41.38393942128343
pt.ine.add.PTCONT.861984,R DO TOURAL,5,5225-163,SILVA MDR,-6.445073964086159,41.50964819790383
pt.ine.add.PTCONT.861988,R DA LAGOA,1,5225-163,SILVA MDR,-6.442339372938263,41.50932891432201
pt.ine.add.PTCONT.861991,TV CAMINHO DO PRADO,13,5225-141,SENDIM,-6.427052432549601,41.38844813045297
pt.ine.add.PTCONT.861994,R DAS LATAS,1,5225-032,PALAÇOULO,-6.444760979126851,41.45621747501386
pt.ine.add.PTCONT.862011,R CAMINHO DO PRADO,114,5225-125,SENDIM,-6.426125864126423,41.3886774802436
pt.ine.add.PTCONT.862013,R DO BAIUNCO,123,5225-100,SENDIM,-6.422799544025082,41.386044065416286
pt.ine.add.PTCONT.862063,R DA CALEJA DO PADRE,,5210-045,DUAS IGREJAS MDR,-6.357230245886578,41.473680163047646
pt.ine.add.PTCONT.862064,R DE MALVAZ,18,5210-150,MALHADAS,-6.318075703178392,41.542178003533074
pt.ine.add.PTCONT.862065,R DA COSTANILHA,33,5210-176,MIRANDA DO DOURO,-6.27542577061855,41.49444577077143
pt.ine.add.PTCONT.862066,R ABADE DE BAÇAL,21,5210-201,MIRANDA DO DOURO,-6.274820092844229,41.49385077067011
pt.ine.add.PTCONT.862067,R ABADE DE BAÇAL,17,5210-201,MIRANDA DO DOURO,-6.274836950411589,41.49367998091178
pt.ine.add.PTCONT.862068,R ABADE DE BAÇAL,11,5210-201,MIRANDA DO DOURO,-6.274854579713334,41.49348219379509
pt.ine.add.PTCONT.862069,EN 221,,5210-209,MIRANDA DO DOURO,-6.287000049756446,41.49758526482189
pt.ine.add.PTCONT.862073,EN 218,,5210-150,MALHADAS,-6.328494874309552,41.542846216480235
pt.ine.add.PTCONT.862078,R DAS EIRAS,,5210-020,CICOURO,-6.2905435547913315,41.64440286186117
pt.ine.add.PTCONT.862080,TV DA MACIEIRA,,5210-057,DUAS IGREJAS MDR,-6.3552916243356545,41.47058906733793
pt.ine.add.PTCONT.862087,R DA IGREJA,,5210-170,MIRANDA DO DOURO,-6.23456822963997,41.540325011815675
pt.ine.add.PTCONT.862088,R DA EIRA,,5210-170,MIRANDA DO DOURO,-6.233275477431794,41.53945735501118
pt.ine.add.PTCONT.862091,R DA CANADIÇA,,5210-170,MIRANDA DO DOURO,-6.232683465987586,41.53921348678115
pt.ine.add.PTCONT.862096,EN 221,,5210-041,DUAS IGREJAS MDR,-6.312921380778623,41.47938870609177
pt.ine.add.PTCONT.862097,R DO CRUZEIRO,,5210-090,GENÍSIO,-6.38117793115109,41.547199437104474
pt.ine.add.PTCONT.862099,R DA MACIEIRA,,5210-090,GENÍSIO,-6.378899076833876,41.54504891870289
pt.ine.add.PTCONT.862103,LG DAS EIRAS,,5210-041,DUAS IGREJAS MDR,-6.309518193018333,41.47608458759247
pt.ine.add.PTCONT.862104,R DO ESCOVAL,,5210-123,IFANES,-6.262858233288772,41.581969256187335
pt.ine.add.PTCONT.862105,R DA IGREJA,,5210-041,DUAS IGREJAS MDR,-6.310162769220139,41.4748703561554
pt.ine.add.PTCONT.862111,R DO FERRADAL,16,5210-053,DUAS IGREJAS MDR,-6.348488056829259,41.47423807947744
pt.ine.add.PTCONT.862112,R DA CRUZ,5,5210-046,DUAS IGREJAS MDR,-6.3650689506848614,41.47420610285606
pt.ine.add.PTCONT.862113,R DO AMADOR,,5210-052,DUAS IGREJAS MDR,-6.352927340804377,41.47168691376093
pt.ine.add.PTCONT.862328,R DA MACIEIRA,103,5210-090,GENÍSIO,-6.37837836997219,41.54524804695934
pt.ine.add.PTCONT.862372,LG DO SAGRADO,7,5210-321,VILA CHÃ DE BRACIOSA,-6.395218976260911,41.43720255716829
pt.ine.add.PTCONT.862378,R DE COREIXE,,5210-051,DUAS IGREJAS MDR,-6.357855392096517,41.475337429236546
pt.ine.add.PTCONT.862723,EN 221,,5225-103,SENDIM,-6.424658826109753,41.39265326169806
pt.ine.add.PTCONT.862688,R DOS CASALÕES,3,5210-267,PARADELA MDR,-6.215405785765878,41.58089921341934
pt.ine.add.PTCONT.862689,R DO BAIUNCO,,5225-100,SENDIM,-6.425536109397639,41.3865438975888
pt.ine.add.PTCONT.862694,BR DA EDP,,5210-189,MIRANDA DO DOURO,-6.27610659441269,41.49031526126043
pt.ine.add.PTCONT.862695,LG DO TANQUE,1,5210-337,VILA CHÃ DE BRACIOSA,-6.3464648271816095,41.428460495811535
pt.ine.add.PTCONT.862697,R DOS BARREAIS,52,5225-131,SENDIM,-6.431808609153129,41.394487898943225
pt.ine.add.PTCONT.862700,R DOS BARREAIS,,5225-131,SENDIM,-6.43146462993719,41.393465414351496
pt.ine.add.PTCONT.862701,AV DA INDÚSTRIA,,5225-031,ÁGUAS VIVAS,-6.415455796256131,41.479183349039886
pt.ine.add.PTCONT.862704,R DA CANZELA,,5225-072,PICOTE,-6.366221826009991,41.403069884307406
pt.ine.add.PTCONT.862709,R DO MEIO,7,5225-032,PALAÇOULO,-6.445479444646859,41.45943324079034
pt.ine.add.PTCONT.862710,TV DA ABADIA,,5210-300,SÃO MARTINHO DE ANGUEIRA,-6.348592774081115,41.63814352606449
pt.ine.add.PTCONT.862711,R DA CAPELA,12,5225-031,ÁGUAS VIVAS,-6.412828410884094,41.47531763644554
pt.ine.add.PTCONT.862712,LG DA IGREJA,,5225-163,SILVA MDR,-6.4454975663025165,41.51040169445328
pt.ine.add.PTCONT.862722,BR DA EDP,,5225-071,PICOTE,-6.352733948060093,41.3863945786992
pt.ine.add.PTCONT.862724,R NOVA,4,5225-163,SILVA MDR,-6.442175731940921,41.50917345087069
pt.ine.add.PTCONT.862726,LG DA CRUZ,,5225-032,PALAÇOULO,-6.444487840079997,41.459364664559914
pt.ine.add.PTCONT.862727,R DO CANZELO,8,5225-126,SENDIM,-6.427166915759077,41.38727036739768
pt.ine.add.PTCONT.862728,R DO CANZELO,18,5225-126,SENDIM,-6.427482101020672,41.387103974102565
pt.ine.add.PTCONT.862729,R DE STO ANTÓNIO,,5225-161,SILVA MDR,-6.452637934447536,41.48857406037716
pt.ine.add.PTCONT.862733,R COR BESSA,,5225-032,PALAÇOULO,-6.445443994192009,41.45572330795749
pt.ine.add.PTCONT.862734,R DA QUITÉRIA,106,5210-285,PÓVOA,-6.317335576372198,41.57161581981014
pt.ine.add.PTCONT.862735,AV DO CICLO PREPARATÓRIO,6,5225-101,SENDIM,-6.4259050371213045,41.38934946694414
pt.ine.add.PTCONT.862738,R DA LIBERDADE,,5225-113,SENDIM,-6.4216043195206245,41.39059107099821
pt.ine.add.PTCONT.862741,R CAMINHO DO PRADO,14,5225-125,SENDIM,-6.426372763049177,41.38746566879032
pt.ine.add.PTCONT.862742,R CAMINHO DO PRADO,,5225-125,SENDIM,-6.426203455664142,41.3884535436544
pt.ine.add.PTCONT.862743,R DOS OLMOS,34,5210-331,VILA CHÃ DE BRACIOSA,-6.394870428104392,41.43546863149528
pt.ine.add.PTCONT.862746,LG DA IGREJA,,5225-106,SENDIM,-6.426824061810917,41.38758040571868
pt.ine.add.PTCONT.862753,R DO CALEJO,,5210-333,VILA CHÃ DE BRACIOSA,-6.313394506804894,41.43379422343328
pt.ine.add.PTCONT.862803,R DA CORREDOURA,,5210-150,MALHADAS,-6.328030811438349,41.54445051005022
pt.ine.add.PTCONT.862804,R PRINCIPAL,,5210-171,MIRANDA DO DOURO,-6.282382245683864,41.53273173709557
pt.ine.add.PTCONT.862809,EN 221,39,5210-065,DUAS IGREJAS MDR,-6.359726459130191,41.47213409523382
pt.ine.add.PTCONT.862810,R MIGUEL ARRUDA,11,5210-177,MIRANDA DO DOURO,-6.275203226634719,41.493433808296146
pt.ine.add.PTCONT.862818,R DE VILARINHO,,5210-090,GENÍSIO,-6.37919835281496,41.549050933459796
pt.ine.add.PTCONT.862822,R DA IGREJA,,5210-170,MIRANDA DO DOURO,-6.23498349238392,41.54128620667879
pt.ine.add.PTCONT.862825,R DE VILARINHO,,5210-090,GENÍSIO,-6.380543250868926,41.547180759788596
pt.ine.add.PTCONT.862829,R JOÃO DE NORONHA,6,5210-238,MIRANDA DO DOURO,-6.271980777141293,41.503096217073384
pt.ine.add.PTCONT.862833,R DA MALHADA,,5210-041,DUAS IGREJAS MDR,-6.315543346474303,41.47638705734446
pt.ine.add.PTCONT.862837,R PRINCIPAL,12,5225-012,ATENOR,-6.504969531100465,41.44481387557981
pt.ine.add.PTCONT.862854,URB DA VINHA,,5210-244,MIRANDA DO DOURO,-6.279862458276611,41.49969424885402
pt.ine.add.PTCONT.862863,R DA VEIGA,,5210-171,MIRANDA DO DOURO,-6.282823414401917,41.53364816406045
pt.ine.add.PTCONT.863069,R 1 DE MAIO,4,5210-191,MIRANDA DO DOURO,-6.273136734146603,41.49953162456962
pt.ine.add.PTCONT.863070,R D CATARINA,,5210-182,MIRANDA DO DOURO,-6.273238219103731,41.49514867470974
pt.ine.add.PTCONT.863071,EN 221,,5225-103,SENDIM,-6.424658826109753,41.39265326169806
pt.ine.add.PTCONT.863095,TV DOS NOBRES,16,5225-143,SENDIM,-6.428584597897309,41.38974934232051
pt.ine.add.PTCONT.863107,BR DO FUNDO DO FOMENTO,76,5210-005,,-6.269232329913673,41.500377726452456
pt.ine.add.PTCONT.863111,R COR EDUARDO BEÇA,,5210-192,MIRANDA DO DOURO,-6.282646582431244,41.50327737508923
pt.ine.add.PTCONT.863214,R DOS BARREAIS,,5225-131,SENDIM,-6.428348331290996,41.39284304995065
pt.ine.add.PTCONT.863215,R DAS EIRAS,,5210-173,MIRANDA DO DOURO,-6.243241487770117,41.52930396325933
pt.ine.add.PTCONT.863244,LG DA IGREJA,,5225-032,PALAÇOULO,-6.4462045787894935,41.459623948082424
pt.ine.add.PTCONT.863245,R DO BAIRRO DE BAIXO,,5225-032,PALAÇOULO,-6.447318393922396,41.45959526332974
pt.ine.add.PTCONT.863246,LG DA CRUZ,,5225-032,PALAÇOULO,-6.445709092827755,41.45934657629406
pt.ine.add.PTCONT.863247,AV VALE DE MORAIS,18,5225-072,PICOTE,-6.3702957076772,41.40409575939895
pt.ine.add.PTCONT.863276,R DAS EIRAS,128,5210-286,PÓVOA,-6.3130447389252815,41.57199811696245
pt.ine.add.PTCONT.863277,R DOS PAULITEIROS,5,5210-300,SÃO MARTINHO DE ANGUEIRA,-6.347906715521654,41.639519349671005
pt.ine.add.PTCONT.863278,R DO QUARTEL,29,5210-300,SÃO MARTINHO DE ANGUEIRA,-6.349737554968089,41.63884553439522
pt.ine.add.PTCONT.863279,R DA LIBERDADE,,5225-113,SENDIM,-6.421790018488446,41.39126009342643
pt.ine.add.PTCONT.863302,R CAMINHO DO PRADO,11,5225-125,SENDIM,-6.426574275583123,41.38753168293693
pt.ine.add.PTCONT.863303,R DA TRINDADE,,5225-122,SENDIM,-6.427274235340487,41.397797063411716
pt.ine.add.PTCONT.863304,R DO MATADOURO,1,5225-127,SENDIM,-6.428829692627339,41.38723198866182
pt.ine.add.PTCONT.863305,TV DA R NOVA,5,5225-138,SENDIM,-6.427546794318785,41.38691585936236
pt.ine.add.PTCONT.863340,R NOVA,49,5225-134,SENDIM,-6.427796154665633,41.38652340124569
pt.ine.add.PTCONT.863341,R DO SANTO CRISTO,34,5225-130,SENDIM,-6.427485961880876,41.38604161600359
pt.ine.add.PTCONT.863342,LG DA FONTE,15,5225-105,,-6.427906105989816,41.38597581634007
pt.ine.add.PTCONT.863343,R CAMINHO DAS VINHAS,59,5225-124,SENDIM,-6.427813652430867,41.3849390408884
pt.ine.add.PTCONT.863344,R DAS MOREIRIÇAS,25,5210-343,VILA CHÃ DE BRACIOSA,-6.343344092019905,41.4257919831125
pt.ine.add.PTCONT.863643,R DOS PAULITEIROS,28,5210-030,CONSTANTIM MDR,-6.277294344480181,41.620088400203926
pt.ine.add.PTCONT.863644,R DA IGREJA,,5210-041,DUAS IGREJAS MDR,-6.309924602873554,41.47439840745406
pt.ine.add.PTCONT.863645,ESTR DE S PEDRO,,5210-043,DUAS IGREJAS MDR,-6.361725342431315,41.47346138718698
pt.ine.add.PTCONT.863646,TV DA MACIEIRA,1,5210-057,DUAS IGREJAS MDR,-6.3565530170508495,41.46560269293498
pt.ine.add.PTCONT.863647,R DA GATA,,5210-080,GENÍSIO,-6.364109117412294,41.5929895204393
pt.ine.add.PTCONT.863686,R DE VILARINHO,,5210-090,GENÍSIO,-6.3794296223808225,41.54891941281135
pt.ine.add.PTCONT.863687,R DO PRADO,,5210-126,IFANES,-6.263251772467032,41.580382102659186
pt.ine.add.PTCONT.863688,R DA PRAÇA,,5210-110,IFANES,-6.2644584643166565,41.58136506376516
pt.ine.add.PTCONT.863689,R DO MARGALHO,,5210-124,IFANES,-6.263085241520207,41.57992023293909
pt.ine.add.PTCONT.863690,R DA VARANDINHA,12,5210-150,MALHADAS,-6.32429304825225,41.540106218135634
pt.ine.add.PTCONT.863735,R DA IGREJA,,5210-170,MIRANDA DO DOURO,-6.234700901588169,41.540705336559114
pt.ine.add.PTCONT.863736,R DO PINHAL,,5210-214,MIRANDA DO DOURO,-6.2732923345767215,41.50037144518816
pt.ine.add.PTCONT.863832,R MOUZINHO DE ALBUQUERQUE,3,5210-225,MIRANDA DO DOURO,-6.274310313025789,41.49450877274963
pt.ine.add.PTCONT.863833,R DA CORREDOURA DE CIMA,26,5210-239,MIRANDA DO DOURO,-6.275077240179895,41.49407100494262
pt.ine.add.PTCONT.863834,R DA TERRONHA,10,5210-198,MIRANDA DO DOURO,-6.268858926594603,41.50045270196828
pt.ine.add.PTCONT.863867,R DA RESTOLHA,5,5210-197,MIRANDA DO DOURO,-6.281119473459593,41.493826361986486
pt.ine.add.PTCONT.863868,BR DE STA LÚZIA,71,5210-199,MIRANDA DO DOURO,-6.283868102416284,41.49360050304776
pt.ine.add.PTCONT.863884,R DO BAIRRO ALTO,96,5225-123,SENDIM,-6.426123794881112,41.38464387306646
pt.ine.add.PTCONT.863891,R NOVA,,5210-080,GENÍSIO,-6.36335607902668,41.59114127736918
pt.ine.add.PTCONT.863920,R DE STA CRUZ,20,5225-072,PICOTE,-6.370440134708935,41.40096476770261
pt.ine.add.PTCONT.863958,R DO POMBAL,2,5210-020,CICOURO,-6.295296735456311,41.64397480807259
pt.ine.add.PTCONT.863959,R DOS ADIS,12,5210-219,MIRANDA DO DOURO,-6.272902927555236,41.502678983945586
pt.ine.add.PTCONT.863960,R DOS ADIS,12,5210-219,MIRANDA DO DOURO,-6.272902927555236,41.502678983945586
pt.ine.add.PTCONT.863961,R DOS ADIS,12,5210-219,MIRANDA DO DOURO,-6.272902927555236,41.502678983945586
pt.ine.add.PTCONT.863962,R DOS ADIS,12,5210-219,MIRANDA DO DOURO,-6.272902927555236,41.502678983945586
pt.ine.add.PTCONT.863963,R DOS ADIS,12,5210-219,MIRANDA DO DOURO,-6.272902927555236,41.502678983945586
pt.ine.add.PTCONT.863964,R COR EDUARDO BEÇA,1,5210-192,MIRANDA DO DOURO,-6.277958874453506,41.500933010998544
pt.ine.add.PTCONT.863965,R COR EDUARDO BEÇA,1,5210-192,MIRANDA DO DOURO,-6.277958874453506,41.500933010998544
pt.ine.add.PTCONT.863966,R COR EDUARDO BEÇA,1,5210-192,MIRANDA DO DOURO,-6.277958874453506,41.500933010998544
pt.ine.add.PTCONT.863967,R COR EDUARDO BEÇA,1,5210-192,MIRANDA DO DOURO,-6.277958874453506,41.500933010998544
pt.ine.add.PTCONT.863968,R COR EDUARDO BEÇA,1,5210-192,MIRANDA DO DOURO,-6.277958874453506,41.500933010998544
pt.ine.add.PTCONT.863969,TV DA TERRONHA,59,5210-232,MIRANDA DO DOURO,-6.26992619360178,41.50082112909836
pt.ine.add.PTCONT.863970,TV DA TERRONHA,58,5210-232,MIRANDA DO DOURO,-6.26992619360178,41.50082112909836
pt.ine.add.PTCONT.863971,R COR EDUARDO BEÇA,1,5210-192,MIRANDA DO DOURO,-6.277958874453506,41.500933010998544
pt.ine.add.PTCONT.864078,R DO ESPÍRITO SANTO,,5210-041,DUAS IGREJAS MDR,-6.308098070988422,41.475071692237975
pt.ine.add.PTCONT.864079,R DA MALHADA,,5210-041,DUAS IGREJAS MDR,-6.314925522246791,41.47664738986623
pt.ine.add.PTCONT.864080,R DA IGREJA,,5210-080,GENÍSIO,-6.363008310924054,41.59201823462407
pt.ine.add.PTCONT.864081,R DO CRUZEIRO,,5210-080,GENÍSIO,-6.3634865365034035,41.59251177078072
pt.ine.add.PTCONT.864082,R DA IGREJA,10,5210-080,GENÍSIO,-6.36288044303058,41.5914310580225
pt.ine.add.PTCONT.864083,R DO MOLINICO,,5210-090,GENÍSIO,-6.384512021786044,41.54755631008006
pt.ine.add.PTCONT.864084,BR DE BAIXO,,5210-090,GENÍSIO,-6.383936721201431,41.54622407796969
pt.ine.add.PTCONT.864085,R DO ESCOVAL,4,5210-123,IFANES,-6.261824407095555,41.58247461142999
pt.ine.add.PTCONT.864086,R DO BALHICO,,5210-170,MIRANDA DO DOURO,-6.232387082193079,41.53869540518421
pt.ine.add.PTCONT.864087,R DO GIDRO,37,5210-208,MIRANDA DO DOURO,-6.269689565210283,41.501555561654946
pt.ine.add.PTCONT.864088,R PRINCIPAL,,5210-171,MIRANDA DO DOURO,-6.282212780225855,41.532792031369
pt.ine.add.PTCONT.864089,URB BELA VISTA,,5210-002,MIRANDA DO DOURO,-6.2829391882380605,41.50057210046283
pt.ine.add.PTCONT.864090,URB BELA VISTA,,5210-002,MIRANDA DO DOURO,-6.2823324642018035,41.50085044026406
pt.ine.add.PTCONT.864091,R 25 DE ABRIL,61,5210-178,MIRANDA DO DOURO,-6.270742120753556,41.49825941494163
pt.ine.add.PTCONT.864092,R DO BOM SUCESSO,47,5210-203,MIRANDA DO DOURO,-6.268643532677388,41.49961190601792
pt.ine.add.PTCONT.864093,R DO JUNCAL,,5210-209,MIRANDA DO DOURO,-6.284874838439477,41.496938899767734
pt.ine.add.PTCONT.864094,R DO RODELÃO,15,5225-032,PALAÇOULO,-6.44484915432385,41.45789340725459
pt.ine.add.PTCONT.864095,R DAS LATAS,17,5225-032,PALAÇOULO,-6.445003221500994,41.45564481146587
pt.ine.add.PTCONT.864096,R DA IGREJA,,5225-041,PALAÇOULO,-6.430996550813842,41.43109305726829
pt.ine.add.PTCONT.864097,TV VALE DE MORAIS,1,5225-072,PICOTE,-6.369349886661431,41.40325294231313
pt.ine.add.PTCONT.864098,R DAS PINHAS DO TRIGO,90,5210-288,PÓVOA,-6.317194325571911,41.57323416246181
pt.ine.add.PTCONT.864099,R PRINCIPAL,10,5210-292,PÓVOA,-6.31619911624909,41.56810462298141
pt.ine.add.PTCONT.864100,R DA VEIGA DO VICENTE,154,5210-293,PÓVOA,-6.314846885032552,41.5701539751176
pt.ine.add.PTCONT.864101,R DO QUARTEL,,5210-300,SÃO MARTINHO DE ANGUEIRA,-6.349121436264773,41.638556874607275
pt.ine.add.PTCONT.864102,LG DA CAPELA,2,5210-300,SÃO MARTINHO DE ANGUEIRA,-6.350448284616342,41.6361376208088
pt.ine.add.PTCONT.864330,R DAS LINGUEIRAS,,5225-118,SENDIM,-6.425525967280989,41.3887586122597
pt.ine.add.PTCONT.864331,URB DE S SEBASTIÃO,,5225-151,SENDIM,-6.433534484352832,41.386986470132335
pt.ine.add.PTCONT.864332,TV DAS FACEIRAS,8,5225-117,SENDIM,-6.4297747608942135,41.38675079223607
pt.ine.add.PTCONT.864333,R DO BAIRRO ALTO,91,5225-123,SENDIM,-6.425965853634001,41.38474056812117
pt.ine.add.PTCONT.864334,TV DE NSA SRA DA CONCEIÇÃO,12,5225-139,SENDIM,-6.42451447127802,41.38492610192875
pt.ine.add.PTCONT.864335,R DA CAPELA,,5225-162,SILVA MDR,-6.469471944576778,41.51388425012148
pt.ine.add.PTCONT.864336,LG DO TOURAL,9,5225-163,SILVA MDR,-6.445007971609796,41.50942214518866
pt.ine.add.PTCONT.864337,R NOVA,2,5225-163,SILVA MDR,-6.442067974397658,41.5091718660938
pt.ine.add.PTCONT.864338,R DAS EIRAS,20,5225-163,SILVA MDR,-6.442604859278108,41.50879261680039
pt.ine.add.PTCONT.864339,R DAS NOGUEIRAS,,5225-161,SILVA MDR,-6.458495208485642,41.48802927252274
pt.ine.add.PTCONT.864364,AV DO EMIGRANTE,7,5210-335,VILA CHÃ DE BRACIOSA,-6.344865215967861,41.42615777305071
pt.ine.add.PTCONT.864365,R DAS MOREIRIÇAS,,5210-343,VILA CHÃ DE BRACIOSA,-6.34416502797612,41.426389976647705
pt.ine.add.PTCONT.864366,R DA IGREJA,17,5225-031,ÁGUAS VIVAS,-6.416315014949129,41.47656719231006
pt.ine.add.PTCONT.864367,R DA IGREJA,12,5225-031,ÁGUAS VIVAS,-6.415715464808198,41.47524374558379
pt.ine.add.PTCONT.864368,R DA ROTA FALSA,1,5225-031,ÁGUAS VIVAS,-6.414426251957263,41.47283858697052
pt.ine.add.PTCONT.864650,URB FRANCISCO REIS,,5210-193,MIRANDA DO DOURO,-6.280287218290803,41.50117763048685
pt.ine.add.PTCONT.864743,R DO NASO,,5210-080,GENÍSIO,-6.354706150981478,41.588198769745894
pt.ine.add.PTCONT.864744,R GEN HUMBERTO DELGADO,2,5210-191,MIRANDA DO DOURO,-6.272764728304287,41.50081307277538
pt.ine.add.PTCONT.864745,R GEN HUMBERTO DELGADO,2,5210-191,MIRANDA DO DOURO,-6.272764728304287,41.50081307277538
pt.ine.add.PTCONT.865051,R DO BAIUNCO,,5225-100,SENDIM,-6.425688403328129,41.386663203806876
pt.ine.add.PTCONT.865056,R DOS CASALÕES,7,5210-267,PARADELA MDR,-6.215172215913145,41.580688244439365
pt.ine.add.PTCONT.865057,R DO BAIUNCO,138,5225-100,SENDIM,-6.422598594418671,41.38550086658326
pt.ine.add.PTCONT.865059,BR DA EDP,,5210-189,MIRANDA DO DOURO,-6.275566843377392,41.48992840502538
pt.ine.add.PTCONT.865060,R DO BAIRRO ALTO,,5225-123,SENDIM,-6.426697527745963,41.38556174050736
pt.ine.add.PTCONT.865065,URB DOS BARREAIS,1,5225-131,SENDIM,-6.4302401799226026,41.39319519697299
pt.ine.add.PTCONT.865070,R DO BAIRRO ALTO,,5225-123,SENDIM,-6.425887677757875,41.38407314736417
pt.ine.add.PTCONT.865071,R LUIS DE CAMÕES,,5225-148,SENDIM,-6.427947669340138,41.392161848291835
pt.ine.add.PTCONT.865072,AV DA INDÚSTRIA,,5225-031,ÁGUAS VIVAS,-6.41902098119858,41.47564419659749
pt.ine.add.PTCONT.865076,R DAS EIRINHAS,41,5225-032,PALAÇOULO,-6.44276811923753,41.45968153077545
pt.ine.add.PTCONT.865077,R DA SENHORA DO ROSÁRIO,4,5225-163,SILVA MDR,-6.442036347713785,41.510386853439336
pt.ine.add.PTCONT.865085,R DAS EIRINHAS,42,5225-032,PALAÇOULO,-6.442739474060041,41.45940200358674
pt.ine.add.PTCONT.865086,R DA RENAL,2,5225-072,PICOTE,-6.366491333098861,41.39974274292026
pt.ine.add.PTCONT.865087,R DO VALE,1,5225-163,SILVA MDR,-6.445175175102089,41.50990177766103
pt.ine.add.PTCONT.865106,TV DO CANZELO,3,5225-142,SENDIM,-6.427874868255826,41.386713641977096
pt.ine.add.PTCONT.865107,R DA CANADA,,5210-300,SÃO MARTINHO DE ANGUEIRA,-6.35075608063971,41.64282270581019
pt.ine.add.PTCONT.865160,R DE MALVAZ,16,5210-150,MALHADAS,-6.3185049105459274,41.54225680517306
pt.ine.add.PTCONT.865162,EN 221,52,5210-065,DUAS IGREJAS MDR,-6.358818720407047,41.47249823387693
pt.ine.add.PTCONT.865168,R DE STO AMARO,2,5210-020,CICOURO,-6.2988187594571245,41.644634289610295
pt.ine.add.PTCONT.865169,R DE VILA VERDE,9,5210-150,MALHADAS,-6.32206517590416,41.54264606798052
pt.ine.add.PTCONT.865173,R DA PENA DO CORVO,20,5210-150,MALHADAS,-6.322261658277415,41.54075848366123
pt.ine.add.PTCONT.865181,R DA CANTEIRA,45,5210-194,MIRANDA DO DOURO,-6.270193773153804,41.501095562730704
pt.ine.add.PTCONT.865184,TV DO BAIRRO ALTO,2,5210-030,CONSTANTIM MDR,-6.276913778472066,41.62122564722767
pt.ine.add.PTCONT.865185,EN 218,6,5210-150,MALHADAS,-6.32327665615427,41.53702011625443
pt.ine.add.PTCONT.865186,URB BELA VISTA,,5210-002,MIRANDA DO DOURO,-6.282306729013474,41.50091304888379
pt.ine.add.PTCONT.865196,R DA MACIEIRA,,5210-090,GENÍSIO,-6.377734360347932,41.544689015944236
pt.ine.add.PTCONT.865199,R DO MERCADO,48,5210-210,MIRANDA DO DOURO,-6.2705425006273785,41.498121132409175
pt.ine.add.PTCONT.865200,R DO MERCADO,48,5210-210,MIRANDA DO DOURO,-6.2705425006273785,41.498121132409175
pt.ine.add.PTCONT.865201,R 25 DE ABRIL,19,5210-178,MIRANDA DO DOURO,-6.270834785700959,41.49836895504273
pt.ine.add.PTCONT.865202,R 25 DE ABRIL,19,5210-178,MIRANDA DO DOURO,-6.270834785700959,41.49836895504273
pt.ine.add.PTCONT.865206,R DA FONTE DE BAIXO,,5210-041,DUAS IGREJAS MDR,-6.31145419827563,41.47534999145196
pt.ine.add.PTCONT.865208,URB DO GIDRO DE CIMA,23,5210-208,MIRANDA DO DOURO,-6.269607555210577,41.50357996562305
pt.ine.add.PTCONT.865211,R DO CABECICO,59,5225-012,ATENOR,-6.503573699797166,41.44608160504326
pt.ine.add.PTCONT.865395,TV DO FORTE,2,5210-236,MIRANDA DO DOURO,-6.27205117058867,41.499802162815946
pt.ine.add.PTCONT.865399,R DE TRÁS DA IGREJA,4,5210-336,VILA CHÃ DE BRACIOSA,-6.343831249016672,41.42765426558906
pt.ine.add.PTCONT.865442,R DO CRUZEIRO,,5210-080,GENÍSIO,-6.36327727070249,41.593147774958425
pt.ine.add.PTCONT.865443,R DE VILARINHO,,5210-090,GENÍSIO,-6.380409286220457,41.54725974676085
pt.ine.add.PTCONT.865444,R DA PANEIRA,,5210-109,IFANES,-6.26578450808206,41.58028823102429
pt.ine.add.PTCONT.865473,EN 218,,5210-003,MIRANDA DO DOURO,-6.285408516456938,41.50175522487913
pt.ine.add.PTCONT.865583,R DAS FACEIRAS,8,5225-011,ATENOR,-6.4775171477678954,41.42374098218551
pt.ine.add.PTCONT.865584,R DE STO AMARO,7,5210-020,CICOURO,-6.2960880081565636,41.64442861123393
pt.ine.add.PTCONT.865610,R DAS LASTRAS,,5210-041,DUAS IGREJAS MDR,-6.309339898239892,41.47475827166321
pt.ine.add.PTCONT.865611,R DO FERRADAL,,5210-053,DUAS IGREJAS MDR,-6.352265387085381,41.47444069319682
pt.ine.add.PTCONT.865612,EN 221,,5210-065,DUAS IGREJAS MDR,-6.3688692369244295,41.46915055984818
pt.ine.add.PTCONT.865613,R DA GATA,,5210-080,GENÍSIO,-6.364711222342792,41.59289975084153
pt.ine.add.PTCONT.865639,R ALF JOSÉ LUIS CABREIRO,,5210-120,IFANES,-6.26606699231045,41.582552609496815
pt.ine.add.PTCONT.865640,R DR JÚLIO MIGUEL,2,5210-130,IFANES,-6.269225796043034,41.57903863101009
pt.ine.add.PTCONT.865641,R DA IGREJA,,5210-170,MIRANDA DO DOURO,-6.235185792728654,41.5405152731292
pt.ine.add.PTCONT.865676,R DA COSTANILHA,35,5210-176,MIRANDA DO DOURO,-6.27548535975365,41.4944557367905
pt.ine.add.PTCONT.865677,R DO BOM SUCESSO,61,5210-203,MIRANDA DO DOURO,-6.267838003129002,41.50013903636539
pt.ine.add.PTCONT.865693,R DAS EIRINHAS,,5225-032,PALAÇOULO,-6.437076097904335,41.45857133728127
pt.ine.add.PTCONT.865720,R DO VALE,9,5225-041,PALAÇOULO,-6.430668111330265,41.433131980913025
pt.ine.add.PTCONT.865721,R DA LAGOA,6,5210-263,PARADELA MDR,-6.214830214939209,41.58454487184741
pt.ine.add.PTCONT.865722,R DE STO HONOFRE,7,5225-072,PICOTE,-6.370416130148357,41.40627644185107
pt.ine.add.PTCONT.865723,AV VALE DE MORAIS,10,5225-072,PICOTE,-6.371241029069078,41.40451539842877
pt.ine.add.PTCONT.865724,R LUIS DE CAMÕES,16,5225-072,PICOTE,-6.3665694533409996,41.40392154864734
pt.ine.add.PTCONT.865748,R DA ALEGRIA,,5210-283,PÓVOA,-6.314598850008832,41.572157762563826
pt.ine.add.PTCONT.865749,R DAS EIRAS,144,5210-286,PÓVOA,-6.313890173806548,41.57177741784855
pt.ine.add.PTCONT.865750,R DAS EIRAS,140,5210-286,PÓVOA,-6.312276510391582,41.57203096595249
pt.ine.add.PTCONT.865751,R DO RIBEIRO,76,5210-290,PÓVOA,-6.315724076567517,41.570509968903195
pt.ine.add.PTCONT.865767,R DAS TUMILHEIRAS,,5210-300,SÃO MARTINHO DE ANGUEIRA,-6.348468318512549,41.63960910084834
pt.ine.add.PTCONT.865768,LG DA IGREJA,12,5225-106,SENDIM,-6.425841815371266,41.387196688257646
pt.ine.add.PTCONT.865769,R CAMINHO DO PRADO,16,5225-125,SENDIM,-6.426345565759863,41.387591314529615
pt.ine.add.PTCONT.865770,R DO BAIUNCO,80,5225-100,SENDIM,-6.424099373284946,41.3857122457527
pt.ine.add.PTCONT.865782,R DA PISCINA,,5225-146,SENDIM,-6.432320674291205,41.38722963307914
pt.ine.add.PTCONT.865783,URB DE S SEBASTIÃO,,5225-151,SENDIM,-6.433882691502874,41.386928589342574
pt.ine.add.PTCONT.865784,R 1 DE DEZEMBRO,29,5225-107,SENDIM,-6.428340489095396,41.38902544374767
pt.ine.add.PTCONT.865785,R NOVA,24,5225-134,SENDIM,-6.427734285336024,41.386603515767895
pt.ine.add.PTCONT.865786,R 1 DE MAIO,35,5225-108,SENDIM,-6.424754416452964,41.38489365133023
pt.ine.add.PTCONT.865787,R DAS ESCALAVADAS,2,5225-116,SENDIM,-6.427744820112127,41.38437079859237
pt.ine.add.PTCONT.865798,R DOS DESPORTOS,6,5225-031,ÁGUAS VIVAS,-6.416794350235991,41.477456679155644
pt.ine.add.PTCONT.865799,AV DA INDÚSTRIA,24,5225-031,ÁGUAS VIVAS,-6.417580127173264,41.475352608850486
pt.ine.add.PTCONT.866087,BR DE STA LÚZIA,26,5210-199,MIRANDA DO DOURO,-6.2830918996901515,41.4935249937069
pt.ine.add.PTCONT.866106,R DA VEIGA,15,5210-150,MALHADAS,-6.324401540860543,41.54051307090083
pt.ine.add.PTCONT.866138,TV DA RACHALINA,,5225-122,SENDIM,-6.424013616825209,41.39446238612008
pt.ine.add.PTCONT.866199,R NOVA,,5210-080,GENÍSIO,-6.363941095456149,41.592554781243905
pt.ine.add.PTCONT.866201,EN 218,,5210-003,MIRANDA DO DOURO,-6.278504122903816,41.50113087590193
pt.ine.add.PTCONT.866218,EN 218,,5210-150,MALHADAS,-6.317601999325772,41.5312675998018
pt.ine.add.PTCONT.866219,R DA CANTEIRA,22,5210-194,MIRANDA DO DOURO,-6.269179574873608,41.5017993863422
pt.ine.add.PTCONT.866249,R DO MATADOURO,24,5210-214,MIRANDA DO DOURO,-6.2744006863245865,41.500560430144745
pt.ine.add.PTCONT.866310,R COR BESSA,,5225-032,PALAÇOULO,-6.445687161900122,41.45511464273962
pt.ine.add.PTCONT.866311,R DA FRAGA MOURISCA,15,5225-032,PALAÇOULO,-6.446974445458808,41.45485441680151
pt.ine.add.PTCONT.866312,R DA IGREJA,,5225-041,PALAÇOULO,-6.431258935442049,41.431123950329706
pt.ine.add.PTCONT.866313,R DA IGREJA,,5225-072,PICOTE,-6.367880304899786,41.400997540875935
pt.ine.add.PTCONT.866314,R DE STA CRUZ,,5225-072,PICOTE,-6.369059924984757,41.40026834968003
pt.ine.add.PTCONT.866348,R DA CANADA,17,5210-300,SÃO MARTINHO DE ANGUEIRA,-6.350249641841915,41.6437781821956
pt.ine.add.PTCONT.866349,BR DO CABEÇO ADROSO,,5210-300,SÃO MARTINHO DE ANGUEIRA,-6.35285872870703,41.636201997417714
pt.ine.add.PTCONT.866350,R DAS POMBAS,,5210-300,SÃO MARTINHO DE ANGUEIRA,-6.348771786640962,41.63991991918726
pt.ine.add.PTCONT.866351,R DO TOURAL,26,5210-300,SÃO MARTINHO DE ANGUEIRA,-6.350210116864853,41.63737635616855
pt.ine.add.PTCONT.866352,R DA REPÚBLICA,9,5225-115,SENDIM,-6.425076114611296,41.389958404820604
pt.ine.add.PTCONT.866387,URB DAS EIRAS,7,5225-131,SENDIM,-6.431316866502382,41.39592118685237
pt.ine.add.PTCONT.866388,TV DOS BARREAIS,,5225-150,SENDIM,-6.430862632929253,41.392709216267285
pt.ine.add.PTCONT.866389,TV 1 DE DEZEMBRO,3,5225-136,SENDIM,-6.427693916591583,41.38952005710036
pt.ine.add.PTCONT.866390,R 1 DE DEZEMBRO,,5225-107,SENDIM,-6.428244176298882,41.389051026972396
pt.ine.add.PTCONT.866391,R DAS FACEIRAS,35,5225-117,SENDIM,-6.430077221702078,41.387529573039046
pt.ine.add.PTCONT.866392,R DA FRÁGUA,21,5225-102,SENDIM,-6.4260226037498,41.38622699114731
pt.ine.add.PTCONT.866412,R DAS PEREIRAS,,5225-163,SILVA MDR,-6.446031853873806,41.50597088056581
pt.ine.add.PTCONT.866413,EN 221,,5210-321,VILA CHÃ DE BRACIOSA,-6.3945592148700365,41.43368124813325
pt.ine.add.PTCONT.866445,AV DO EMIGRANTE,4,5210-335,VILA CHÃ DE BRACIOSA,-6.344689169411363,41.426470155224315
pt.ine.add.PTCONT.866725,R DO CABO DO LUGAR,,5225-011,ATENOR,-6.4797407803764315,41.42237742475449
pt.ine.add.PTCONT.866726,R DO CURRAL NOVO,2,5210-020,CICOURO,-6.293745647613133,41.645759607969
pt.ine.add.PTCONT.866727,R DAS EIRAS,6,5210-020,CICOURO,-6.29211153935897,41.64497718102886
pt.ine.add.PTCONT.866728,R DO POMBAL,8,5210-020,CICOURO,-6.294843378431447,41.64430067018302
pt.ine.add.PTCONT.866729,R DE STO AMARO,,5210-020,CICOURO,-6.296117371836618,41.64424001607952
pt.ine.add.PTCONT.866730,R PADRE PORFÍRIO FERNANDES,5,5210-030,CONSTANTIM MDR,-6.275671369510526,41.622709089747744
pt.ine.add.PTCONT.866731,R PADRE PORFÍRIO FERNANDES,5,5210-030,CONSTANTIM MDR,-6.275671369510526,41.622709089747744
pt.ine.add.PTCONT.866732,R PRINCIPAL,,5210-064,DUAS IGREJAS MDR,-6.304869532781639,41.48771507430051
pt.ine.add.PTCONT.866733,R DA AMOREIRA,,5210-041,DUAS IGREJAS MDR,-6.311564892716574,41.47695433629337
pt.ine.add.PTCONT.866765,R NOVA,,5210-080,GENÍSIO,-6.364238882720525,41.59219023381205
pt.ine.add.PTCONT.866766,R DA PRAL,,5210-111,IFANES,-6.263203250075316,41.5824790457286
pt.ine.add.PTCONT.866767,R DE S SEBASTIÃO,,5210-119,IFANES,-6.264262639997171,41.582334219416566
pt.ine.add.PTCONT.866768,R DO CONCELHO,8,5210-150,MALHADAS,-6.325418704582707,41.542284701293426
pt.ine.add.PTCONT.866791,R DR VALENTIM GUERRA,,5210-101,IFANES,-6.42331396412023,41.391048662853876
