id,street,house,postcode,city,lon,lat
pt.ine.add.PTCONT.1119580,,,3220-537,VILA NOVA MCV,-8.34965552703043,40.05486349893077
pt.ine.add.PTCONT.1127910,,,3220-507,VILA NOVA MCV,-8.319399283574407,40.06936187204772
pt.ine.add.PTCONT.1132240,,,3220-510,VILA NOVA MCV,-8.31983384385971,40.05249275515165
pt.ine.add.PTCONT.1100061,,,3220-534,VILA NOVA MCV,-8.328540822071036,40.05640505769119
pt.ine.add.PTCONT.1100177,,,3220-503,VILA NOVA MCV,-8.319458718687144,40.043847488083074
pt.ine.add.PTCONT.1100423,R LAPA,,3220-018,LAMAS MCV,-8.375514482444126,40.07282445373088
pt.ine.add.PTCONT.1100424,R S CLEMENTE,,3220-012,LAMAS MCV,-8.382704225229386,40.09628796533512
pt.ine.add.PTCONT.1100547,,,3220-241,MIRANDA DO CORVO,-8.358247517367674,40.133568918692674
pt.ine.add.PTCONT.1100548,R RELVA,24,3220-140,MIRANDA DO CORVO,-8.36188793365439,40.116990760140716
pt.ine.add.PTCONT.1100549,R PRINCIPAL,,3220-233,MIRANDA DO CORVO,-8.367573067752081,40.112368314978546
pt.ine.add.PTCONT.1100640,R PORTO RIO,,3220-113,MIRANDA DO CORVO,-8.353422091540004,40.10355218608266
pt.ine.add.PTCONT.1100641,R VALE SALGUEIRO,,3220-243,MIRANDA DO CORVO,-8.314067769209972,40.105592675142894
pt.ine.add.PTCONT.1100642,R CABECINHO,,3220-048,MIRANDA DO CORVO,-8.326533211086282,40.10075430368314
pt.ine.add.PTCONT.1100643,R CASTANHEIRO,,3220-050,MIRANDA DO CORVO,-8.327415627150067,40.10175249635915
pt.ine.add.PTCONT.1100833,R CENTRO DO LUGAR,,3220-110,MIRANDA DO CORVO,-8.355577438527932,40.066722309365076
pt.ine.add.PTCONT.1101002,TV ALHOS,2,3220-212,MIRANDA DO CORVO,-8.333721952532471,40.09265465339847
pt.ine.add.PTCONT.1101003,R ROSA FALCÃO,75,3220-216,MIRANDA DO CORVO,-8.333039195564808,40.09175522925473
pt.ine.add.PTCONT.1101200,R S PEDRO,543,3220-115,MIRANDA DO CORVO,-8.31684770353443,40.083892740284455
pt.ine.add.PTCONT.1101281,R TABUAS CIMEIRAS,47,3220-240,MIRANDA DO CORVO,-8.302211533986522,40.06820843789086
pt.ine.add.PTCONT.1101282,ZN INDUSTRIAL,24,3220-119,MIRANDA DO CORVO,-8.323748678054487,40.08212540709263
pt.ine.add.PTCONT.1101283,R DR CLEMENTE DE CARVALHO,360,3220-232,MIRANDA DO CORVO,-8.316555070060565,40.0797053845349
pt.ine.add.PTCONT.1101352,ESTR BEIRA,,3220-422,SEMIDE,-8.313915595621975,40.17211104289341
pt.ine.add.PTCONT.1101346,R MANUEL DIAS MARCELINO,5,3220-240,MIRANDA DO CORVO,-8.302741797040735,40.06932441722422
pt.ine.add.PTCONT.1101347,R CENTRAL,33,3220-336,RIO VIDE,-8.331409369699086,40.14429006222307
pt.ine.add.PTCONT.1101348,R REGATO,,3220-302,RIO VIDE,-8.32682241368099,40.13655269094011
pt.ine.add.PTCONT.1101349,R CANTO,,3220-306,RIO VIDE,-8.320101480232362,40.13320450757899
pt.ine.add.PTCONT.1101350,,,3220-350,RIO VIDE,-8.316810506396102,40.131102374173075
pt.ine.add.PTCONT.1101351,R VARZEA,,3220-422,SEMIDE,-8.321933504879393,40.17193613778827
pt.ine.add.PTCONT.1101447,R NSA SRA DA SAÚDE,60,3220-416,SEMIDE,-8.332426272653793,40.16297566294655
pt.ine.add.PTCONT.1101448,R STO ANTONIO,240,3220-442,SEMIDE,-8.337192072880372,40.17082053114391
pt.ine.add.PTCONT.1101449,R CASARAO,,3220-409,SEMIDE,-8.346098175360275,40.173182053305034
pt.ine.add.PTCONT.1101530,R CASAL MOSTEIRO,7,3220-408,SEMIDE,-8.338335741683204,40.15685931240649
pt.ine.add.PTCONT.1101531,R S JOÃO,22,3220-412,SEMIDE,-8.324828947558652,40.15788212360611
pt.ine.add.PTCONT.1101532,R NOVA,534,3220-441,SEMIDE,-8.294033825950255,40.15465085160008
pt.ine.add.PTCONT.1101533,R PRINCIPAL,,3220-443,SEMIDE,-8.320163272129198,40.14718167664916
pt.ine.add.PTCONT.1101623,,,3220-533,VILA NOVA MCV,-8.272588601012979,40.06188958767375
pt.ine.add.PTCONT.1101652,R STO ANTONIO,179,3220-442,SEMIDE,-8.337192072880372,40.17082053114391
pt.ine.add.PTCONT.1101667,R ESTREPOEIRO,,3220-423,SEMIDE,-8.345155877964793,40.1533256985881
pt.ine.add.PTCONT.1101685,,,3220-509,VILA NOVA MCV,-8.33053837080525,40.05006137190232
pt.ine.add.PTCONT.1103100,R CIMA,,3220-404,SEMIDE,-8.348730548915778,40.17770715594009
pt.ine.add.PTCONT.1101757,ESTR MOITA,,3220-231,MIRANDA DO CORVO,-8.329747768440907,40.09301270376359
pt.ine.add.PTCONT.1101781,R SANTO ANTÓNIO,,3220-018,LAMAS MCV,-8.374583769234285,40.07152051690303
pt.ine.add.PTCONT.1101790,R SANTO ANTÓNIO,31,3220-409,SEMIDE,-8.344781356234275,40.17256305980855
pt.ine.add.PTCONT.1101961,R S PEDRO,350,3220-115,MIRANDA DO CORVO,-8.318796604629835,40.08484427499454
pt.ine.add.PTCONT.1116918,,,3220-503,VILA NOVA MCV,-8.31804085505719,40.043849759717666
pt.ine.add.PTCONT.1103140,,,3220-303,RIO VIDE,-8.298976304472465,40.145502829350235
pt.ine.add.PTCONT.1103099,,,3220-422,SEMIDE,-8.302999756242984,40.14007540271612
pt.ine.add.PTCONT.1103101,R BAIRRO NOVO,341,3220-404,SEMIDE,-8.345701267799104,40.17766772839719
pt.ine.add.PTCONT.1103102,,,3220-515,VILA NOVA MCV,-8.305651094775845,40.04694896521895
pt.ine.add.PTCONT.1103103,,,3220-515,VILA NOVA MCV,-8.305651094775845,40.04694896521895
pt.ine.add.PTCONT.1103107,R BOA PAZ,,3220-058,MIRANDA DO CORVO,-8.297268166532934,40.07937407804024
pt.ine.add.PTCONT.1103108,R PROF DR JOSE VEIGA SIMAO,,3220-446,SEMIDE,-8.348636995463986,40.15184229568303
pt.ine.add.PTCONT.1103112,,,3220-534,VILA NOVA MCV,-8.328276811026742,40.058350820425076
pt.ine.add.PTCONT.1103113,,,3220-503,VILA NOVA MCV,-8.318896749330204,40.04402851296512
pt.ine.add.PTCONT.1103115,R SEIXAL,,3220-232,MIRANDA DO CORVO,-8.309695604313887,40.07482574712659
pt.ine.add.PTCONT.1103116,R MOITA,,3220-434,SEMIDE,-8.346900403697667,40.15197159826771
pt.ine.add.PTCONT.1103117,AV ANTONIO REIS,1090,3220-518,VILA NOVA MCV,-8.321083082462511,40.05929934936847
pt.ine.add.PTCONT.1103119,R PADRE FERNANDO COIMBRA,232,3220-232,MIRANDA DO CORVO,-8.312368445161367,40.07480362994976
pt.ine.add.PTCONT.1103121,TV CATRAIA,45,3220-433,SEMIDE,-8.347767679710332,40.15158273786348
pt.ine.add.PTCONT.1103123,R JOÃO PAULO II,7,3220-205,MIRANDA DO CORVO,-8.32813052050776,40.08925090982787
pt.ine.add.PTCONT.1103124,R PRINCIPAL,233,3220-406,SEMIDE,-8.314309908683072,40.15704349769621
pt.ine.add.PTCONT.1103126,R S PEDRO,1097,3220-115,MIRANDA DO CORVO,-8.310759656834874,40.08278548501511
pt.ine.add.PTCONT.1103127,R ALEM,,3220-321,RIO VIDE,-8.331424365195907,40.13330274904235
pt.ine.add.PTCONT.1103131,R JOGO DA BOLA,,3220-036,MIRANDA DO CORVO,-8.304017786018933,40.08269656113879
pt.ine.add.PTCONT.1103132,R SENHORA DA PAZ,,3220-415,SEMIDE,-8.331140522641173,40.15273811112644
pt.ine.add.PTCONT.1103135,R SENHORA DA PAZ,,3220-415,SEMIDE,-8.331329066986298,40.15299896111779
pt.ine.add.PTCONT.1103137,R MEDURA,,3220-443,SEMIDE,-8.320295528155567,40.148334225866805
pt.ine.add.PTCONT.1103138,R CAPELA,,3220-443,SEMIDE,-8.317828689186838,40.147482620982785
pt.ine.add.PTCONT.1103145,R SENHOR DA AGONIA,8,3220-336,RIO VIDE,-8.33206811227376,40.14482929015891
pt.ine.add.PTCONT.1103146,,,3220-404,SEMIDE,-8.350259587064436,40.17855985968038
pt.ine.add.PTCONT.1103147,,,3220-509,VILA NOVA MCV,-8.331089968574162,40.05033962014407
pt.ine.add.PTCONT.1103148,R FUNDO DO LUGAR,,3220-515,VILA NOVA MCV,-8.305526979710754,40.04884944071677
pt.ine.add.PTCONT.1103218,R D AFONSO HENRIQUES,,3220-197,MIRANDA DO CORVO,-8.331479443421127,40.0916948685108
pt.ine.add.PTCONT.1103222,R PONTE DUECA CASA DA PONTE,1,3220-192,MIRANDA DO CORVO,-8.337298830963595,40.09277448810029
pt.ine.add.PTCONT.1103230,R CASA DO GAIATO,13,3220-188,MIRANDA DO CORVO,-8.329186682593848,40.095895588534916
pt.ine.add.PTCONT.1103233,R CASA DO GAIATO,45,3220-188,MIRANDA DO CORVO,-8.324888542582718,40.09638239935862
pt.ine.add.PTCONT.1103234,R CASA DO GAIATO,,3220-188,MIRANDA DO CORVO,-8.32505585667991,40.09625719133601
pt.ine.add.PTCONT.1103238,AV ARMENIO COSTA SIMÕES,,3220-186,MIRANDA DO CORVO,-8.331794246726254,40.095107619676845
pt.ine.add.PTCONT.1103241,R RELVA,45,3220-140,MIRANDA DO CORVO,-8.361701272662,40.11729733284175
pt.ine.add.PTCONT.1103253,R POÇO GRANDE,467,3220-245,MIRANDA DO CORVO,-8.356298497025431,40.15827603904441
pt.ine.add.PTCONT.1103257,R QUELHA,8,3220-139,MIRANDA DO CORVO,-8.361945891290588,40.116783507540056
pt.ine.add.PTCONT.1103258,R OLEIROS,,3220-200,MIRANDA DO CORVO,-8.331126108164854,40.099251541362854
pt.ine.add.PTCONT.1103260,BR FRANCISCO SA CARNEIRO,,3220-032,MIRANDA DO CORVO,-8.329839914169135,40.096506891645156
pt.ine.add.PTCONT.1103266,R MANUEL CORREIA LUIS,,3220-175,MIRANDA DO CORVO,-8.365197327242551,40.15878989484602
pt.ine.add.PTCONT.1103267,R FONTE,,3220-113,MIRANDA DO CORVO,-8.352841981519145,40.10915503359163
pt.ine.add.PTCONT.1103677,R JOSE NICOLAU DA SILVA,,3220-525,VILA NOVA MCV,-8.31831069879734,40.05696222816784
pt.ine.add.PTCONT.1103709,,,3220-505,VILA NOVA MCV,-8.307497258151336,40.04484777531869
pt.ine.add.PTCONT.1103818,R SANTO ANTÓNIO,106,3220-409,SEMIDE,-8.34543991717698,40.17292209071563
pt.ine.add.PTCONT.1105201,R JOGO,,3220-058,MIRANDA DO CORVO,-8.296657614484353,40.07899668671176
pt.ine.add.PTCONT.1105311,R LOMBA,,3220-065,MIRANDA DO CORVO,-8.317625320861998,40.09397828285501
pt.ine.add.PTCONT.1105191,R COUTADA,,3220-189,MIRANDA DO CORVO,-8.329784226772405,40.08938320465572
pt.ine.add.PTCONT.1105192,R DR CLEMENTE DE CARVALHO,467,3220-232,MIRANDA DO CORVO,-8.315802614219178,40.07891403970722
pt.ine.add.PTCONT.1105193,R DR CLEMENTE DE CARVALHO,,3220-232,MIRANDA DO CORVO,-8.31353590959684,40.077404572566834
pt.ine.add.PTCONT.1105194,R PADRE ANTÓNIO COSTA,31,3220-437,,-8.345801225480793,40.15327047931064
pt.ine.add.PTCONT.1105196,R CAPELA,,3220-302,RIO VIDE,-8.325817276944068,40.137959300211534
pt.ine.add.PTCONT.1105197,R BOA PAZ,,3220-058,MIRANDA DO CORVO,-8.297115430656811,40.07923920334024
pt.ine.add.PTCONT.1105198,R PADRE ANTÓNIO COSTA,163,3220-437,,-8.346772375483214,40.15231406071483
pt.ine.add.PTCONT.1105199,,,3220-514,VILA NOVA MCV,-8.31051181029071,40.041483914726705
pt.ine.add.PTCONT.1105200,R SENHORA,,3220-058,MIRANDA DO CORVO,-8.295332811723508,40.07899854947238
pt.ine.add.PTCONT.1105202,R JOSE PEREIRA CARDOSO,514,3220-433,SEMIDE,-8.349957257846954,40.153659032639304
pt.ine.add.PTCONT.1105205,R ROSSIO,17,3220-232,MIRANDA DO CORVO,-8.311361847542875,40.075417596207984
pt.ine.add.PTCONT.1105209,,,3220-518,VILA NOVA MCV,-8.317502592562326,40.05717966354512
pt.ine.add.PTCONT.1105210,,,3220-503,VILA NOVA MCV,-8.317208715846496,40.04378804199436
pt.ine.add.PTCONT.1105211,,,3220-503,VILA NOVA MCV,-8.31688512745183,40.04110473049274
pt.ine.add.PTCONT.1105216,R S PEDRO,681,3220-115,MIRANDA DO CORVO,-8.315170513135053,40.08368824896916
pt.ine.add.PTCONT.1105217,R RIBEIRO,72,3220-416,SEMIDE,-8.334798933632516,40.16348489263536
pt.ine.add.PTCONT.1105219,R FERNÃOZINHOS,,3220-416,SEMIDE,-8.332742364033846,40.16669456858582
pt.ine.add.PTCONT.1105220,R CASTANHEIRO,345,3220-423,SEMIDE,-8.327492219744165,40.15748142175587
pt.ine.add.PTCONT.1105221,AV ANTÓNIO DOS REIS,,3220-518,VILA NOVA MCV,-8.316746385951463,40.054902320377636
pt.ine.add.PTCONT.1105225,R CIMO DO LUGAR,,3220-413,SEMIDE,-8.305296806370295,40.16216362114435
pt.ine.add.PTCONT.1105227,R CARVALHINHO,204,3220-092,MIRANDA DO CORVO,-8.286983928895703,40.08878151789845
pt.ine.add.PTCONT.1105228,R CABO DA RUA,,3220-413,SEMIDE,-8.302514582750534,40.16205965385459
pt.ine.add.PTCONT.1105229,R JOAQUIM DOS SANTOS,9,3220-423,SEMIDE,-8.339408149238617,40.16216190558875
pt.ine.add.PTCONT.1105230,,,3220-517,VILA NOVA MCV,-8.32592167236557,40.05442810319022
pt.ine.add.PTCONT.1105233,R PENELA,85,3220-155,MIRANDA DO CORVO,-8.32815256272271,40.08464877889693
pt.ine.add.PTCONT.1105234,R PRIMEIRO DE MAIO,,3220-407,SEMIDE,-8.307595765325866,40.16148473410119
pt.ine.add.PTCONT.1105236,,,3220-533,VILA NOVA MCV,-8.272846922935594,40.062114428836665
pt.ine.add.PTCONT.1105239,R CARREIRA,,3220-404,SEMIDE,-8.347854243501029,40.1790596711425
pt.ine.add.PTCONT.1105240,R JOÃO PAULO II,62,3220-205,MIRANDA DO CORVO,-8.323881784213665,40.087808010515516
pt.ine.add.PTCONT.1105297,R PORTO RIO,,3220-113,MIRANDA DO CORVO,-8.353750681782504,40.103614602798466
pt.ine.add.PTCONT.1105298,R CENTRO DO LUGAR,,3220-110,MIRANDA DO CORVO,-8.355027128903812,40.066912492538194
pt.ine.add.PTCONT.1105299,R AIRES CAETANO JUNIOR,,3220-017,LAMAS MCV,-8.37664950144606,40.08210732538336
pt.ine.add.PTCONT.1105300,R EIRA,,3220-043,MIRANDA DO CORVO,-8.328894466060811,40.10214627150016
pt.ine.add.PTCONT.1105301,R PISAO,,3220-113,MIRANDA DO CORVO,-8.354681087700099,40.10481062804496
pt.ine.add.PTCONT.1105304,R NSA SRA DAS DORES,,3220-031,MIRANDA DO CORVO,-8.3128490474289,40.10153285327134
pt.ine.add.PTCONT.1105314,ESTR REAL,,3220-060,MIRANDA DO CORVO,-8.318617376364342,40.09224753756344
pt.ine.add.PTCONT.1105719,R LOMBO,,3220-012,LAMAS MCV,-8.385750900146629,40.095659943983065
pt.ine.add.PTCONT.1105761,,,3220-501,VILA NOVA MCV,-8.315351767989256,40.059317512423306
pt.ine.add.PTCONT.1105778,R LOMBA,,3220-322,RIO VIDE,-8.337829114026219,40.128851653633525
pt.ine.add.PTCONT.1107198,R FUNDO LUGAR,,3220-414,SEMIDE,-8.308156451724596,40.14213009026728
pt.ine.add.PTCONT.1178095,,,3220-535,VILA NOVA MCV,-8.341018906926713,40.04744027293829
pt.ine.add.PTCONT.1107196,R SERRADA,,3220-089,MIRANDA DO CORVO,-8.29285885358899,40.08392830553849
pt.ine.add.PTCONT.1107197,EN 17-1,,3220-415,SEMIDE,-8.332245133081532,40.14918787075673
pt.ine.add.PTCONT.1107199,R FUNDO LUGAR,,3220-414,SEMIDE,-8.306761895950274,40.142870679410414
pt.ine.add.PTCONT.1107202,R TRAS,3,3220-232,MIRANDA DO CORVO,-8.31357869119926,40.07584645550242
pt.ine.add.PTCONT.1107203,R PRINCIPAL,,3220-302,RIO VIDE,-8.366056947391174,40.18020425125331
pt.ine.add.PTCONT.1107205,R PROF DR JOSE VEIGA SIMAO,,3220-446,SEMIDE,-8.35045794570186,40.15240626696061
pt.ine.add.PTCONT.1107206,EN 17,,3220-534,VILA NOVA MCV,-8.328679422712273,40.0597911171683
pt.ine.add.PTCONT.1107209,R NSA SRA DA PIEDADE,153,3220-442,SEMIDE,-8.340601513808167,40.17629006967707
pt.ine.add.PTCONT.1107211,R QUELHA,,3220-115,MIRANDA DO CORVO,-8.31596972106164,40.08440747495308
pt.ine.add.PTCONT.1107212,R CABECO,56,3220-409,SEMIDE,-8.344384654815846,40.17335630524261
pt.ine.add.PTCONT.1107215,R 13 DE OUTUBRO,,3220-184,MIRANDA DO CORVO,-8.334365701810457,40.092248264680045
pt.ine.add.PTCONT.1107216,R QUELHA,,3220-115,MIRANDA DO CORVO,-8.316972800852469,40.08681050456932
pt.ine.add.PTCONT.1107217,R S PEDRO,,3220-115,MIRANDA DO CORVO,-8.315428961271058,40.0838769697654
pt.ine.add.PTCONT.1107218,R ESTRADA NACIONAL,,3220-318,RIO VIDE,-8.333661433705112,40.13593764861292
pt.ine.add.PTCONT.1107219,,,3220-417,SEMIDE,-8.341681227784727,40.168479996959405
pt.ine.add.PTCONT.1107222,R BOQUEIRO,,3220-115,MIRANDA DO CORVO,-8.319153751901352,40.082520138386094
pt.ine.add.PTCONT.1107223,R S JOÃO,18,3220-412,SEMIDE,-8.3255814160996,40.15833117246303
pt.ine.add.PTCONT.1107224,LG PADRE JOSE PEREIRA CARVALHO,,3220-523,VILA NOVA MCV,-8.316982064258447,40.05537927016032
pt.ine.add.PTCONT.1107225,R SENHORA DA NAZARE,,3220-320,RIO VIDE,-8.3316774899293,40.13158217250417
pt.ine.add.PTCONT.1107226,R QUINTAIS CIMA,,3220-441,SEMIDE,-8.29967999634355,40.15013088374982
pt.ine.add.PTCONT.1107227,R S MATEUS,,3220-306,RIO VIDE,-8.319243702970912,40.13205338374465
pt.ine.add.PTCONT.1107228,R PRIMEIRO DE MAIO,10,3220-407,SEMIDE,-8.307825702349636,40.15960214559223
pt.ine.add.PTCONT.1107229,R SENHORA DA GRAÇA,8,3220-423,SEMIDE,-8.338544883029128,40.16004704503009
pt.ine.add.PTCONT.1107230,R ESCOLA,,3220-517,VILA NOVA MCV,-8.328431202263916,40.05495525994145
pt.ine.add.PTCONT.1107233,R CARVALHAS,66,3220-406,SEMIDE,-8.313887694971129,40.15796740397218
pt.ine.add.PTCONT.1107234,R REI,1,3220-415,SEMIDE,-8.332389678896568,40.1544741164797
pt.ine.add.PTCONT.1107236,R CORGO,,3220-094,MIRANDA DO CORVO,-8.288759861317866,40.08598726753073
pt.ine.add.PTCONT.1107237,R SOITO,,3220-443,SEMIDE,-8.31823381463972,40.14541060262111
pt.ine.add.PTCONT.1107239,R PEREIRO,,3220-097,MIRANDA DO CORVO,-8.29177093823478,40.08500152200363
pt.ine.add.PTCONT.1107240,R IGREJA,20,3220-336,RIO VIDE,-8.329310183606761,40.144779959992455
pt.ine.add.PTCONT.1107241,R PRINCIPAL,,3220-443,SEMIDE,-8.315228876627279,40.145154194534065
pt.ine.add.PTCONT.1107293,R ROSA FALCÃO,21A,3220-216,MIRANDA DO CORVO,-8.33226469658373,40.091558430398955
pt.ine.add.PTCONT.1107300,R FLORES,,3220-018,LAMAS MCV,-8.37591308968538,40.07283262506285
pt.ine.add.PTCONT.1107315,R LAPINHAS,,3220-143,MIRANDA DO CORVO,-8.359894213089824,40.120660123861626
pt.ine.add.PTCONT.1107316,R MAJOILO,390,3220-146,MIRANDA DO CORVO,-8.359573710607552,40.11952599504678
pt.ine.add.PTCONT.1107319,R MONTOIRO,1,3220-156,MIRANDA DO CORVO,-8.328434191170127,40.084729358894734
pt.ine.add.PTCONT.1107320,R MONTOIRO,,3220-156,MIRANDA DO CORVO,-8.328434191170127,40.084729358894734
pt.ine.add.PTCONT.1107324,GANDARA DA CRUZ,,3220-157,MIRANDA DO CORVO,-8.329781319966525,40.08022404897865
pt.ine.add.PTCONT.1107329,R FONTE,,3220-018,LAMAS MCV,-8.376533564596759,40.07259716511145
pt.ine.add.PTCONT.1107330,R FERNANDO COIMBRA,69,3220-234,MIRANDA DO CORVO,-8.32522468099479,40.0983518700319
pt.ine.add.PTCONT.1107335,LAD CARVALHAL,7A,3220-180,MIRANDA DO CORVO,-8.333117645408253,40.09451994943759
pt.ine.add.PTCONT.1107774,R AMOREIRAS,21,3220-218,MIRANDA DO CORVO,-8.334185027122835,40.09460816191897
pt.ine.add.PTCONT.1107834,,,3220-013,LAMAS MCV,-8.379037672603605,40.1039059021292
pt.ine.add.PTCONT.1107866,R S CATARINA,,3220-194,MIRANDA DO CORVO,-8.323892570792783,40.09167158840867
pt.ine.add.PTCONT.1107886,R SANTO ANTÓNIO,80,3220-240,MIRANDA DO CORVO,-8.302790898440715,40.070215947575484
pt.ine.add.PTCONT.1107934,BC RAMALHÃO,703,3220-077,MIRANDA DO CORVO,-8.290397979015253,40.08450806098563
pt.ine.add.PTCONT.1107940,R STO ANTÓNIO,129,3220-198,MIRANDA DO CORVO,-8.335801742035708,40.090129339692496
pt.ine.add.PTCONT.1108001,R DR FAUSTO BRANCO,,3220-234,MIRANDA DO CORVO,-8.32652455467483,40.09863028627243
pt.ine.add.PTCONT.1109369,,,3220-502,VILA NOVA MCV,-8.31495166589063,40.05871473243968
pt.ine.add.PTCONT.1109361,R VALE DOS MOCHOS,,3220-404,SEMIDE,-8.352601373590403,40.176565137466355
pt.ine.add.PTCONT.1109362,R PROF DR FERRER CORREIA,,3220-437,,-8.34468202526517,40.15569512957359
pt.ine.add.PTCONT.1109365,LG SENHORA DA GUADALUPE,,3220-058,MIRANDA DO CORVO,-8.295989007823453,40.07885353159591
pt.ine.add.PTCONT.1109366,,,3220-350,RIO VIDE,-8.316924802285998,40.12997644437505
pt.ine.add.PTCONT.1109368,R PRINCIPAL,308,3220-102,MIRANDA DO CORVO,-8.296193629325604,40.08599505263238
pt.ine.add.PTCONT.1109373,R S PEDRO,358,3220-115,MIRANDA DO CORVO,-8.318690982649654,40.084808420018604
pt.ine.add.PTCONT.1109374,R QUELHA,8,3220-115,MIRANDA DO CORVO,-8.315992471873953,40.08414626330659
pt.ine.add.PTCONT.1109375,AV ANTÓNIO DOS REIS,,3220-518,VILA NOVA MCV,-8.321716040504201,40.059316332899066
pt.ine.add.PTCONT.1109377,R S PEDRO,654,3220-115,MIRANDA DO CORVO,-8.315475836213581,40.08386788992055
pt.ine.add.PTCONT.1109378,R NSA SRA PIEDADE,69,3220-240,MIRANDA DO CORVO,-8.302752938404725,40.069090242718886
pt.ine.add.PTCONT.1109381,R PRINCIPAL,,3220-406,SEMIDE,-8.315999816618051,40.15694177544752
pt.ine.add.PTCONT.1109383,R CATRAIA,S N,3220-315,RIO VIDE,-8.334811032513946,40.13186494877717
pt.ine.add.PTCONT.1109385,R VALE SA,19,3220-071,MIRANDA DO CORVO,-8.318369612699305,40.09168955913971
pt.ine.add.PTCONT.1109386,BC OITAO,,3220-312,RIO VIDE,-8.33249889994814,40.131616785125885
pt.ine.add.PTCONT.1109389,R CIMO DO LUGAR,,3220-413,SEMIDE,-8.305681886918746,40.161262453867174
pt.ine.add.PTCONT.1109394,R PRINCIPAL,,3220-406,SEMIDE,-8.310944728034565,40.15836358297928
pt.ine.add.PTCONT.1109395,LG CUNHA SANTOS,3,3220-423,SEMIDE,-8.336255873969156,40.16000605389221
pt.ine.add.PTCONT.1109396,,,3220-536,VILA NOVA MCV,-8.334960318059613,40.04740595539574
pt.ine.add.PTCONT.1109397,,,3220-536,VILA NOVA MCV,-8.334656751576677,40.04778474067452
pt.ine.add.PTCONT.1109399,R LADEIRA,,3220-086,MIRANDA DO CORVO,-8.288151278711187,40.08648341690149
pt.ine.add.PTCONT.1109400,ZN INDUSTRIAL,,3220-119,MIRANDA DO CORVO,-8.32581512417895,40.08316669108912
pt.ine.add.PTCONT.1109401,R VALE CAES,,3220-443,SEMIDE,-8.313808192879081,40.144886241184864
pt.ine.add.PTCONT.1109402,R PRINCIPAL,,3220-443,SEMIDE,-8.321008509470875,40.14727937379164
pt.ine.add.PTCONT.1109407,RECTA DE GODINHELA,,3220-237,MIRANDA DO CORVO,-8.32841417032099,40.0777226753782
pt.ine.add.PTCONT.1109408,,,3220-508,VILA NOVA MCV,-8.305607689945797,40.05297412013498
pt.ine.add.PTCONT.1109471,R VALE DA ESTRECADA,,3220-017,LAMAS MCV,-8.378458312728053,40.07974392119316
pt.ine.add.PTCONT.1109473,R CACHANA,,3220-041,MIRANDA DO CORVO,-8.33198335314566,40.10367203416072
pt.ine.add.PTCONT.1109479,R CASA DO GAIATO,45,3220-188,MIRANDA DO CORVO,-8.325020325638562,40.096396744764256
pt.ine.add.PTCONT.1109482,R LOMBA,179,3220-034,MIRANDA DO CORVO,-8.32016453793923,40.10055762482158
pt.ine.add.PTCONT.1109491,R ESTAÇÃO,,3220-135,MIRANDA DO CORVO,-8.357636702096851,40.11553110067421
pt.ine.add.PTCONT.1109492,R ESTAÇÃO,,3220-135,MIRANDA DO CORVO,-8.357636702096851,40.11553110067421
pt.ine.add.PTCONT.1109493,R ESTAÇÃO,,3220-135,MIRANDA DO CORVO,-8.357636702096851,40.11553110067421
pt.ine.add.PTCONT.1109494,R ESTAÇÃO,,3220-135,MIRANDA DO CORVO,-8.357636702096851,40.11553110067421
pt.ine.add.PTCONT.1109495,R CARVALHO LOPES,,3220-013,LAMAS MCV,-8.380680035315633,40.10401948167441
pt.ine.add.PTCONT.1109496,R ESTAÇÃO,,3220-135,MIRANDA DO CORVO,-8.357636702096851,40.11553110067421
pt.ine.add.PTCONT.1109497,R ESTAÇÃO,,3220-135,MIRANDA DO CORVO,-8.357636702096851,40.11553110067421
pt.ine.add.PTCONT.1109500,R NSA SRA DO LIVRAMENTO,,3220-170,MIRANDA DO CORVO,-8.368074275944473,40.15914433014192
pt.ine.add.PTCONT.1109501,R NSA SRA DO LIVRAMENTO,,3220-170,MIRANDA DO CORVO,-8.368074275944473,40.15914433014192
pt.ine.add.PTCONT.1109502,TV CAPELA,,3220-160,MIRANDA DO CORVO,-8.366991075841828,40.15817388174382
pt.ine.add.PTCONT.1109503,R PONTE,,3220-112,MIRANDA DO CORVO,-8.333163125177375,40.07400407041664
pt.ine.add.PTCONT.1109505,R CIMA,,3220-017,LAMAS MCV,-8.376315935142326,40.08391824333852
pt.ine.add.PTCONT.1109887,R PENELA,92,3220-155,MIRANDA DO CORVO,-8.328777048908107,40.08571944655754
pt.ine.add.PTCONT.1109945,TV PEREIRO,,3220-106,MIRANDA DO CORVO,-8.291714988706806,40.08615437425479
pt.ine.add.PTCONT.1109980,,,3220-514,VILA NOVA MCV,-8.312138326017203,40.04063483708829
pt.ine.add.PTCONT.1110019,R SANTO ANTÓNIO,,3220-113,MIRANDA DO CORVO,-8.351958290440116,40.107904870118
pt.ine.add.PTCONT.1110083,R DR SANTOS PEREIRA,,3220-012,LAMAS MCV,-8.38355021401052,40.093539298286565
pt.ine.add.PTCONT.1110084,R DR SANTOS PEREIRA,,3220-012,LAMAS MCV,-8.38355021401052,40.093539298286565
pt.ine.add.PTCONT.1154333,,,3220-503,VILA NOVA MCV,-8.319154151708496,40.04388400199861
pt.ine.add.PTCONT.1111214,R PROF DR FERREIRA CORREIA,15,3220-437,,-8.34569593263247,40.15337874405765
pt.ine.add.PTCONT.1111217,R TRAS,3,3220-232,MIRANDA DO CORVO,-8.313981145587782,40.077304811493796
pt.ine.add.PTCONT.1111223,R VALE,382,3220-439,SEMIDE,-8.34902851755912,40.153174446930805
pt.ine.add.PTCONT.1111226,LG TERREIRO,,3220-240,MIRANDA DO CORVO,-8.302439694514895,40.070405589168956
pt.ine.add.PTCONT.1111227,R PEDRO SANTOS,,3220-355,RIO VIDE,-8.317146581201323,40.12955281068249
pt.ine.add.PTCONT.1111232,R JOÃO PAULO II,317,3220-205,MIRANDA DO CORVO,-8.328540300329378,40.08903407398708
pt.ine.add.PTCONT.1111233,R JOÃO PAULO II,317,3220-205,MIRANDA DO CORVO,-8.328540300329378,40.08903407398708
pt.ine.add.PTCONT.1111234,R JOÃO PAULO II,317,3220-205,MIRANDA DO CORVO,-8.328540300329378,40.08903407398708
pt.ine.add.PTCONT.1111235,R JOÃO PAULO II,317,3220-205,MIRANDA DO CORVO,-8.328540300329378,40.08903407398708
pt.ine.add.PTCONT.1111236,R JOÃO PAULO II,317,3220-205,MIRANDA DO CORVO,-8.328540300329378,40.08903407398708
pt.ine.add.PTCONT.1111237,R JOÃO PAULO II,317,3220-205,MIRANDA DO CORVO,-8.328540300329378,40.08903407398708
pt.ine.add.PTCONT.1111238,R JOÃO PAULO II,317,3220-205,MIRANDA DO CORVO,-8.328540300329378,40.08903407398708
pt.ine.add.PTCONT.1111239,R JOÃO PAULO II,317,3220-205,MIRANDA DO CORVO,-8.328540300329378,40.08903407398708
pt.ine.add.PTCONT.1111240,R JOÃO PAULO II,317,3220-205,MIRANDA DO CORVO,-8.328540300329378,40.08903407398708
pt.ine.add.PTCONT.1111241,R JOÃO PAULO II,317,3220-205,MIRANDA DO CORVO,-8.328540300329378,40.08903407398708
pt.ine.add.PTCONT.1111242,R JOÃO PAULO II,317,3220-205,MIRANDA DO CORVO,-8.328540300329378,40.08903407398708
pt.ine.add.PTCONT.1111243,R JOÃO PAULO II,317,3220-205,MIRANDA DO CORVO,-8.328540300329378,40.08903407398708
pt.ine.add.PTCONT.1111244,AV 1 DEZEMBRO,42,3220-409,SEMIDE,-8.344392289498925,40.1720324211738
pt.ine.add.PTCONT.1111250,R ASSOCIAÇÃO,141,3220-231,MIRANDA DO CORVO,-8.329768188246254,40.09195896175477
pt.ine.add.PTCONT.1111251,R ASSOCIAÇÃO,141,3220-231,MIRANDA DO CORVO,-8.329768188246254,40.09195896175477
pt.ine.add.PTCONT.1111252,R ASSOCIAÇÃO,141,3220-231,MIRANDA DO CORVO,-8.329768188246254,40.09195896175477
pt.ine.add.PTCONT.1111253,R ASSOCIAÇÃO,141,3220-231,MIRANDA DO CORVO,-8.329768188246254,40.09195896175477
pt.ine.add.PTCONT.1111254,R ASSOCIAÇÃO,141,3220-231,MIRANDA DO CORVO,-8.329768188246254,40.09195896175477
pt.ine.add.PTCONT.1111255,R ASSOCIAÇÃO,141,3220-231,MIRANDA DO CORVO,-8.329768188246254,40.09195896175477
pt.ine.add.PTCONT.1111256,R ASSOCIAÇÃO,141,3220-231,MIRANDA DO CORVO,-8.329768188246254,40.09195896175477
pt.ine.add.PTCONT.1111257,R ASSOCIAÇÃO,141,3220-231,MIRANDA DO CORVO,-8.329768188246254,40.09195896175477
pt.ine.add.PTCONT.1111258,R JOÃO PAULO II,317,3220-205,MIRANDA DO CORVO,-8.328540300329378,40.08903407398708
pt.ine.add.PTCONT.1111259,AV 1 DEZEMBRO,,3220-409,SEMIDE,-8.344591280414843,40.171842933546664
pt.ine.add.PTCONT.1111261,R ASSOCIAÇÃO,141,3220-231,MIRANDA DO CORVO,-8.329768188246254,40.09195896175477
pt.ine.add.PTCONT.1111262,R ASSOCIAÇÃO,141,3220-231,MIRANDA DO CORVO,-8.329768188246254,40.09195896175477
pt.ine.add.PTCONT.1111263,R BARREIROS,43,3220-198,MIRANDA DO CORVO,-8.334259026264112,40.0918611899974
pt.ine.add.PTCONT.1111264,R CALÇADA,,3220-036,MIRANDA DO CORVO,-8.305519891102975,40.08323469902467
pt.ine.add.PTCONT.1111265,,,3220-422,SEMIDE,-8.319483874886581,40.169112246438736
pt.ine.add.PTCONT.1111266,LG REGUEIRA ZB,ZB,3220-412,SEMIDE,-8.323770611798153,40.15718140739369
pt.ine.add.PTCONT.1111267,LG PADRE JOSE PEREIRA CARVALHO,,3220-523,VILA NOVA MCV,-8.317251863362987,40.055468902718665
pt.ine.add.PTCONT.1111270,R DR FAUSTO LOBO,44,3220-202,MIRANDA DO CORVO,-8.33080816485652,40.09069634485129
pt.ine.add.PTCONT.1111271,R BOQUEIRO,,3220-115,MIRANDA DO CORVO,-8.318753357466978,40.08187234421743
pt.ine.add.PTCONT.1111272,R RIBEIRO DA LATA,B,3220-416,SEMIDE,-8.33273088886225,40.1627770075942
pt.ine.add.PTCONT.1111273,R PRINCIPAL,16,3220-412,SEMIDE,-8.324567030657038,40.15656768896542
pt.ine.add.PTCONT.1111275,R PRINCIPAL,,3220-423,SEMIDE,-8.339476451454681,40.16145932080978
pt.ine.add.PTCONT.1111276,R COVA,,3220-415,SEMIDE,-8.328845764728007,40.15060760187745
pt.ine.add.PTCONT.1111279,R PENELA,,3220-155,MIRANDA DO CORVO,-8.328140632259966,40.08457675051914
pt.ine.add.PTCONT.1111281,R NSA SRA FÁTIMA,215,3220-405,SEMIDE,-8.30104817812677,40.148120578516526
pt.ine.add.PTCONT.1111282,R CAPELA,,3220-443,SEMIDE,-8.319285559556617,40.14808368719543
pt.ine.add.PTCONT.1111285,R VERA CRUZ,5,3220-336,RIO VIDE,-8.334173306933485,40.146383685551555
pt.ine.add.PTCONT.1111286,R REI,115,3220-415,SEMIDE,-8.332802078227866,40.15502276885828
pt.ine.add.PTCONT.1111290,R LOMBA,,3220-404,SEMIDE,-8.350433231097545,40.177785025592016
pt.ine.add.PTCONT.1111352,R QUINTA DO VISO,,3220-234,MIRANDA DO CORVO,-8.32689817275839,40.09874674027509
pt.ine.add.PTCONT.1111356,R DR JOSE CARLOS PEREIRA CARVALHO,,3220-203,MIRANDA DO CORVO,-8.329201657237697,40.08659231595879
pt.ine.add.PTCONT.1111367,R OUTEIRO,,3220-148,MIRANDA DO CORVO,-8.361652994120664,40.11689215793333
pt.ine.add.PTCONT.1111379,R LAPINHAS,,3220-143,MIRANDA DO CORVO,-8.361625158803538,40.119089677525224
pt.ine.add.PTCONT.1111386,R LAPAS,,3220-142,MIRANDA DO CORVO,-8.356008946141719,40.116371803392084
pt.ine.add.PTCONT.1111387,R MONTOIRO,37,3220-156,MIRANDA DO CORVO,-8.3297478959508,40.08490725750204
pt.ine.add.PTCONT.1111388,R FERNANDO COIMBRA,23,3220-234,MIRANDA DO CORVO,-8.32574098343611,40.098459084998275
pt.ine.add.PTCONT.1111393,,,3220-031,MIRANDA DO CORVO,-8.299523457952409,40.10039098634281
pt.ine.add.PTCONT.1111395,R CENTRO DO LUGAR,,3220-112,MIRANDA DO CORVO,-8.33336479085325,40.07481426860704
pt.ine.add.PTCONT.1111398,R COMBATENTES DA GRANDE GUERRA,40,3220-199,MIRANDA DO CORVO,-8.33381697935875,40.09306876684136
pt.ine.add.PTCONT.1111772,R MOITA,,3220-518,VILA NOVA MCV,-8.317631635833338,40.05722448860745
pt.ine.add.PTCONT.1111809,R LAPAS,63,3220-142,MIRANDA DO CORVO,-8.356667081150254,40.11674878714265
pt.ine.add.PTCONT.1111817,R ESTRADA NACIONAL,,3220-318,RIO VIDE,-8.33361391670343,40.1357395993819
pt.ine.add.PTCONT.1111830,,,3220-536,VILA NOVA MCV,-8.335720206094539,40.04679221323361
pt.ine.add.PTCONT.1111855,R ASSOCIAÇÃO,141,3220-231,MIRANDA DO CORVO,-8.329768188246254,40.09195896175477
pt.ine.add.PTCONT.1111893,R JOSE BERNARDINO,,3220-015,LAMAS MCV,-8.391269773953432,40.08206666003995
pt.ine.add.PTCONT.1111982,ESTR FONTAÍNHAS,,3220-015,LAMAS MCV,-8.391823441722396,40.07656272250867
pt.ine.add.PTCONT.1111990,R ASSOCIAÇÃO,141,3220-231,MIRANDA DO CORVO,-8.329768188246254,40.09195896175477
pt.ine.add.PTCONT.1112059,R DR JOSÉ CARLOS PEREIRA CARVALHO,107,3220-203,MIRANDA DO CORVO,-8.329552300073267,40.08620446149171
pt.ine.add.PTCONT.1112060,R DR JOSÉ CARLOS PEREIRA CARVALHO,107,3220-203,MIRANDA DO CORVO,-8.329552300073267,40.08620446149171
pt.ine.add.PTCONT.1112061,R DR JOSÉ CARLOS PEREIRA CARVALHO,107,3220-203,MIRANDA DO CORVO,-8.329552300073267,40.08620446149171
pt.ine.add.PTCONT.1112062,R DR JOSÉ CARLOS PEREIRA CARVALHO,107,3220-203,MIRANDA DO CORVO,-8.329552300073267,40.08620446149171
pt.ine.add.PTCONT.1112063,R DR JOSÉ CARLOS PEREIRA CARVALHO,107,3220-203,MIRANDA DO CORVO,-8.329552300073267,40.08620446149171
pt.ine.add.PTCONT.1112064,R DR JOSÉ CARLOS PEREIRA CARVALHO,107,3220-203,MIRANDA DO CORVO,-8.329552300073267,40.08620446149171
pt.ine.add.PTCONT.1112065,R DR JOSÉ CARLOS PEREIRA CARVALHO,107,3220-203,MIRANDA DO CORVO,-8.329552300073267,40.08620446149171
pt.ine.add.PTCONT.1112066,R DR JOSÉ CARLOS PEREIRA CARVALHO,107,3220-203,MIRANDA DO CORVO,-8.329552300073267,40.08620446149171
pt.ine.add.PTCONT.1112067,R DR JOSÉ CARLOS PEREIRA CARVALHO,107,3220-203,MIRANDA DO CORVO,-8.329552300073267,40.08620446149171
pt.ine.add.PTCONT.1112068,R DR JOSÉ CARLOS PEREIRA CARVALHO,107,3220-203,MIRANDA DO CORVO,-8.329552300073267,40.08620446149171
pt.ine.add.PTCONT.1112069,R DR JOSÉ CARLOS PEREIRA CARVALHO,107,3220-203,MIRANDA DO CORVO,-8.329552300073267,40.08620446149171
pt.ine.add.PTCONT.1112070,R DR JOSÉ CARLOS PEREIRA CARVALHO,107,3220-203,MIRANDA DO CORVO,-8.329552300073267,40.08620446149171
pt.ine.add.PTCONT.1112071,R DR JOSÉ CARLOS PEREIRA CARVALHO,107,3220-203,MIRANDA DO CORVO,-8.329552300073267,40.08620446149171
pt.ine.add.PTCONT.1112072,R DR JOSÉ CARLOS PEREIRA CARVALHO,107,3220-203,MIRANDA DO CORVO,-8.329552300073267,40.08620446149171
pt.ine.add.PTCONT.1112073,R DR JOSÉ CARLOS PEREIRA CARVALHO,107,3220-203,MIRANDA DO CORVO,-8.329552300073267,40.08620446149171
pt.ine.add.PTCONT.1112074,R DR JOSÉ CARLOS PEREIRA CARVALHO,107,3220-203,MIRANDA DO CORVO,-8.329552300073267,40.08620446149171
pt.ine.add.PTCONT.1112075,R DR JOSÉ CARLOS PEREIRA CARVALHO,107,3220-203,MIRANDA DO CORVO,-8.329552300073267,40.08620446149171
pt.ine.add.PTCONT.1112076,R DR JOSÉ CARLOS PEREIRA CARVALHO,107,3220-203,MIRANDA DO CORVO,-8.329552300073267,40.08620446149171
pt.ine.add.PTCONT.1112097,R ASSOCIAÇÃO,141,3220-231,MIRANDA DO CORVO,-8.329768188246254,40.09195896175477
pt.ine.add.PTCONT.1112729,R DR JOSE CARLOS PEREIRA CARVALHO,,3220-203,MIRANDA DO CORVO,-8.32854334626362,40.08599902881139
pt.ine.add.PTCONT.1112730,R MONTOIRO,6,3220-156,MIRANDA DO CORVO,-8.328328075587581,40.0845223984373
pt.ine.add.PTCONT.1112731,R CUMEADA,9,3220-232,MIRANDA DO CORVO,-8.314803139153279,40.07780786512652
pt.ine.add.PTCONT.1112732,R MANUEL DIAS MARCELINO,17,3220-240,MIRANDA DO CORVO,-8.303939356935947,40.070079168550485
pt.ine.add.PTCONT.1112805,R FUNDO CABECO,43,3220-324,RIO VIDE,-8.332213776218788,40.134427142148056
pt.ine.add.PTCONT.1112806,,,3220-350,RIO VIDE,-8.315778690368601,40.13135617390455
pt.ine.add.PTCONT.1112807,R FONTE,57,3220-416,SEMIDE,-8.33339127668513,40.16381154970981
pt.ine.add.PTCONT.1112808,R CABO DA RUA,,3220-413,SEMIDE,-8.30170638528869,40.16276329672459
pt.ine.add.PTCONT.1112891,R PRINCIPAL,,3220-406,SEMIDE,-8.313794182775851,40.15731448198634
pt.ine.add.PTCONT.1112892,,,3220-411,SEMIDE,-8.353323182103068,40.16377535710434
pt.ine.add.PTCONT.1112893,CSL MOSTEIRO,2,3220-408,SEMIDE,-8.338123360384474,40.15649044489083
pt.ine.add.PTCONT.1112969,R PRINCIPAL,,3220-443,SEMIDE,-8.314887401551264,40.14472244473888
pt.ine.add.PTCONT.1112970,R FUNDO LUGAR,,3220-414,SEMIDE,-8.303377461491147,40.1456585490395
pt.ine.add.PTCONT.1112971,,,3220-518,VILA NOVA MCV,-8.317027975286122,40.055018953094034
pt.ine.add.PTCONT.1112972,,,3220-537,VILA NOVA MCV,-8.349222636083093,40.05509846585432
pt.ine.add.PTCONT.1113046,,,3220-513,VILA NOVA MCV,-8.314068234089165,40.03932595049967
pt.ine.add.PTCONT.1113680,R VINHA,,3220-066,MIRANDA DO CORVO,-8.319171474147524,40.09333638045057
pt.ine.add.PTCONT.1113506,R ALTO DAS EIRAS,,3220-013,LAMAS MCV,-8.379753056102492,40.10389537497848
pt.ine.add.PTCONT.1113507,R COIMBRA,,3220-018,LAMAS MCV,-8.376310158506323,40.06911228349301
pt.ine.add.PTCONT.1113508,R FONTE,,3220-018,LAMAS MCV,-8.376730829986093,40.07202936790002
pt.ine.add.PTCONT.1113509,R NOVA,,3220-176,MIRANDA DO CORVO,-8.366215355470244,40.1578692440372
pt.ine.add.PTCONT.1113595,QTA VISO,43,3220-234,MIRANDA DO CORVO,-8.326579485066546,40.09895644089763
pt.ine.add.PTCONT.1113596,R VALE SEIXO,,3220-150,MIRANDA DO CORVO,-8.355031116175025,40.115076816138576
pt.ine.add.PTCONT.1113597,R VALE SEIXO,,3220-150,MIRANDA DO CORVO,-8.356923406990154,40.11621693776099
pt.ine.add.PTCONT.1113678,R VALE SALGUEIRO,,3220-243,MIRANDA DO CORVO,-8.314055754404679,40.10548462159238
pt.ine.add.PTCONT.1113679,R BAIRRO NOVO,56,3220-031,MIRANDA DO CORVO,-8.304742861695033,40.105300663319525
pt.ine.add.PTCONT.1113681,LAD CARVALHAL,,3220-180,MIRANDA DO CORVO,-8.333293385439957,40.09446560960516
pt.ine.add.PTCONT.1113767,AV PADRE AMÉRICO,,3220-179,MIRANDA DO CORVO,-8.330644461221908,40.0949114532301
pt.ine.add.PTCONT.1113768,AV PADRE AMÉRICO,,3220-179,MIRANDA DO CORVO,-8.330644461221908,40.0949114532301
pt.ine.add.PTCONT.1113769,AV PADRE AMÉRICO,,3220-179,MIRANDA DO CORVO,-8.330644461221908,40.0949114532301
pt.ine.add.PTCONT.1113770,AV PADRE AMÉRICO,,3220-179,MIRANDA DO CORVO,-8.330644461221908,40.0949114532301
pt.ine.add.PTCONT.1113839,R COUTADA,,3220-189,MIRANDA DO CORVO,-8.329971474389835,40.08925680187874
pt.ine.add.PTCONT.1113840,R S CATARINA,39,3220-194,MIRANDA DO CORVO,-8.3220396267056,40.09159357097018
pt.ine.add.PTCONT.1113905,R EIRAS,115,3220-036,MIRANDA DO CORVO,-8.30809414687549,40.081213480859034
pt.ine.add.PTCONT.1113906,R PRINCIPAL,,3220-102,MIRANDA DO CORVO,-8.292934720004316,40.086287788683705
pt.ine.add.PTCONT.1113907,R CARREIRA,,3220-093,MIRANDA DO CORVO,-8.28905383190074,40.086356120575026
pt.ine.add.PTCONT.1113908,CC POÇO,,3220-078,MIRANDA DO CORVO,-8.29032723619844,40.08433704184895
pt.ine.add.PTCONT.1113909,R SERRADA,,3220-089,MIRANDA DO CORVO,-8.291475727647153,40.084101319837394
pt.ine.add.PTCONT.1113958,R NSA SRA DA CONCEIÇÃO,,3220-193,MIRANDA DO CORVO,-8.334004600280458,40.09306844159918
pt.ine.add.PTCONT.1113990,R PINHEIRO MANSO,,3220-070,MIRANDA DO CORVO,-8.314616954998211,40.091578421454194
pt.ine.add.PTCONT.1114030,ESTR REAL,99,3220-060,MIRANDA DO CORVO,-8.318604183228642,40.09170719584289
pt.ine.add.PTCONT.1114040,R CAPELA,33,3220-406,SEMIDE,-8.31663479455856,40.15737305618575
pt.ine.add.PTCONT.1114114,R DA COUTADA,,3220-245,MIRANDA DO CORVO,-8.331686954436579,40.08643497928489
pt.ine.add.PTCONT.1114140,R JOSE BERNARDINO,,3220-015,LAMAS MCV,-8.392136524275216,40.08183957382487
pt.ine.add.PTCONT.1114142,AV PADRE AMÉRICO,,3220-179,MIRANDA DO CORVO,-8.330644461221908,40.0949114532301
pt.ine.add.PTCONT.1114218,R PINHAL,,3220-302,RIO VIDE,-8.327350536502038,40.136587830231456
pt.ine.add.PTCONT.1114241,R FONTAÍNHAS,,3220-192,MIRANDA DO CORVO,-8.335273333108105,40.09384075401925
pt.ine.add.PTCONT.1114242,R FONTAÍNHAS,,3220-192,MIRANDA DO CORVO,-8.33528487300052,40.09377769157679
pt.ine.add.PTCONT.1114245,,,3220-534,VILA NOVA MCV,-8.329115696728639,40.0566112269183
pt.ine.add.PTCONT.1115423,,,3220-336,RIO VIDE,-8.299774136758925,40.14062945436166
pt.ine.add.PTCONT.1115424,R RAINHA SANTA,,3220-404,SEMIDE,-8.35212130969312,40.176971312619955
pt.ine.add.PTCONT.1115425,R PADRE ANTÓNIO COSTA,67,3220-437,,-8.346082342355603,40.153089843621096
pt.ine.add.PTCONT.1115426,R SERRADINHO,6,3220-414,SEMIDE,-8.31070134576465,40.141531821371295
pt.ine.add.PTCONT.1115428,R MOURA,,3220-445,SEMIDE,-8.365822245066317,40.180240746870325
pt.ine.add.PTCONT.1115429,R PROF DR JOSE VEIGA SIMAO,205,3220-446,SEMIDE,-8.349341379272204,40.15190402414263
pt.ine.add.PTCONT.1115430,,,3220-514,VILA NOVA MCV,-8.310101069679163,40.04124137742624
pt.ine.add.PTCONT.1115435,BC LUZ,,3220-240,MIRANDA DO CORVO,-8.302424694068058,40.06908171682224
pt.ine.add.PTCONT.1115436,R POEIROS,,3220-442,SEMIDE,-8.339362477997186,40.17422092294375
pt.ine.add.PTCONT.1115437,R S PEDRO,282,3220-115,MIRANDA DO CORVO,-8.31952448228179,40.085185336170255
pt.ine.add.PTCONT.1115438,R MOITA,,3220-434,SEMIDE,-8.348000930856845,40.15111399571988
pt.ine.add.PTCONT.1115439,,,3220-513,VILA NOVA MCV,-8.313916411184707,40.03951531622788
pt.ine.add.PTCONT.1115440,,,3220-513,VILA NOVA MCV,-8.313751610693867,40.0392273771102
pt.ine.add.PTCONT.1115441,R CAMPO DD FUTEBOL,,3220-513,VILA NOVA MCV,-8.314310669942973,40.03795663973077
pt.ine.add.PTCONT.1115444,R S PEDRO,,3220-115,MIRANDA DO CORVO,-8.312389134200213,40.08269291404447
pt.ine.add.PTCONT.1115445,R DR FAUSTO LOBO,,3220-202,MIRANDA DO CORVO,-8.330163266161282,40.09070644975193
pt.ine.add.PTCONT.1115446,R NSA SRA SAUDE,194,3220-416,SEMIDE,-8.332382215809492,40.163966391607985
pt.ine.add.PTCONT.1115447,ESTR BEIRA,,3220-420,SEMIDE,-8.321107642356766,40.17897110301684
pt.ine.add.PTCONT.1115448,,,3220-304,RIO VIDE,-8.335053106903509,40.130405557345576
pt.ine.add.PTCONT.1115449,R JOAQUIM DOS SANTOS,2,3220-423,SEMIDE,-8.339453166181208,40.16152240386881
pt.ine.add.PTCONT.1115450,R ALEM,,3220-090,MIRANDA DO CORVO,-8.288488893573275,40.08542024954388
pt.ine.add.PTCONT.1115451,R LOMBA,,3220-322,RIO VIDE,-8.3359979678225,40.12855767846126
pt.ine.add.PTCONT.1115452,R FIGUEIRINHAS,,3220-423,SEMIDE,-8.29128595140313,40.159094570496464
pt.ine.add.PTCONT.1115456,R CAPELA,236,3220-153,MIRANDA DO CORVO,-8.327594856581358,40.08231714705909
pt.ine.add.PTCONT.1115457,,,3220-533,VILA NOVA MCV,-8.273339428024707,40.0622219069365
pt.ine.add.PTCONT.1115460,R PRINCIPAL,7,3220-102,MIRANDA DO CORVO,-8.291855167505497,40.08592903076786
pt.ine.add.PTCONT.1115526,R AIRES CAETANO JÚNIOR,,3220-017,LAMAS MCV,-8.376518480569173,40.08153121308544
pt.ine.add.PTCONT.1115527,R LAPA,,3220-018,LAMAS MCV,-8.375797076358914,40.07317509885823
pt.ine.add.PTCONT.1115528,RIBEIRA VICENTES,8,3220-188,MIRANDA DO CORVO,-8.328304076062757,40.09664458051882
pt.ine.add.PTCONT.1115531,R QUELHAS,107,3220-045,MIRANDA DO CORVO,-8.327429558401336,40.10252699164095
pt.ine.add.PTCONT.1115533,,,3220-013,LAMAS MCV,-8.378802494415142,40.10373528679152
pt.ine.add.PTCONT.1115534,R S SILVESTRE,,3220-234,MIRANDA DO CORVO,-8.328088333123745,40.099121604163955
pt.ine.add.PTCONT.1115535,R S SILVESTRE,,3220-234,MIRANDA DO CORVO,-8.328088333123745,40.099121604163955
pt.ine.add.PTCONT.1115536,R S SILVESTRE,,3220-234,MIRANDA DO CORVO,-8.328088333123745,40.099121604163955
pt.ine.add.PTCONT.1115537,R SALAO,,3220-034,MIRANDA DO CORVO,-8.322303555144144,40.097978424521045
pt.ine.add.PTCONT.1115538,AV PADRE AMÉRICO,,3220-179,MIRANDA DO CORVO,-8.326542221917535,40.09600695357835
pt.ine.add.PTCONT.1115541,R D AFONSO HENRIQUES,,3220-197,MIRANDA DO CORVO,-8.332799238436003,40.093908087882305
pt.ine.add.PTCONT.1115542,R D AFONSO HENRIQUES,,3220-197,MIRANDA DO CORVO,-8.332799238436003,40.093908087882305
pt.ine.add.PTCONT.1115543,R D AFONSO HENRIQUES,67,3220-197,MIRANDA DO CORVO,-8.332799238436003,40.093908087882305
pt.ine.add.PTCONT.1115544,R D AFONSO HENRIQUES,,3220-197,MIRANDA DO CORVO,-8.332799238436003,40.093908087882305
pt.ine.add.PTCONT.1115545,R D AFONSO HENRIQUES,,3220-197,MIRANDA DO CORVO,-8.332799238436003,40.093908087882305
pt.ine.add.PTCONT.1115546,R D AFONSO HENRIQUES,67,3220-197,MIRANDA DO CORVO,-8.332799238436003,40.093908087882305
pt.ine.add.PTCONT.1115549,R CIMA,,3220-034,MIRANDA DO CORVO,-8.322478438952379,40.09760889118195
pt.ine.add.PTCONT.1115553,R PENELA,70,3220-155,MIRANDA DO CORVO,-8.328552624657723,40.08514343778507
pt.ine.add.PTCONT.1115559,R VALE SEIXO,,3220-150,MIRANDA DO CORVO,-8.353716009527474,40.1146650521437
pt.ine.add.PTCONT.1115564,,,3220-068,MIRANDA DO CORVO,-8.304972863595216,40.108146226376604
pt.ine.add.PTCONT.1115567,R BELA VISTA,4,3220-033,MIRANDA DO CORVO,-8.359726144796491,40.112437970104374
pt.ine.add.PTCONT.1115568,R CHEIRA,,3220-112,MIRANDA DO CORVO,-8.334284339649255,40.07655985327308
pt.ine.add.PTCONT.1115993,R CARRIL,94,3220-091,MIRANDA DO CORVO,-8.298809465942972,40.08645965544483
pt.ine.add.PTCONT.1115994,R PADRE FERNANDO COIMBRA,107,3220-232,MIRANDA DO CORVO,-8.312298861350996,40.07509193198595
pt.ine.add.PTCONT.1116031,RECTA GODINHELA,,3220-237,MIRANDA DO CORVO,-8.328822403748536,40.0728947315509
pt.ine.add.PTCONT.1116052,CARDEAL,,3220-503,VILA NOVA MCV,-8.318931096192284,40.043731255849394
pt.ine.add.PTCONT.1116056,,,3220-057,MIRANDA DO CORVO,-8.362405194863245,40.14176520175054
pt.ine.add.PTCONT.1116057,R D AFONSO HENRIQUES,,3220-197,MIRANDA DO CORVO,-8.332799238436003,40.093908087882305
pt.ine.add.PTCONT.1116157,,,3220-505,VILA NOVA MCV,-8.307003406384933,40.04418206447912
pt.ine.add.PTCONT.1116270,,,3220-503,VILA NOVA MCV,-8.322686423818459,40.04575154966798
pt.ine.add.PTCONT.1116313,TV RUA DO BOQUEIRO,62,3220-115,MIRANDA DO CORVO,-8.318962657997416,40.08123257809311
pt.ine.add.PTCONT.1116429,R SENHORA DA NAZARE,,3220-320,RIO VIDE,-8.33174694363038,40.13125783794318
pt.ine.add.PTCONT.1116430,,,3220-336,RIO VIDE,-8.300088036157222,40.13943120761021
pt.ine.add.PTCONT.1116547,R S MATEUS,,3220-350,RIO VIDE,-8.317361245229318,40.13084032564359
pt.ine.add.PTCONT.1116548,R FERNÃOZINHOS,,3220-416,SEMIDE,-8.332752308927839,40.166082148182326
pt.ine.add.PTCONT.1116549,R FERNÃOZINHOS,63,3220-416,SEMIDE,-8.33275178126956,40.16590203047496
pt.ine.add.PTCONT.1116550,R CAPELA,,3220-406,SEMIDE,-8.315479347995288,40.15982449850822
pt.ine.add.PTCONT.1116551,R COMARO,,3220-404,SEMIDE,-8.35147565646542,40.17699954990494
pt.ine.add.PTCONT.1116672,R PEDRIGUEIRA,,3220-404,SEMIDE,-8.351427221590457,40.17654033972212
pt.ine.add.PTCONT.1116673,R PEDRIGUEIRA,,3220-404,SEMIDE,-8.351427221590457,40.17654033972212
pt.ine.add.PTCONT.1116674,R ESCOLA,9,3220-442,SEMIDE,-8.342268487498636,40.17622402882338
pt.ine.add.PTCONT.1116675,QTA BIZORREIRA,,3220-415,SEMIDE,-8.333587553945708,40.154715209355054
pt.ine.add.PTCONT.1116676,R CANTO,15,3220-415,SEMIDE,-8.331469015467446,40.1526925191164
pt.ine.add.PTCONT.1116790,R ESTREPOEIRO,,3220-423,SEMIDE,-8.344474258449532,40.15303875439716
pt.ine.add.PTCONT.1116915,R COMBATENTES DA GRANDE GUERRA,,3220-524,VILA NOVA MCV,-8.31816852249718,40.05639507089051
pt.ine.add.PTCONT.1116916,R ISIDORO SILVA,,3220-524,VILA NOVA MCV,-8.317639857972184,40.05592759672296
pt.ine.add.PTCONT.1116917,,,3220-505,VILA NOVA MCV,-8.30706181300116,40.044109927825154
pt.ine.add.PTCONT.1117607,,,3220-017,LAMAS MCV,-8.382425193763153,40.084094383117645
pt.ine.add.PTCONT.1117608,R LOMBO,,3220-012,LAMAS MCV,-8.385725981511756,40.09526373278646
pt.ine.add.PTCONT.1117609,R LOMBO,,3220-012,LAMAS MCV,-8.385725981511756,40.09526373278646
pt.ine.add.PTCONT.1117610,LG ROSSIO,,3220-017,LAMAS MCV,-8.38227504162068,40.08150096228279
pt.ine.add.PTCONT.1117611,R POÇO,,3220-173,MIRANDA DO CORVO,-8.36605971052712,40.16040923183423
pt.ine.add.PTCONT.1117713,QTA VISO,49,3220-234,MIRANDA DO CORVO,-8.32664620060107,40.09924110119318
pt.ine.add.PTCONT.1117714,R DR FAUSTO BRANCO,,3220-234,MIRANDA DO CORVO,-8.327939755014764,40.09810759346309
pt.ine.add.PTCONT.1117715,,,3220-241,MIRANDA DO CORVO,-8.358516173041638,40.12965079398638
pt.ine.add.PTCONT.1117815,R PORTO RIO,,3220-113,MIRANDA DO CORVO,-8.353747627023385,40.10266897581393
pt.ine.add.PTCONT.1117816,R BAIRRO NOVO,39,3220-031,MIRANDA DO CORVO,-8.305477752197078,40.10371451090656
pt.ine.add.PTCONT.1117817,R LOMBA,,3220-065,MIRANDA DO CORVO,-8.317659892126512,40.09375307666519
pt.ine.add.PTCONT.1117818,AV ARMENIO COSTA SIMÕES,,3220-186,MIRANDA DO CORVO,-8.33159510283526,40.09518000941918
pt.ine.add.PTCONT.1117819,R MONTOIRO,17,3220-156,MIRANDA DO CORVO,-8.328703760325475,40.08469287981706
pt.ine.add.PTCONT.1117932,R FONTAINHAS,,3220-192,MIRANDA DO CORVO,-8.336582933732624,40.09651325512605
pt.ine.add.PTCONT.1118069,R S PEDRO,,3220-115,MIRANDA DO CORVO,-8.316953783408838,40.08409971136205
pt.ine.add.PTCONT.1118070,R CARVALHINHO,137,3220-092,MIRANDA DO CORVO,-8.287111550687033,40.088177942585425
pt.ine.add.PTCONT.1118071,R CARRERA,,3220-082,MIRANDA DO CORVO,-8.28925350983704,40.08650895458967
pt.ine.add.PTCONT.1118141,LG PADRE JOSE PEREIRA CARVALHO,,3220-523,VILA NOVA MCV,-8.316934918654201,40.05528027781934
pt.ine.add.PTCONT.1118150,R DR SANTOS PEREIRA,,3220-012,LAMAS MCV,-8.383271927421225,40.09760162149659
pt.ine.add.PTCONT.1118213,R ESTRADA REAL,,3220-060,MIRANDA DO CORVO,-8.323297318230221,40.088457407402785
pt.ine.add.PTCONT.1118349,R SANTO ANTÓNIO,,3220-113,MIRANDA DO CORVO,-8.352099065414237,40.10791361006091
pt.ine.add.PTCONT.1118375,R SR AGONIA,28,3220-336,RIO VIDE,-8.332925705635507,40.14514302225768
pt.ine.add.PTCONT.1118390,,,3220-524,VILA NOVA MCV,-8.318731841431777,40.05667335893923
pt.ine.add.PTCONT.1119582,,,3220-536,VILA NOVA MCV,-8.335298131787555,40.04672090159248
pt.ine.add.PTCONT.1119579,R SENHORA DA NAZARE,,3220-320,RIO VIDE,-8.331630820256322,40.13167231236047
pt.ine.add.PTCONT.1119547,,,3220-505,VILA NOVA MCV,-8.308109821138158,40.046107708676324
pt.ine.add.PTCONT.1119550,R MOURA,,3220-445,SEMIDE,-8.366079998694223,40.18007812219427
pt.ine.add.PTCONT.1119553,PCT LUIS DE CAMÕES,10,3220-208,MIRANDA DO CORVO,-8.332314331419624,40.09249497385099
pt.ine.add.PTCONT.1119554,PCT LUIS DE CAMÕES,10,3220-208,MIRANDA DO CORVO,-8.332314331419624,40.09249497385099
pt.ine.add.PTCONT.1119555,PCT LUIS DE CAMÕES,10,3220-208,MIRANDA DO CORVO,-8.332314331419624,40.09249497385099
pt.ine.add.PTCONT.1119556,PCT LUIS DE CAMÕES,10,3220-208,MIRANDA DO CORVO,-8.332314331419624,40.09249497385099
pt.ine.add.PTCONT.1119557,PCT LUIS DE CAMÕES,10,3220-208,MIRANDA DO CORVO,-8.332314331419624,40.09249497385099
pt.ine.add.PTCONT.1119558,PCT LUIS DE CAMÕES,10,3220-208,MIRANDA DO CORVO,-8.332314331419624,40.09249497385099
pt.ine.add.PTCONT.1119559,PCT LUIS DE CAMÕES,10,3220-208,MIRANDA DO CORVO,-8.332314331419624,40.09249497385099
pt.ine.add.PTCONT.1119560,R JOGO,,3220-058,MIRANDA DO CORVO,-8.297348979407769,40.07885161147738
pt.ine.add.PTCONT.1119561,R 25 ABRIL,,3220-058,MIRANDA DO CORVO,-8.297137322661769,40.07859073533337
pt.ine.add.PTCONT.1119562,,,3220-511,VILA NOVA MCV,-8.324407439031319,40.045190341651
pt.ine.add.PTCONT.1119563,R PADRE FERNANDO COIMBRA,45,3220-232,MIRANDA DO CORVO,-8.31173718121795,40.07548906667133
pt.ine.add.PTCONT.1119566,R FONTINHA,14,3220-240,MIRANDA DO CORVO,-8.302813538634135,40.06989169542674
pt.ine.add.PTCONT.1119567,R ROSSIO,,3220-232,MIRANDA DO CORVO,-8.311709570438623,40.07389503396743
pt.ine.add.PTCONT.1119571,R QUELHA,,3220-115,MIRANDA DO CORVO,-8.315735465030205,40.08449790509351
pt.ine.add.PTCONT.1119572,R NSA SRA CARMO,,3220-409,SEMIDE,-8.3461327197887,40.17296584770759
pt.ine.add.PTCONT.1119573,R MOITA,,3220-434,SEMIDE,-8.347870441925423,40.15067294611211
pt.ine.add.PTCONT.1119574,,,3220-518,VILA NOVA MCV,-8.316980902476347,40.05494697896585
pt.ine.add.PTCONT.1119577,COVA,,3220-190,MIRANDA DO CORVO,-8.337496318441183,40.09215272270761
pt.ine.add.PTCONT.1119586,R CASAL MOSTEIRO,,3220-408,SEMIDE,-8.33806372670347,40.15617534236965
pt.ine.add.PTCONT.1119590,R FIEIS DE DEUS,,3220-415,SEMIDE,-8.333004035877185,40.15585096754344
pt.ine.add.PTCONT.1119591,R AZENHA,,3220-522,VILA NOVA MCV,-8.315829549642036,40.053895086005575
pt.ine.add.PTCONT.1119592,R PRINCIPAL,213,3220-102,MIRANDA DO CORVO,-8.297412760118164,40.08587625111662
pt.ine.add.PTCONT.1119593,R FONTANHEIRA,12,3220-404,SEMIDE,-8.3477841091858,40.17915886620615
pt.ine.add.PTCONT.1119594,R CAPELA,19,3220-415,SEMIDE,-8.331010662345468,40.152477160535156
pt.ine.add.PTCONT.1119595,,,3220-509,VILA NOVA MCV,-8.330480243688838,40.050223580941804
pt.ine.add.PTCONT.1119667,R FONTE NOVA,,3220-166,MIRANDA DO CORVO,-8.365133826675462,40.157376089541074
pt.ine.add.PTCONT.1119668,PCT LUIS DE CAMÕES,10,3220-208,MIRANDA DO CORVO,-8.332314331419624,40.09249497385099
pt.ine.add.PTCONT.1119670,R VALE SALGUEIRO,,3220-243,MIRANDA DO CORVO,-8.315041112331995,40.10554612024795
pt.ine.add.PTCONT.1119671,LG TERREIRO,,3220-018,LAMAS MCV,-8.376135918972428,40.072859176043615
pt.ine.add.PTCONT.1119672,URB QUINTA DA COVA DA PONTE,2,3220-190,MIRANDA DO CORVO,-8.337453049949884,40.093368615053315
pt.ine.add.PTCONT.1119682,R RELVA,67,3220-140,MIRANDA DO CORVO,-8.361654893583061,40.11745953243748
pt.ine.add.PTCONT.1119683,R SALAO,,3220-034,MIRANDA DO CORVO,-8.322033531619134,40.097870792794346
pt.ine.add.PTCONT.1119695,R FERNANDO COIMBRA,58,3220-234,MIRANDA DO CORVO,-8.326144010461421,40.09998043405237
pt.ine.add.PTCONT.1119697,R NSA SRA DA CONCEIÇÃO,92,3220-144,MIRANDA DO CORVO,-8.358696313636944,40.11670882845698
pt.ine.add.PTCONT.1119698,PC LIBERDADE,251,3220-183,MIRANDA DO CORVO,-8.32846519840665,40.09147484001797
pt.ine.add.PTCONT.1119699,PC LIBERDADE,251,3220-183,MIRANDA DO CORVO,-8.32846519840665,40.09147484001797
pt.ine.add.PTCONT.1119700,PC LIBERDADE,251,3220-183,MIRANDA DO CORVO,-8.32846519840665,40.09147484001797
pt.ine.add.PTCONT.1119701,PC LIBERDADE,251,3220-183,MIRANDA DO CORVO,-8.32846519840665,40.09147484001797
pt.ine.add.PTCONT.1119702,PC LIBERDADE,251,3220-183,MIRANDA DO CORVO,-8.32846519840665,40.09147484001797
pt.ine.add.PTCONT.1119703,PC LIBERDADE,251,3220-183,MIRANDA DO CORVO,-8.32846519840665,40.09147484001797
pt.ine.add.PTCONT.1119704,PC LIBERDADE,251,3220-183,MIRANDA DO CORVO,-8.32846519840665,40.09147484001797
pt.ine.add.PTCONT.1119708,R S JOÃO BATISTA,,3220-171,MIRANDA DO CORVO,-8.36395561396657,40.15952185805855
pt.ine.add.PTCONT.1119709,ESTR PONTE,,3220-112,MIRANDA DO CORVO,-8.330011391257786,40.07462188316646
pt.ine.add.PTCONT.1119714,R ALÉM DO RIO,,3220-019,LAMAS MCV,-8.3701544654075,40.09234266443759
pt.ine.add.PTCONT.1119715,R COSTA,,3220-017,LAMAS MCV,-8.375744685754048,40.08483805871176
pt.ine.add.PTCONT.1119719,R CIMO DO LUGAR,,3220-110,MIRANDA DO CORVO,-8.355414446156756,40.06706485339011
pt.ine.add.PTCONT.1120162,R PADRE FERNANDO COIMBRA,1,3220-234,MIRANDA DO CORVO,-8.326358731027,40.097116156397206
pt.ine.add.PTCONT.1120174,PCT LUIS DE CAMÕES,10,3220-208,MIRANDA DO CORVO,-8.332314331419624,40.09249497385099
pt.ine.add.PTCONT.1120182,PC LIBERDADE,251,3220-183,MIRANDA DO CORVO,-8.32846519840665,40.09147484001797
pt.ine.add.PTCONT.1120290,PCT LUIS DE CAMÕES,10,3220-208,MIRANDA DO CORVO,-8.332314331419624,40.09249497385099
pt.ine.add.PTCONT.1120291,BC PASSARINHOS,,3220-015,LAMAS MCV,-8.391900844192838,40.081524888618596
pt.ine.add.PTCONT.1121696,,,3220-536,VILA NOVA MCV,-8.335356297762582,40.046576702213656
pt.ine.add.PTCONT.1121665,,,3220-507,VILA NOVA MCV,-8.319832367495833,40.06912701668563
pt.ine.add.PTCONT.1121670,,,3220-350,RIO VIDE,-8.313281865955503,40.132224659949266
pt.ine.add.PTCONT.1121671,,,3220-514,VILA NOVA MCV,-8.311294044879325,40.04039297301719
pt.ine.add.PTCONT.1121677,R S MIGUEL,104,3220-403,SEMIDE,-8.32644303864184,40.17656674360155
pt.ine.add.PTCONT.1121678,R COMBATENTES DA GRANDE GUERRA,,3220-524,VILA NOVA MCV,-8.318238964530437,40.05643998886959
pt.ine.add.PTCONT.1121679,R ISIDORO SILVA,,3220-524,VILA NOVA MCV,-8.317769458057864,40.05617956113605
pt.ine.add.PTCONT.1121683,R S PEDRO,,3220-115,MIRANDA DO CORVO,-8.3164020907632,40.08386642803999
pt.ine.add.PTCONT.1121684,SIT SEGADE DE CA,2,3220-422,SEMIDE,-8.317052969340567,40.1688009264301
pt.ine.add.PTCONT.1121685,R TRAS DAS CASAS,,3220-115,MIRANDA DO CORVO,-8.315695430562652,40.082678743921356
pt.ine.add.PTCONT.1121686,R JOAQUIM DOS SANTOS,,3220-410,SEMIDE,-8.339869599231724,40.16336787782733
pt.ine.add.PTCONT.1121687,AV ANTÓNIO DOS REIS,,3220-518,VILA NOVA MCV,-8.316758492514996,40.05504639887291
pt.ine.add.PTCONT.1121689,R VALE SA,,3220-071,MIRANDA DO CORVO,-8.318533264610863,40.09150017028157
pt.ine.add.PTCONT.1121691,R CABEDO,4,3220-302,RIO VIDE,-8.327757102576363,40.15981351596196
pt.ine.add.PTCONT.1121692,R VALE ZOTE,,3220-444,SEMIDE,-8.330811617039627,40.160735952720906
pt.ine.add.PTCONT.1121693,,,3220-517,VILA NOVA MCV,-8.325945594021494,40.054599179376616
pt.ine.add.PTCONT.1121695,R S MATEUS,,3220-306,RIO VIDE,-8.318803828057588,40.13154383778587
pt.ine.add.PTCONT.1121697,R S CATARINA,29,3220-194,MIRANDA DO CORVO,-8.324241758283677,40.09074338980712
pt.ine.add.PTCONT.1121698,R NSA SRA FÁTIMA,122-D,3220-405,SEMIDE,-8.301880460800756,40.14773211213411
pt.ine.add.PTCONT.1121699,,,3220-535,VILA NOVA MCV,-8.341125057612219,40.047665235278444
pt.ine.add.PTCONT.1121704,R PENELA,41,3220-155,MIRANDA DO CORVO,-8.327674697540496,40.08153348556747
pt.ine.add.PTCONT.1121705,R CAPELA,,3220-406,SEMIDE,-8.316836538702553,40.15819227725516
pt.ine.add.PTCONT.1121706,,,3220-533,VILA NOVA MCV,-8.272741065910989,40.06193443451129
pt.ine.add.PTCONT.1121766,R CENTRO DO LUGAR,,3220-110,MIRANDA DO CORVO,-8.35512014320801,40.066678156169324
pt.ine.add.PTCONT.1121768,R AIRES CAETANO JUNIOR,,3220-017,LAMAS MCV,-8.3768634631699,40.08292642648755
pt.ine.add.PTCONT.1121772,R VALE,16,3220-052,MIRANDA DO CORVO,-8.327665168895333,40.10289584335691
pt.ine.add.PTCONT.1121780,R CASA DO GAIATO,445,3220-188,MIRANDA DO CORVO,-8.326028721710998,40.09653131394677
pt.ine.add.PTCONT.1121783,R DR SANTOS PEREIRA,12,3220-012,LAMAS MCV,-8.383936952061127,40.093475419225605
pt.ine.add.PTCONT.1121784,R OUTAO,,3220-012,LAMAS MCV,-8.383253934883397,40.09589051401306
pt.ine.add.PTCONT.1121789,R OUTAO,,3220-012,LAMAS MCV,-8.383066240947498,40.09587290712076
pt.ine.add.PTCONT.1121791,R RELVA,13,3220-140,MIRANDA DO CORVO,-8.361747410222591,40.11706308566696
pt.ine.add.PTCONT.1121792,R ALAGOA,,3220-063,MIRANDA DO CORVO,-8.317529175395778,40.093113855635956
pt.ine.add.PTCONT.1121793,R S CATARINA,,3220-194,MIRANDA DO CORVO,-8.321454813038434,40.09213488617413
pt.ine.add.PTCONT.1121800,R NSA SRA DA CONCEIÇÃO,49,3220-144,MIRANDA DO CORVO,-8.358192146192463,40.116781857393136
pt.ine.add.PTCONT.1121801,R MONTOIRO,19,3220-156,MIRANDA DO CORVO,-8.329055661465114,40.08474632145466
pt.ine.add.PTCONT.1121802,R ALAGOA,89,3220-063,MIRANDA DO CORVO,-8.318055568063595,40.092635695933325
pt.ine.add.PTCONT.1121803,R CASA DO GAIATO,76,3220-188,MIRANDA DO CORVO,-8.324891691989217,40.096704316837936
pt.ine.add.PTCONT.1121812,R NSA SRA DA BOA VIAGEM,,3220-245,MIRANDA DO CORVO,-8.356826063833081,40.15808589619402
pt.ine.add.PTCONT.1121813,R CABECEIRO,89,3220-145,MIRANDA DO CORVO,-8.362296441490384,40.11637754416997
pt.ine.add.PTCONT.1121817,R PADRE LUCIANO CARVALHO,,3220-019,LAMAS MCV,-8.373858660269116,40.091974783321234
pt.ine.add.PTCONT.1121821,R FONTE,,3220-113,MIRANDA DO CORVO,-8.352416409369962,40.108120148069176
pt.ine.add.PTCONT.1122227,R DR CLEMENTE DE CARVALHO,759,3220-232,MIRANDA DO CORVO,-8.313464973802683,40.077179531255375
pt.ine.add.PTCONT.1122254,R DR JOSE CARLOS PEREIRA CARVALHO,11,3220-203,MIRANDA DO CORVO,-8.329087452745625,40.08765522360832
pt.ine.add.PTCONT.1122359,R JOÃO PAULO II,60,3220-205,MIRANDA DO CORVO,-8.324046166444571,40.08788879416256
pt.ine.add.PTCONT.1122653,R VALE CASAL,,3220-157,MIRANDA DO CORVO,-8.33007709557101,40.08115117104823
pt.ine.add.PTCONT.1122654,R BELIZARIO PIMENTA,,3220-187,MIRANDA DO CORVO,-8.332467087475475,40.09260278359656
pt.ine.add.PTCONT.1122655,R BELIZARIO PIMENTA,,3220-187,MIRANDA DO CORVO,-8.332467087475475,40.09260278359656
pt.ine.add.PTCONT.1122656,R BELIZARIO PIMENTA,,3220-187,MIRANDA DO CORVO,-8.332467087475475,40.09260278359656
pt.ine.add.PTCONT.1122657,R BELIZARIO PIMENTA,,3220-187,MIRANDA DO CORVO,-8.332467087475475,40.09260278359656
pt.ine.add.PTCONT.1122773,R BELIZARIO PIMENTA,,3220-187,MIRANDA DO CORVO,-8.332467087475475,40.09260278359656
pt.ine.add.PTCONT.1122774,R BELIZARIO PIMENTA,,3220-187,MIRANDA DO CORVO,-8.332467087475475,40.09260278359656
pt.ine.add.PTCONT.1122775,R BELIZARIO PIMENTA,,3220-187,MIRANDA DO CORVO,-8.332467087475475,40.09260278359656
pt.ine.add.PTCONT.1122776,R BELIZARIO PIMENTA,,3220-187,MIRANDA DO CORVO,-8.332467087475475,40.09260278359656
pt.ine.add.PTCONT.1122777,R BELIZARIO PIMENTA,,3220-187,MIRANDA DO CORVO,-8.332467087475475,40.09260278359656
pt.ine.add.PTCONT.1122778,R DR JOSE CARLOS PEREIRA CARVALHO,34,3220-203,MIRANDA DO CORVO,-8.329452155718348,40.08807789051091
pt.ine.add.PTCONT.1122925,R DR JOSE CARLOS PEREIRA CARVALHO,39,3220-203,MIRANDA DO CORVO,-8.329455571379132,40.08926668353748
pt.ine.add.PTCONT.1122926,ESTR REAL,,3220-060,MIRANDA DO CORVO,-8.322747668159058,40.08898065956054
pt.ine.add.PTCONT.1122927,R JOÃO PAULO II,323,3220-205,MIRANDA DO CORVO,-8.326300223119615,40.088866716591326
pt.ine.add.PTCONT.1122928,R JOÃO PAULO II,323,3220-205,MIRANDA DO CORVO,-8.326300223119615,40.088866716591326
pt.ine.add.PTCONT.1122929,R JOÃO PAULO II,323,3220-205,MIRANDA DO CORVO,-8.326300223119615,40.088866716591326
pt.ine.add.PTCONT.1122930,R JOÃO PAULO II,323,3220-205,MIRANDA DO CORVO,-8.326300223119615,40.088866716591326
pt.ine.add.PTCONT.1122931,R JOÃO PAULO II,323,3220-205,MIRANDA DO CORVO,-8.326300223119615,40.088866716591326
pt.ine.add.PTCONT.1122932,R JOÃO PAULO II,323,3220-205,MIRANDA DO CORVO,-8.326300223119615,40.088866716591326
pt.ine.add.PTCONT.1122933,R JOÃO PAULO II,323,3220-205,MIRANDA DO CORVO,-8.326300223119615,40.088866716591326
pt.ine.add.PTCONT.1122934,R JOÃO PAULO II,323,3220-205,MIRANDA DO CORVO,-8.326300223119615,40.088866716591326
pt.ine.add.PTCONT.1122935,R JOÃO PAULO II,323,3220-205,MIRANDA DO CORVO,-8.326300223119615,40.088866716591326
pt.ine.add.PTCONT.1123057,R JOÃO PAULO II,323,3220-205,MIRANDA DO CORVO,-8.326300223119615,40.088866716591326
pt.ine.add.PTCONT.1123058,R JOÃO PAULO II,323,3220-205,MIRANDA DO CORVO,-8.326300223119615,40.088866716591326
pt.ine.add.PTCONT.1123059,R JOÃO PAULO II,323,3220-205,MIRANDA DO CORVO,-8.326300223119615,40.088866716591326
pt.ine.add.PTCONT.1123060,R JOÃO PAULO II,323,3220-205,MIRANDA DO CORVO,-8.326300223119615,40.088866716591326
pt.ine.add.PTCONT.1123061,R JOÃO PAULO II,323,3220-205,MIRANDA DO CORVO,-8.326300223119615,40.088866716591326
pt.ine.add.PTCONT.1123062,R JOÃO PAULO II,323,3220-205,MIRANDA DO CORVO,-8.326300223119615,40.088866716591326
pt.ine.add.PTCONT.1123063,R JOÃO PAULO II,323,3220-205,MIRANDA DO CORVO,-8.326300223119615,40.088866716591326
pt.ine.add.PTCONT.1123064,R JOÃO PAULO II,323,3220-205,MIRANDA DO CORVO,-8.326300223119615,40.088866716591326
pt.ine.add.PTCONT.1123065,R JOÃO PAULO II,323,3220-205,MIRANDA DO CORVO,-8.326300223119615,40.088866716591326
pt.ine.add.PTCONT.1123066,R JOÃO PAULO II,323,3220-205,MIRANDA DO CORVO,-8.326300223119615,40.088866716591326
pt.ine.add.PTCONT.1123067,R JOÃO PAULO II,323,3220-205,MIRANDA DO CORVO,-8.326300223119615,40.088866716591326
pt.ine.add.PTCONT.1123068,R JOÃO PAULO II,323,3220-205,MIRANDA DO CORVO,-8.326300223119615,40.088866716591326
pt.ine.add.PTCONT.1123069,R S PEDRO,302,3220-115,MIRANDA DO CORVO,-8.319195938047413,40.08509580382867
pt.ine.add.PTCONT.1123184,R CARVALHINHO,153,3220-092,MIRANDA DO CORVO,-8.287158777509275,40.08832197668293
pt.ine.add.PTCONT.1123185,R TROIA,,3220-242,MIRANDA DO CORVO,-8.294032749939191,40.0795497329431
pt.ine.add.PTCONT.1123186,R BOA PAZ,,3220-058,MIRANDA DO CORVO,-8.297139202729722,40.07937426071763
pt.ine.add.PTCONT.1123187,R LIBERDADE,,3220-236,MIRANDA DO CORVO,-8.299240480282991,40.07565175878642
pt.ine.add.PTCONT.1123300,R HENRIQUE MESQUITA,387,3220-232,MIRANDA DO CORVO,-8.30879139095657,40.07423272090158
pt.ine.add.PTCONT.1123301,R RELVA CIMEIRA,,3220-319,RIO VIDE,-8.331359471094007,40.131159436055796
pt.ine.add.PTCONT.1123302,R S MATEUS,,3220-306,RIO VIDE,-8.319038980987292,40.131955242964885
pt.ine.add.PTCONT.1123303,R PEDRO SANTOS,,3220-355,RIO VIDE,-8.31834384280193,40.129749033649766
pt.ine.add.PTCONT.1123413,R IGREJA,27,3220-336,RIO VIDE,-8.329639625548413,40.14507659815944
pt.ine.add.PTCONT.1123414,R SENHOR DA AGONIA,20,3220-336,RIO VIDE,-8.332713917478594,40.14495426227779
pt.ine.add.PTCONT.1123415,R CAVADA,,3220-350,RIO VIDE,-8.312369622163926,40.13334281767292
pt.ine.add.PTCONT.1123416,R BARROCA,,3220-422,SEMIDE,-8.322286001283386,40.172043633447956
pt.ine.add.PTCONT.1123417,R CASAL DA LAJE,,3220-419,SEMIDE,-8.301666916432566,40.17053547394122
pt.ine.add.PTCONT.1123505,R MOITA,99,3220-407,SEMIDE,-8.34720099792537,40.150521084552075
pt.ine.add.PTCONT.1123506,R MOITA,,3220-434,SEMIDE,-8.346813421982352,40.1504317409428
pt.ine.add.PTCONT.1123507,R ESCOLAS,86,3220-435,SEMIDE,-8.349809089625037,40.15135378676556
pt.ine.add.PTCONT.1123508,R PRINCIPAL,607,3220-406,SEMIDE,-8.310075494841938,40.158112748254254
pt.ine.add.PTCONT.1123509,R S JOÃO,20,3220-412,SEMIDE,-8.325381370008365,40.158151385942126
pt.ine.add.PTCONT.1123597,R PRINCIPAL,304,3220-405,SEMIDE,-8.299651772944394,40.148185636999884
pt.ine.add.PTCONT.1123598,R PRINCIPAL,,3220-443,SEMIDE,-8.320443689939708,40.146730925257586
pt.ine.add.PTCONT.1123599,R PRINCIPAL,,3220-443,SEMIDE,-8.315980392788198,40.14532412350846
pt.ine.add.PTCONT.1123600,,,3220-507,VILA NOVA MCV,-8.318566637322503,40.06922811671138
pt.ine.add.PTCONT.1123601,,,3220-524,VILA NOVA MCV,-8.318838031166168,40.056934365726825
pt.ine.add.PTCONT.1123686,,,3220-514,VILA NOVA MCV,-8.3111446948362,40.04153698079083
pt.ine.add.PTCONT.1123687,R PRINCIPAL,,3220-513,VILA NOVA MCV,-8.314253920507104,40.03865020058343
pt.ine.add.PTCONT.1123983,R FONTE,,3220-018,LAMAS MCV,-8.376381232772427,40.072615497236534
pt.ine.add.PTCONT.1123984,R SOITO,,3220-018,LAMAS MCV,-8.376676368446784,40.069904048886755
pt.ine.add.PTCONT.1123985,R SALAO ND,ND,3220-174,MIRANDA DO CORVO,-8.365703210950103,40.159131105421324
pt.ine.add.PTCONT.1123986,R CABECO,,3220-049,MIRANDA DO CORVO,-8.3669109212871,40.15875942966029
pt.ine.add.PTCONT.1123987,R NSA SRA DO LIVRAMENTO,,3220-170,MIRANDA DO CORVO,-8.366580449323965,40.15822874606208
pt.ine.add.PTCONT.1124099,R FONTE NOVA,51,3220-166,MIRANDA DO CORVO,-8.365381262020298,40.15765477762652
pt.ine.add.PTCONT.1124100,R S SILVESTRE,797,3220-047,MIRANDA DO CORVO,-8.329542524524157,40.09911914719207
pt.ine.add.PTCONT.1124200,R LOMBA,,3220-244,MIRANDA DO CORVO,-8.319116435635559,40.103270128282844
pt.ine.add.PTCONT.1124201,R S CATARINA,,3220-194,MIRANDA DO CORVO,-8.319522036493037,40.09288551454268
pt.ine.add.PTCONT.1124202,LAD CARVALHAL,,3220-180,MIRANDA DO CORVO,-8.333375893651098,40.094609563659915
pt.ine.add.PTCONT.1124203,AV ARMÉNIO COSTA SIMÕES,31,3220-186,MIRANDA DO CORVO,-8.331887693157944,40.094981374773894
pt.ine.add.PTCONT.1124278,R CIMO LUGAR,,3220-414,SEMIDE,-8.309575378434735,40.14174968595723
pt.ine.add.PTCONT.1124282,R JOÃO PAULO II,323,3220-205,MIRANDA DO CORVO,-8.326300223119615,40.088866716591326
pt.ine.add.PTCONT.1124300,R RAMALHEIRA,294,3220-088,MIRANDA DO CORVO,-8.29189984991688,40.084974327186345
pt.ine.add.PTCONT.1124307,R SENHOR DA AGONIA,,3220-336,RIO VIDE,-8.33233807457475,40.144846837943525
pt.ine.add.PTCONT.1124349,R JOÃO PAULO II,323,3220-205,MIRANDA DO CORVO,-8.326300223119615,40.088866716591326
pt.ine.add.PTCONT.1124372,R ALMAS,,3220-011,LAMAS MCV,-8.36568722866049,40.092477804593
pt.ine.add.PTCONT.1124381,HORACIO LOPES,,3220-017,LAMAS MCV,-8.356049095039976,40.099926736043095
pt.ine.add.PTCONT.1124391,R JOÃO PAULO II,323,3220-205,MIRANDA DO CORVO,-8.326300223119615,40.088866716591326
pt.ine.add.PTCONT.1124435,AV ARMÉNIO COSTA SIMÕES,33,3220-186,MIRANDA DO CORVO,-8.331815840321001,40.094468153662184
pt.ine.add.PTCONT.1124448,R SANTO ANTÓNIO,,3220-349,RIO VIDE,-8.31690252559008,40.130417773145986
pt.ine.add.PTCONT.1124505,R AMOREIRAS,2,3220-218,MIRANDA DO CORVO,-8.333844321492343,40.09439260783406
pt.ine.add.PTCONT.1124626,R RELVA CIMEIRA,,3220-319,RIO VIDE,-8.332225520877236,40.13041045343725
pt.ine.add.PTCONT.1124627,TV BARREIRO,1,3220-336,RIO VIDE,-8.332515050624286,40.14517074801794
pt.ine.add.PTCONT.1124628,,,3220-331,RIO VIDE,-8.309179764721925,40.13850813777414
pt.ine.add.PTCONT.1124629,R S MATEUS,,3220-350,RIO VIDE,-8.317560678612777,40.13083100218837
pt.ine.add.PTCONT.1124630,R S MATEUS,,3220-350,RIO VIDE,-8.317900344622865,40.1306143170083
pt.ine.add.PTCONT.1124631,R S MATEUS,,3220-350,RIO VIDE,-8.31394834824601,40.1269280994324
pt.ine.add.PTCONT.1124632,ESTR BEIRA,17,3220-422,SEMIDE,-8.321102632329241,40.172901123488984
pt.ine.add.PTCONT.1124695,R VALE CORTES,,3220-422,SEMIDE,-8.318891549995726,40.1714547389849
pt.ine.add.PTCONT.1124696,R PRINCIPAL,9,3220-416,SEMIDE,-8.333482430827821,40.16287477476928
pt.ine.add.PTCONT.1124697,R PRINCIPAL,9,3220-416,SEMIDE,-8.333482430827821,40.16287477476928
pt.ine.add.PTCONT.1124698,R CIMA,,3220-404,SEMIDE,-8.348894778221487,40.17766182041238
pt.ine.add.PTCONT.1124699,R NSA SRA DA PIEDADE,208,3220-442,SEMIDE,-8.341036026515539,40.176325313808725
pt.ine.add.PTCONT.1124700,,,3220-417,SEMIDE,-8.341305681241533,40.168516696559536
pt.ine.add.PTCONT.1124762,R PROF DR FERREIRA CORREIA,409,3220-437,,-8.345359101968798,40.15451411145513
pt.ine.add.PTCONT.1124763,R ESCOLAS,104,3220-435,SEMIDE,-8.34997319750486,40.15129043787376
pt.ine.add.PTCONT.1124764,R PRINCIPAL,7,3220-412,SEMIDE,-8.324190934446781,40.156388191285394
pt.ine.add.PTCONT.1124765,R PRINCIPAL,84,3220-402,SEMIDE,-8.321094374801897,40.15714075339798
pt.ine.add.PTCONT.1124766,R CAPELA,,3220-443,SEMIDE,-8.318815221196983,40.147751221905054
pt.ine.add.PTCONT.1124767,R FUNDO LUGAR,,3220-414,SEMIDE,-8.30371819262403,40.145820154906446
pt.ine.add.PTCONT.1124810,AV ANTÓNIO DOS REIS,,3220-518,VILA NOVA MCV,-8.317125730448105,40.05650480503924
pt.ine.add.PTCONT.1124811,,,3220-536,VILA NOVA MCV,-8.334176873385655,40.047983708942134
pt.ine.add.PTCONT.1124812,,,3220-533,VILA NOVA MCV,-8.273315413641026,40.06194274697611
pt.ine.add.PTCONT.1124813,,,3220-508,VILA NOVA MCV,-8.307561669613676,40.05172835134815
pt.ine.add.PTCONT.1124814,,,3220-515,VILA NOVA MCV,-8.303745999686969,40.04896015065843
pt.ine.add.PTCONT.1125056,BC PIUME,,3220-017,LAMAS MCV,-8.373973977493396,40.08476970560263
pt.ine.add.PTCONT.1125057,R 8 DE MAIO,,3220-017,LAMAS MCV,-8.374106260449945,40.082382825916305
pt.ine.add.PTCONT.1125124,R LOMBO,,3220-012,LAMAS MCV,-8.385898982084653,40.09447983023817
pt.ine.add.PTCONT.1125125,R NSA SRA DO LIVRAMENTO,,3220-170,MIRANDA DO CORVO,-8.367298385000915,40.1587946704087
pt.ine.add.PTCONT.1125126,R NSA SRA DO LIVRAMENTO,,3220-170,MIRANDA DO CORVO,-8.367298385000915,40.1587946704087
pt.ine.add.PTCONT.1125127,QTA VISO,57,3220-047,MIRANDA DO CORVO,-8.326567271692605,40.10035798133141
pt.ine.add.PTCONT.1125128,,,3220-241,MIRANDA DO CORVO,-8.35825847790982,40.13333474192961
pt.ine.add.PTCONT.1125209,LG S FRANCISCO,2,3220-132,MIRANDA DO CORVO,-8.357664250299457,40.116773876097774
pt.ine.add.PTCONT.1125210,R NSA SRA DAS DORES,,3220-031,MIRANDA DO CORVO,-8.313861904543058,40.098712388117136
pt.ine.add.PTCONT.1125284,R NSA SRA DAS DORES,,3220-031,MIRANDA DO CORVO,-8.313861904543058,40.098712388117136
pt.ine.add.PTCONT.1125285,R CABECINHO,,3220-048,MIRANDA DO CORVO,-8.326521891466163,40.10089841911272
pt.ine.add.PTCONT.1125286,R FERNANDO COIMBRA,,3220-234,MIRANDA DO CORVO,-8.325448258895719,40.09862168009759
pt.ine.add.PTCONT.1125353,R PAI VIEGAS,,3220-154,MIRANDA DO CORVO,-8.333060538433163,40.08301932071518
pt.ine.add.PTCONT.1125354,PC LIBERDADE,7,3220-183,MIRANDA DO CORVO,-8.3280881662832,40.09084505190914
pt.ine.add.PTCONT.1125418,R SEBASTIÃO DA CRUZ LOPES,,3220-202,MIRANDA DO CORVO,-8.330338088958179,40.090336904227904
pt.ine.add.PTCONT.1125419,R SEBASTIÃO DA CRUZ LOPES,,3220-202,MIRANDA DO CORVO,-8.330338088958179,40.090336904227904
pt.ine.add.PTCONT.1125420,R SEBASTIÃO DA CRUZ LOPES,,3220-202,MIRANDA DO CORVO,-8.330338088958179,40.090336904227904
pt.ine.add.PTCONT.1125421,R SEBASTIÃO DA CRUZ LOPES,,3220-202,MIRANDA DO CORVO,-8.330338088958179,40.090336904227904
pt.ine.add.PTCONT.1125422,R SEBASTIÃO DA CRUZ LOPES,,3220-202,MIRANDA DO CORVO,-8.330338088958179,40.090336904227904
pt.ine.add.PTCONT.1125423,URB QUINTA DO MELO,,3220-207,MIRANDA DO CORVO,-8.331123407130155,40.09022749186687
pt.ine.add.PTCONT.1125424,URB QUINTA DO MELO,,3220-207,MIRANDA DO CORVO,-8.331123407130155,40.09022749186687
pt.ine.add.PTCONT.1125425,URB QUINTA DO MELO,,3220-207,MIRANDA DO CORVO,-8.331123407130155,40.09022749186687
pt.ine.add.PTCONT.1125426,URB QUINTA DO MELO,,3220-207,MIRANDA DO CORVO,-8.331123407130155,40.09022749186687
pt.ine.add.PTCONT.1125427,URB QUINTA DO MELO,,3220-207,MIRANDA DO CORVO,-8.331123407130155,40.09022749186687
pt.ine.add.PTCONT.1125428,URB QUINTA DO MELO,,3220-207,MIRANDA DO CORVO,-8.331123407130155,40.09022749186687
pt.ine.add.PTCONT.1125429,URB QUINTA DO MELO,,3220-207,MIRANDA DO CORVO,-8.331123407130155,40.09022749186687
pt.ine.add.PTCONT.1125430,URB QUINTA DO MELO,,3220-207,MIRANDA DO CORVO,-8.331123407130155,40.09022749186687
pt.ine.add.PTCONT.1125481,URB QUINTA DO MELO,,3220-207,MIRANDA DO CORVO,-8.331123407130155,40.09022749186687
pt.ine.add.PTCONT.1125482,URB QUINTA DO MELO,,3220-207,MIRANDA DO CORVO,-8.331123407130155,40.09022749186687
pt.ine.add.PTCONT.1125483,URB QUINTA DO MELO,,3220-207,MIRANDA DO CORVO,-8.331123407130155,40.09022749186687
pt.ine.add.PTCONT.1125484,URB QUINTA DO MELO,,3220-207,MIRANDA DO CORVO,-8.331123407130155,40.09022749186687
pt.ine.add.PTCONT.1125485,URB QUINTA DO MELO,,3220-207,MIRANDA DO CORVO,-8.331123407130155,40.09022749186687
pt.ine.add.PTCONT.1125486,R VALE SA,,3220-071,MIRANDA DO CORVO,-8.319934012939958,40.08916535265202
pt.ine.add.PTCONT.1125487,R S CATARINA,32,3220-194,MIRANDA DO CORVO,-8.323352368946157,40.091384283337085
pt.ine.add.PTCONT.1125488,R S PEDRO,328,3220-115,MIRANDA DO CORVO,-8.318996295466249,40.08497904560494
pt.ine.add.PTCONT.1125562,R POMBAL,,3220-033,MIRANDA DO CORVO,-8.305788852460612,40.08295511047673
pt.ine.add.PTCONT.1125563,R FONTE DO CASTANHEIRO,,3220-240,MIRANDA DO CORVO,-8.302159402370506,40.07082928437131
pt.ine.add.PTCONT.1125564,ZN INDUSTRIAL,,3220-119,MIRANDA DO CORVO,-8.3273399637635,40.08338929595852
pt.ine.add.PTCONT.1125623,R JOSE FALCÃO,,3220-232,MIRANDA DO CORVO,-8.312560554813754,40.076532498620104
pt.ine.add.PTCONT.1125624,R PADRE FERNANDO COIMBRA,144,3220-232,MIRANDA DO CORVO,-8.312450342118002,40.074740460672665
pt.ine.add.PTCONT.1125625,R ARROTEIA,,3220-316,RIO VIDE,-8.33125519345743,40.13565359942415
pt.ine.add.PTCONT.1125626,R SENHORA DA NAZARE,,3220-336,RIO VIDE,-8.33181838994372,40.13161795476712
pt.ine.add.PTCONT.1126321,VALINHO DA CRUZ,,3220-065,MIRANDA DO CORVO,-8.317297246624312,40.09407787147596
pt.ine.add.PTCONT.1126322,R CARREIRA,77,3220-093,MIRANDA DO CORVO,-8.289569904952964,40.08642747315319
pt.ine.add.PTCONT.1126333,URB QUINTA MELO B,B,3220-207,MIRANDA DO CORVO,-8.331123407130155,40.09022749186687
pt.ine.add.PTCONT.1126477,R ESTAÇÃO,,3220-135,MIRANDA DO CORVO,-8.35746122342014,40.115675536832846
pt.ine.add.PTCONT.1126478,R ESTAÇÃO,,3220-135,MIRANDA DO CORVO,-8.35746122342014,40.115675536832846
pt.ine.add.PTCONT.1126479,R ESTAÇÃO,,3220-135,MIRANDA DO CORVO,-8.35746122342014,40.115675536832846
pt.ine.add.PTCONT.1126480,R ESTAÇÃO,,3220-135,MIRANDA DO CORVO,-8.35746122342014,40.115675536832846
pt.ine.add.PTCONT.1126481,R ESTAÇÃO,,3220-135,MIRANDA DO CORVO,-8.35746122342014,40.115675536832846
pt.ine.add.PTCONT.1126482,R ESTAÇÃO,,3220-135,MIRANDA DO CORVO,-8.35746122342014,40.115675536832846
pt.ine.add.PTCONT.1126502,URB QUINTA DO MELO,,3220-207,MIRANDA DO CORVO,-8.331123407130155,40.09022749186687
pt.ine.add.PTCONT.1126504,URB QUINTA DO MELO,,3220-207,MIRANDA DO CORVO,-8.331123407130155,40.09022749186687
pt.ine.add.PTCONT.1126702,R JOÃO PAULO II,15,3220-205,MIRANDA DO CORVO,-8.327556219589136,40.089341935787296
pt.ine.add.PTCONT.1126703,R JOÃO PAULO II,15,3220-205,MIRANDA DO CORVO,-8.327556219589136,40.089341935787296
pt.ine.add.PTCONT.1126713,R SEBASTIÃO DA CRUZ LOPES,,3220-202,MIRANDA DO CORVO,-8.330338088958179,40.090336904227904
pt.ine.add.PTCONT.1126714,URB QUINTA DO MELO,,3220-207,MIRANDA DO CORVO,-8.331123407130155,40.09022749186687
pt.ine.add.PTCONT.1127972,,,3220-535,VILA NOVA MCV,-8.341110957682798,40.046881728587046
pt.ine.add.PTCONT.1127898,R CUMEADA,139,3220-232,MIRANDA DO CORVO,-8.316244599591904,40.07759845575031
pt.ine.add.PTCONT.1127899,R BAIRRO NOVO,,3220-411,SEMIDE,-8.346594729459484,40.17803532672343
pt.ine.add.PTCONT.1127903,R JOAO PAULO II,361,3220-205,MIRANDA DO CORVO,-8.325783281362163,40.08850733549651
pt.ine.add.PTCONT.1127904,R JOAO PAULO II,361,3220-205,MIRANDA DO CORVO,-8.325783281362163,40.08850733549651
pt.ine.add.PTCONT.1127905,R JOAO PAULO II,361,3220-205,MIRANDA DO CORVO,-8.325783281362163,40.08850733549651
pt.ine.add.PTCONT.1127906,R VALE DOS MOCHOS,,3220-404,SEMIDE,-8.353083409227107,40.17677135860525
pt.ine.add.PTCONT.1127907,R PADRE ANTÓNIO COSTA,91,3220-437,,-8.346198920390346,40.15283746255206
pt.ine.add.PTCONT.1127908,R PADRE ANTÓNIO COSTA,91,3220-437,,-8.346198920390346,40.15283746255206
pt.ine.add.PTCONT.1127909,R CIMO,341,3220-414,SEMIDE,-8.310407979490023,40.14153227089996
pt.ine.add.PTCONT.1127911,R JOAO PAULO II,361,3220-205,MIRANDA DO CORVO,-8.325783281362163,40.08850733549651
pt.ine.add.PTCONT.1127912,R JOAO PAULO II,361,3220-205,MIRANDA DO CORVO,-8.325783281362163,40.08850733549651
pt.ine.add.PTCONT.1127913,R JOAO PAULO II,361,3220-205,MIRANDA DO CORVO,-8.325783281362163,40.08850733549651
pt.ine.add.PTCONT.1127914,R JOAO PAULO II,361,3220-205,MIRANDA DO CORVO,-8.325783281362163,40.08850733549651
pt.ine.add.PTCONT.1127915,R JOAO PAULO II,361,3220-205,MIRANDA DO CORVO,-8.325783281362163,40.08850733549651
pt.ine.add.PTCONT.1127916,R JOAO PAULO II,361,3220-205,MIRANDA DO CORVO,-8.325783281362163,40.08850733549651
pt.ine.add.PTCONT.1127917,R JOAO PAULO II,361,3220-205,MIRANDA DO CORVO,-8.325783281362163,40.08850733549651
pt.ine.add.PTCONT.1127918,R JOAO PAULO II,361,3220-205,MIRANDA DO CORVO,-8.325783281362163,40.08850733549651
pt.ine.add.PTCONT.1127919,R JOAO PAULO II,361,3220-205,MIRANDA DO CORVO,-8.325783281362163,40.08850733549651
pt.ine.add.PTCONT.1127920,R JOAO PAULO II,361,3220-205,MIRANDA DO CORVO,-8.325783281362163,40.08850733549651
pt.ine.add.PTCONT.1127921,R JOAO PAULO II,361,3220-205,MIRANDA DO CORVO,-8.325783281362163,40.08850733549651
pt.ine.add.PTCONT.1127922,R JOAO PAULO II,361,3220-205,MIRANDA DO CORVO,-8.325783281362163,40.08850733549651
pt.ine.add.PTCONT.1127923,R JOAO PAULO II S,S,3220-205,MIRANDA DO CORVO,-8.325783281362163,40.08850733549651
pt.ine.add.PTCONT.1127924,R JOAO PAULO II,361,3220-205,MIRANDA DO CORVO,-8.325783281362163,40.08850733549651
pt.ine.add.PTCONT.1127927,R JOAO PAULO II,361,3220-205,MIRANDA DO CORVO,-8.325783281362163,40.08850733549651
pt.ine.add.PTCONT.1127928,R JOAO PAULO II,361,3220-205,MIRANDA DO CORVO,-8.325783281362163,40.08850733549651
pt.ine.add.PTCONT.1127929,R JOAO PAULO II,361,3220-205,MIRANDA DO CORVO,-8.325783281362163,40.08850733549651
pt.ine.add.PTCONT.1127930,R JOAO PAULO II,361,3220-205,MIRANDA DO CORVO,-8.325783281362163,40.08850733549651
pt.ine.add.PTCONT.1127931,R JOAO PAULO II,361,3220-205,MIRANDA DO CORVO,-8.325783281362163,40.08850733549651
pt.ine.add.PTCONT.1127932,R JOAO PAULO II,361,3220-205,MIRANDA DO CORVO,-8.325783281362163,40.08850733549651
pt.ine.add.PTCONT.1127933,R JOAO PAULO II,361,3220-205,MIRANDA DO CORVO,-8.325783281362163,40.08850733549651
pt.ine.add.PTCONT.1127934,R JOAO PAULO II,361,3220-205,MIRANDA DO CORVO,-8.325783281362163,40.08850733549651
pt.ine.add.PTCONT.1127935,R JOAO PAULO II,361,3220-205,MIRANDA DO CORVO,-8.325783281362163,40.08850733549651
pt.ine.add.PTCONT.1127936,R JOAO PAULO II,361,3220-205,MIRANDA DO CORVO,-8.325783281362163,40.08850733549651
pt.ine.add.PTCONT.1127937,R JOAO PAULO II,361,3220-205,MIRANDA DO CORVO,-8.325783281362163,40.08850733549651
pt.ine.add.PTCONT.1127938,R JOAO PAULO II,361,3220-205,MIRANDA DO CORVO,-8.325783281362163,40.08850733549651
pt.ine.add.PTCONT.1127939,R JOAO PAULO II,361,3220-205,MIRANDA DO CORVO,-8.325783281362163,40.08850733549651
pt.ine.add.PTCONT.1127940,R JOAO PAULO II,361,3220-205,MIRANDA DO CORVO,-8.325783281362163,40.08850733549651
pt.ine.add.PTCONT.1127941,R JOAO PAULO II,361,3220-205,MIRANDA DO CORVO,-8.325783281362163,40.08850733549651
pt.ine.add.PTCONT.1127942,R CARVALHEIRA,,3220-442,SEMIDE,-8.337835378144776,40.17393544391004
pt.ine.add.PTCONT.1127943,R SANTUARIO,178,3220-438,SEMIDE,-8.344710360173671,40.15347961471726
pt.ine.add.PTCONT.1127944,,,3220-503,VILA NOVA MCV,-8.324699509329559,40.044874644874746
pt.ine.add.PTCONT.1127945,R JOAO PAULO II,361,3220-205,MIRANDA DO CORVO,-8.325783281362163,40.08850733549651
pt.ine.add.PTCONT.1127946,R PRINCIPAL,,3220-102,MIRANDA DO CORVO,-8.296463414678485,40.08603970279718
pt.ine.add.PTCONT.1127947,R PADRE ANTÓNIO COSTA,,3220-423,SEMIDE,-8.34543775404292,40.153388223709015
pt.ine.add.PTCONT.1127950,R JOSE FALCÃO,,3220-206,MIRANDA DO CORVO,-8.333499497403835,40.092772117033284
pt.ine.add.PTCONT.1127951,R S MIGUEL,85,3220-403,SEMIDE,-8.326090486785477,40.17645025487975
pt.ine.add.PTCONT.1127952,R ESTRADA NACIONAL,,3220-318,RIO VIDE,-8.332907761962593,40.13501133558811
pt.ine.add.PTCONT.1127953,,,3220-513,VILA NOVA MCV,-8.31525932946893,40.037802048101895
pt.ine.add.PTCONT.1127956,AV ANTÓNIO DOS REIS,,3220-518,VILA NOVA MCV,-8.318065501349976,40.057304851722094
pt.ine.add.PTCONT.1127959,R S PEDRO,1141,3220-115,MIRANDA DO CORVO,-8.310162170895442,40.08296652099683
pt.ine.add.PTCONT.1127960,R POMBAL,,3220-036,MIRANDA DO CORVO,-8.305660222996213,40.08309039308365
pt.ine.add.PTCONT.1127962,R ORTIGAS,,3220-067,MIRANDA DO CORVO,-8.31740938571146,40.092177417449975
pt.ine.add.PTCONT.1127963,R FONTE,,3220-416,SEMIDE,-8.333180988842235,40.16415413875249
pt.ine.add.PTCONT.1127964,LG CORGO,,3220-079,MIRANDA DO CORVO,-8.288784193685869,40.086374495366975
pt.ine.add.PTCONT.1127965,R LOMBAS MAIAS,8,3220-443,SEMIDE,-8.330050977719747,40.149353730477095
pt.ine.add.PTCONT.1127966,R VALE,4,3220-415,SEMIDE,-8.331371168657189,40.151332787820806
pt.ine.add.PTCONT.1127967,R TIMOR,,3220-405,SEMIDE,-8.301520567914286,40.14931768520008
pt.ine.add.PTCONT.1127968,R S MATEUS,,3220-350,RIO VIDE,-8.316604678410936,40.12873412549986
pt.ine.add.PTCONT.1127969,R PRINCIPAL,286,3220-405,SEMIDE,-8.299733505455253,40.148014406152
pt.ine.add.PTCONT.1127970,R PRINCIPAL,,3220-405,SEMIDE,-8.29975563449296,40.14746501061771
pt.ine.add.PTCONT.1127971,,,3220-536,VILA NOVA MCV,-8.336797921139004,40.04666423805179
pt.ine.add.PTCONT.1127975,R PRINCIPAL,474,3220-102,MIRANDA DO CORVO,-8.29420097467882,40.08625901652711
pt.ine.add.PTCONT.1127976,R CAPELA,,3220-443,SEMIDE,-8.31835706344391,40.14758084249447
pt.ine.add.PTCONT.1127977,,,3220-533,VILA NOVA MCV,-8.272776651885001,40.06214153186356
pt.ine.add.PTCONT.1127980,RECTA DE GODINHELA,,3220-237,MIRANDA DO CORVO,-8.328548881296339,40.075633039856505
pt.ine.add.PTCONT.1127983,,,3220-515,VILA NOVA MCV,-8.304973688053947,40.0478505837954
pt.ine.add.PTCONT.1128015,AV JOSE FALCÃO,,3220-212,MIRANDA DO CORVO,-8.333838712201235,40.09248333626883
pt.ine.add.PTCONT.1128018,R NSA SRA DO LIVRAMENTO,,3220-170,MIRANDA DO CORVO,-8.366040401976484,40.158193809950504
pt.ine.add.PTCONT.1128023,LG RETORTA,,3220-238,MIRANDA DO CORVO,-8.363285588151792,40.05832258252839
pt.ine.add.PTCONT.1128027,R CACHANA,277,3220-041,MIRANDA DO CORVO,-8.331759182803747,40.103213111389714
pt.ine.add.PTCONT.1128032,RIBEIRA DOS VICENTES,13,3220-188,MIRANDA DO CORVO,-8.327835897500117,40.09696057988835
pt.ine.add.PTCONT.1128036,R SALAO,,3220-034,MIRANDA DO CORVO,-8.322327134187107,40.0980234161946
pt.ine.add.PTCONT.1128038,AV ARMENIO COSTA SIMÕES,,3220-186,MIRANDA DO CORVO,-8.33226202672438,40.09466552032702
pt.ine.add.PTCONT.1128043,R LOMBA,,3220-065,MIRANDA DO CORVO,-8.318467990031165,40.09337353247809
pt.ine.add.PTCONT.1128051,R CANTO,,3220-105,MIRANDA DO CORVO,-8.327263319307953,40.10180678794709
pt.ine.add.PTCONT.1128065,R CARVALHO LOPES,,3220-013,LAMAS MCV,-8.380481994140988,40.104389151704694
pt.ine.add.PTCONT.1128067,R CENTRO DO LUGAR,,3220-112,MIRANDA DO CORVO,-8.332718754036465,40.07438309203286
pt.ine.add.PTCONT.1128470,R MONTOIRO,85,3220-156,MIRANDA DO CORVO,-8.331085005215092,40.08506708908998
pt.ine.add.PTCONT.1128498,R JOAO PAULO II,361,3220-205,MIRANDA DO CORVO,-8.325783281362163,40.08850733549651
pt.ine.add.PTCONT.1128503,R JOAO PAULO II,361,3220-205,MIRANDA DO CORVO,-8.325783281362163,40.08850733549651
pt.ine.add.PTCONT.1128525,R CIMO DO LUGAR,86,3220-413,SEMIDE,-8.305365437521203,40.161452049822394
pt.ine.add.PTCONT.1128635,R SANTO ANTÓNIO,5,3220-442,SEMIDE,-8.338241458982363,40.172331671535
pt.ine.add.PTCONT.1128673,R SR AGONIA,35,3220-336,RIO VIDE,-8.333866116814189,40.14568175349911
pt.ine.add.PTCONT.1129951,,,3220-516,VILA NOVA MCV,-8.310666460444262,40.06947465223589
pt.ine.add.PTCONT.1129952,,,3220-505,VILA NOVA MCV,-8.308096007442588,40.04528817257631
pt.ine.add.PTCONT.1129976,R POMBAL,,3220-036,MIRANDA DO CORVO,-8.305496078393247,40.083090637466164
pt.ine.add.PTCONT.1129977,R CABECO,,3220-323,RIO VIDE,-8.331413705185662,40.133672012543606
pt.ine.add.PTCONT.1129928,R DR CARLOS MOTA PINTO,327,3220-201,MIRANDA DO CORVO,-8.333336631704876,40.08921500984488
pt.ine.add.PTCONT.1129929,R DR CARLOS MOTA PINTO,327,3220-201,MIRANDA DO CORVO,-8.333336631704876,40.08921500984488
pt.ine.add.PTCONT.1129930,R S EUFEMIA,,3220-404,SEMIDE,-8.349235977060383,40.17788633175966
pt.ine.add.PTCONT.1129934,R DR CARLOS MOTA PINTO,327,3220-201,MIRANDA DO CORVO,-8.333336631704876,40.08921500984488
pt.ine.add.PTCONT.1129935,R DR CARLOS MOTA PINTO,327,3220-201,MIRANDA DO CORVO,-8.333336631704876,40.08921500984488
pt.ine.add.PTCONT.1129936,R DR CARLOS MOTA PINTO,327,3220-201,MIRANDA DO CORVO,-8.333336631704876,40.08921500984488
pt.ine.add.PTCONT.1129937,R DR CARLOS MOTA PINTO,327,3220-201,MIRANDA DO CORVO,-8.333336631704876,40.08921500984488
pt.ine.add.PTCONT.1129938,R DR CARLOS MOTA PINTO,327,3220-201,MIRANDA DO CORVO,-8.333336631704876,40.08921500984488
pt.ine.add.PTCONT.1129939,R DR CARLOS MOTA PINTO,327,3220-201,MIRANDA DO CORVO,-8.333336631704876,40.08921500984488
pt.ine.add.PTCONT.1129940,R DR CARLOS MOTA PINTO,327,3220-201,MIRANDA DO CORVO,-8.333336631704876,40.08921500984488
pt.ine.add.PTCONT.1129941,R DR CARLOS MOTA PINTO,327,3220-201,MIRANDA DO CORVO,-8.333336631704876,40.08921500984488
pt.ine.add.PTCONT.1129942,R DR CARLOS MOTA PINTO,327,3220-201,MIRANDA DO CORVO,-8.333336631704876,40.08921500984488
pt.ine.add.PTCONT.1129943,R DR CARLOS MOTA PINTO,327,3220-201,MIRANDA DO CORVO,-8.333336631704876,40.08921500984488
pt.ine.add.PTCONT.1129944,R DR CARLOS MOTA PINTO,327,3220-201,MIRANDA DO CORVO,-8.333336631704876,40.08921500984488
pt.ine.add.PTCONT.1129945,R DR CARLOS MOTA PINTO,327,3220-201,MIRANDA DO CORVO,-8.333336631704876,40.08921500984488
pt.ine.add.PTCONT.1129946,R DR CARLOS MOTA PINTO,327,3220-201,MIRANDA DO CORVO,-8.333336631704876,40.08921500984488
pt.ine.add.PTCONT.1129947,R DR CARLOS MOTA PINTO,327,3220-201,MIRANDA DO CORVO,-8.333336631704876,40.08921500984488
pt.ine.add.PTCONT.1129948,R DR CARLOS MOTA PINTO,327,3220-201,MIRANDA DO CORVO,-8.333336631704876,40.08921500984488
pt.ine.add.PTCONT.1129949,R SERRADA,,3220-089,MIRANDA DO CORVO,-8.290597114976253,40.08442673587572
pt.ine.add.PTCONT.1129950,R LADEIRA,,3220-242,MIRANDA DO CORVO,-8.29358755453754,40.07968544155391
pt.ine.add.PTCONT.1129956,R DR CARLOS MOTA PINTO,327,3220-201,MIRANDA DO CORVO,-8.333336631704876,40.08921500984488
pt.ine.add.PTCONT.1129957,R DR CARLOS MOTA PINTO,327,3220-201,MIRANDA DO CORVO,-8.333336631704876,40.08921500984488
pt.ine.add.PTCONT.1129958,R HENRIQUE MESQUITA,47,3220-232,MIRANDA DO CORVO,-8.311585718647589,40.07584954305519
pt.ine.add.PTCONT.1129960,R PORTELA,,3220-240,MIRANDA DO CORVO,-8.304833401867228,40.07132969214231
pt.ine.add.PTCONT.1129961,R LAGAR,,3220-240,MIRANDA DO CORVO,-8.304316029084967,40.070700032190786
pt.ine.add.PTCONT.1129962,R RIBEIRO,,3220-403,SEMIDE,-8.326990288009668,40.174962775404225
pt.ine.add.PTCONT.1129963,R MIGUEL TORGA,,3220-524,VILA NOVA MCV,-8.318532478065634,40.05662864765941
pt.ine.add.PTCONT.1129965,EN 17,,3220-419,SEMIDE,-8.318127630741634,40.175472602792574
pt.ine.add.PTCONT.1129966,,,3220-513,VILA NOVA MCV,-8.310666674400585,40.03794426859883
pt.ine.add.PTCONT.1129969,R S PEDRO,331,3220-115,MIRANDA DO CORVO,-8.319042509161678,40.08472680179893
pt.ine.add.PTCONT.1129970,,,3220-423,SEMIDE,-8.319981375112839,40.170732511213764
pt.ine.add.PTCONT.1129978,R ESTRADA NACIONAL,,3220-318,RIO VIDE,-8.332561223919123,40.13286850950726
pt.ine.add.PTCONT.1129979,ESTR EIRAS,,3220-036,MIRANDA DO CORVO,-8.307639130075932,40.08208775553661
pt.ine.add.PTCONT.1129980,LG JOÃO DIAS,,3220-036,MIRANDA DO CORVO,-8.30689146774205,40.08315159499661
pt.ine.add.PTCONT.1129984,R CIMO DO LUGAR,,3220-413,SEMIDE,-8.305517349195203,40.16118164551227
pt.ine.add.PTCONT.1129985,,,3220-517,VILA NOVA MCV,-8.326015810755461,40.05456303806899
pt.ine.add.PTCONT.1129988,R LOUREIROS,,3220-332,RIO VIDE,-8.336488581431006,40.127836338767914
pt.ine.add.PTCONT.1129989,R PENELA,38,3220-155,MIRANDA DO CORVO,-8.328127237067521,40.083991379261896
pt.ine.add.PTCONT.1129990,TV ESCOLA VELHA,,3220-423,SEMIDE,-8.335963098676052,40.16023171567221
pt.ine.add.PTCONT.1129992,R S CATARINA,12,3220-194,MIRANDA DO CORVO,-8.32724098244711,40.089819785191516
pt.ine.add.PTCONT.1129993,R S CATARINA,12,3220-194,MIRANDA DO CORVO,-8.32724098244711,40.089819785191516
pt.ine.add.PTCONT.1129994,R S CATARINA,12,3220-194,MIRANDA DO CORVO,-8.32724098244711,40.089819785191516
pt.ine.add.PTCONT.1129995,R S CATARINA,12,3220-194,MIRANDA DO CORVO,-8.32724098244711,40.089819785191516
pt.ine.add.PTCONT.1129996,R S CATARINA,12,3220-194,MIRANDA DO CORVO,-8.32724098244711,40.089819785191516
pt.ine.add.PTCONT.1129997,R S CATARINA,12,3220-194,MIRANDA DO CORVO,-8.32724098244711,40.089819785191516
pt.ine.add.PTCONT.1129998,R S CATARINA,12,3220-194,MIRANDA DO CORVO,-8.32724098244711,40.089819785191516
pt.ine.add.PTCONT.1129999,R S CATARINA,12,3220-194,MIRANDA DO CORVO,-8.32724098244711,40.089819785191516
pt.ine.add.PTCONT.1130000,R S CATARINA,12,3220-194,MIRANDA DO CORVO,-8.32724098244711,40.089819785191516
pt.ine.add.PTCONT.1130001,R S CATARINA,12,3220-194,MIRANDA DO CORVO,-8.32724098244711,40.089819785191516
pt.ine.add.PTCONT.1130002,R S CATARINA,12,3220-194,MIRANDA DO CORVO,-8.32724098244711,40.089819785191516
pt.ine.add.PTCONT.1130003,,,3220-303,RIO VIDE,-8.299139261825708,40.14495323188974
pt.ine.add.PTCONT.1130005,LG SANTO,11,3220-081,MIRANDA DO CORVO,-8.288793826260289,40.085455864370076
pt.ine.add.PTCONT.1130006,R IGREJA,310,3220-336,RIO VIDE,-8.328100737260037,40.14452983584185
pt.ine.add.PTCONT.1130007,R SR AGONIA,7,3220-336,RIO VIDE,-8.332173545099943,40.144766067216764
pt.ine.add.PTCONT.1130009,R PRINCIPAL,227,3220-102,MIRANDA DO CORVO,-8.297236862029173,40.08586749441126
pt.ine.add.PTCONT.1130010,,,3220-515,VILA NOVA MCV,-8.304896857797726,40.04992210435835
pt.ine.add.PTCONT.1130078,R CHA,,3220-164,MIRANDA DO CORVO,-8.36587432445724,40.15768080533806
pt.ine.add.PTCONT.1130088,LG CARREIRA,,3220-018,LAMAS MCV,-8.375643432449007,40.069518954656914
pt.ine.add.PTCONT.1130089,R NOVA,,3220-031,MIRANDA DO CORVO,-8.316052254573949,40.09771828523727
pt.ine.add.PTCONT.1130101,R LOMBO,,3220-012,LAMAS MCV,-8.385644094750583,40.09531794755283
pt.ine.add.PTCONT.1130102,QTA ROSSAS,51,3220-241,MIRANDA DO CORVO,-8.358454952445685,40.12887639837179
pt.ine.add.PTCONT.1130103,R QUELHAS,,3220-034,MIRANDA DO CORVO,-8.321426054010287,40.09871834952144
pt.ine.add.PTCONT.1130104,R MÁRIO DE ALMEIDA,,3220-211,MIRANDA DO CORVO,-8.333572153747392,40.093555517168426
pt.ine.add.PTCONT.1130105,R MÁRIO DE ALMEIDA,,3220-211,MIRANDA DO CORVO,-8.333572153747392,40.093555517168426
pt.ine.add.PTCONT.1130108,R MÁRIO DE ALMEIDA,,3220-211,MIRANDA DO CORVO,-8.333572153747392,40.093555517168426
pt.ine.add.PTCONT.1130111,R LIBERDADE,73,3220-137,MIRANDA DO CORVO,-8.356681259507088,40.117496258157615
pt.ine.add.PTCONT.1130114,R CANTO,,3220-105,MIRANDA DO CORVO,-8.327145734177673,40.101698912606665
pt.ine.add.PTCONT.1130115,R NSA SRA DA CONCEIÇÃO,80,3220-144,MIRANDA DO CORVO,-8.358531880594835,40.11664610657922
pt.ine.add.PTCONT.1130118,R BAIRRO NOVO,,3220-013,LAMAS MCV,-8.380971670264586,40.103586568878065
pt.ine.add.PTCONT.1130119,BR DR FRANCISCO SA CARNEIRO,72,3220-032,MIRANDA DO CORVO,-8.329535299584128,40.096606475034186
pt.ine.add.PTCONT.1130120,R ARMENIO COSTA SIMOES,14,3220-186,MIRANDA DO CORVO,-8.332602202809367,40.09470095913426
pt.ine.add.PTCONT.1130121,AV ARMENIO DA COSTA SIMÕES,2,3220-186,MIRANDA DO CORVO,-8.33273069532543,40.09452962297037
pt.ine.add.PTCONT.1130548,R AIRES CAETANO JUNIOR,,3220-017,LAMAS MCV,-8.376384904971431,40.08353083817628
pt.ine.add.PTCONT.1130557,R S CATARINA,12,3220-194,MIRANDA DO CORVO,-8.32724098244711,40.089819785191516
pt.ine.add.PTCONT.1130565,R ISIDORO SILVA,,3220-524,VILA NOVA MCV,-8.317321988605103,40.05539674240877
pt.ine.add.PTCONT.1130568,R DR CARLOS MOTA PINTO,327,3220-201,MIRANDA DO CORVO,-8.333336631704876,40.08921500984488
pt.ine.add.PTCONT.1130572,ZN INDUSTRIAL,,3220-119,MIRANDA DO CORVO,-8.326682771114609,40.083174250552474
pt.ine.add.PTCONT.1130675,R NOSSA SENHORA LIVRAMENTO,,3220-170,MIRANDA DO CORVO,-8.363949819315772,40.15781074117542
pt.ine.add.PTCONT.1130687,R S CATARINA,12,3220-194,MIRANDA DO CORVO,-8.32724098244711,40.089819785191516
pt.ine.add.PTCONT.1130790,,,3220-506,VILA NOVA MCV,-8.313348816677667,40.06424697964247
pt.ine.add.PTCONT.1132302,,,3220-013,LAMAS MCV,-8.38153235765986,40.10296395208141
pt.ine.add.PTCONT.1132303,,,3220-013,LAMAS MCV,-8.37910680877915,40.10356352644383
pt.ine.add.PTCONT.1132325,R LAPA,,3220-017,LAMAS MCV,-8.37628236315251,40.08436861650754
pt.ine.add.PTCONT.1132195,,,3220-515,VILA NOVA MCV,-8.303934241830797,40.0492570750911
pt.ine.add.PTCONT.1132197,R BACELO,,3220-232,MIRANDA DO CORVO,-8.31536179526213,40.076275955504165
pt.ine.add.PTCONT.1132200,,,3220-514,VILA NOVA MCV,-8.310078589432523,40.04161066296755
pt.ine.add.PTCONT.1132201,R ESCOLA,,3220-442,SEMIDE,-8.342772335588363,40.17589890459349
pt.ine.add.PTCONT.1132202,,,3220-514,VILA NOVA MCV,-8.3109214776465,40.04131217037612
pt.ine.add.PTCONT.1132205,R CARRIL,2,3220-091,MIRANDA DO CORVO,-8.298235736433432,40.086793698827414
pt.ine.add.PTCONT.1132206,R PEDRO SANTOS,,3220-355,RIO VIDE,-8.317051992205775,40.12928278127952
pt.ine.add.PTCONT.1132207,CAM PORTA VENTO,42,3220-403,SEMIDE,-8.325386810138982,40.17672160308743
pt.ine.add.PTCONT.1132208,R BIJADINHA,157,3220-432,SEMIDE,-8.343756127257745,40.152328592915005
pt.ine.add.PTCONT.1132209,,,3220-534,VILA NOVA MCV,-8.329590137759306,40.05857375312154
pt.ine.add.PTCONT.1132210,,,3220-503,VILA NOVA MCV,-8.320512094966555,40.04339548304849
pt.ine.add.PTCONT.1132214,R JOSE FALCÃO,,3220-206,MIRANDA DO CORVO,-8.333534544085717,40.09272702617436
pt.ine.add.PTCONT.1132239,,,3220-510,VILA NOVA MCV,-8.320291440937718,40.05269015117898
pt.ine.add.PTCONT.1132218,R PRINCIPAL,,3220-302,RIO VIDE,-8.328104356379434,40.137586226766736
pt.ine.add.PTCONT.1132220,R BARROCA,,3220-422,SEMIDE,-8.319840745854288,40.17082279734835
pt.ine.add.PTCONT.1132223,R POMBAL,,3220-036,MIRANDA DO CORVO,-8.305906348823237,40.08305400195996
pt.ine.add.PTCONT.1132224,R DR JOSE ISIDORO DA SILVA,,3220-525,VILA NOVA MCV,-8.317593585297022,40.05615282300025
pt.ine.add.PTCONT.1132225,R DR FAUSTO LOBO,46,3220-202,MIRANDA DO CORVO,-8.330925632459568,40.09076819269629
pt.ine.add.PTCONT.1132226,R CABO DA RUA,,3220-413,SEMIDE,-8.301588935391036,40.16273644986621
pt.ine.add.PTCONT.1132227,,,3220-411,SEMIDE,-8.351481596113416,40.16053670834055
pt.ine.add.PTCONT.1132230,,,3220-517,VILA NOVA MCV,-8.326606075351409,40.05607507924078
pt.ine.add.PTCONT.1132232,R DR EDMUNDO BENTO,,3220-423,SEMIDE,-8.336760034883072,40.15981604353415
pt.ine.add.PTCONT.1132234,R PENELA,,3220-155,MIRANDA DO CORVO,-8.327912315554414,40.08263182580048
pt.ine.add.PTCONT.1132235,R SR AGONIA,434,3220-336,RIO VIDE,-8.333243350427184,40.14541265260856
pt.ine.add.PTCONT.1132236,R REI,,3220-415,SEMIDE,-8.333601992312225,40.15563379101536
pt.ine.add.PTCONT.1132237,R AZENHA,,3220-522,VILA NOVA MCV,-8.316382276793925,40.0546056954202
pt.ine.add.PTCONT.1132291,R VALE DA ESTRECADA,,3220-017,LAMAS MCV,-8.378271019646759,40.079825372256416
pt.ine.add.PTCONT.1132295,R BAIRRO NOVO,16,3220-031,MIRANDA DO CORVO,-8.316920860940247,40.09801410939099
pt.ine.add.PTCONT.1132296,R EGIDIO DE OLIVEIRA,,3220-018,LAMAS MCV,-8.375677163926872,40.072418839987165
pt.ine.add.PTCONT.1132304,R S SILVESTRE,,3220-047,MIRANDA DO CORVO,-8.328256555377314,40.100535268268814
pt.ine.add.PTCONT.1132310,R NSA SRA DA CONCEIÇÃO,155,3220-144,MIRANDA DO CORVO,-8.359471412450736,40.11697749630588
pt.ine.add.PTCONT.1132314,R LAPAS,,3220-142,MIRANDA DO CORVO,-8.3564430553424,40.116397985133254
pt.ine.add.PTCONT.1132315,R FERNANDO COIMBRA,65,3220-234,MIRANDA DO CORVO,-8.325683565878188,40.09889147021845
pt.ine.add.PTCONT.1132320,QTA ZAMBUJEIRO,,3220-231,MIRANDA DO CORVO,-8.326364607254165,40.09090197650364
pt.ine.add.PTCONT.1132324,R COSTA,,3220-017,LAMAS MCV,-8.375393929600175,40.08511798049017
pt.ine.add.PTCONT.1134237,R CABECO,,3220-414,SEMIDE,-8.307469580595551,40.14427454703434
pt.ine.add.PTCONT.1132776,R S MATEUS,,3220-350,RIO VIDE,-8.317467765149118,40.131182383618906
pt.ine.add.PTCONT.1132781,R NSA SRA BOAVI AGEN,567,3220-245,MIRANDA DO CORVO,-8.3555602982303,40.158664715017444
pt.ine.add.PTCONT.1132789,R TERRA NOVA,22,3220-033,MIRANDA DO CORVO,-8.361000277540901,40.11463293651326
pt.ine.add.PTCONT.1134238,CC POÇO,,3220-078,MIRANDA DO CORVO,-8.291311372038079,40.084011483790114
pt.ine.add.PTCONT.1136291,R CABECO,,3220-402,SEMIDE,-8.314581521222834,40.1576644826059
pt.ine.add.PTCONT.1132958,R S MATEUS,137,3220-350,RIO VIDE,-8.31645264055393,40.128914486099404
pt.ine.add.PTCONT.1134281,,,3220-411,SEMIDE,-8.350680544718518,40.15963762247617
pt.ine.add.PTCONT.1133075,R PRINCIPAL SN,SN,3220-515,VILA NOVA MCV,-8.30739330922257,40.04544233573184
pt.ine.add.PTCONT.1134280,R EIRAS,,3220-036,MIRANDA DO CORVO,-8.307756949775092,40.08231272955948
pt.ine.add.PTCONT.1134236,R ALEM,,3220-090,MIRANDA DO CORVO,-8.288651691144375,40.08482563106775
pt.ine.add.PTCONT.1134239,R RAINHA SANTA,,3220-404,SEMIDE,-8.351897454985847,40.176728576232264
pt.ine.add.PTCONT.1134240,R D MANUEL BASTOS PINA,290,3220-438,SEMIDE,-8.34435157359417,40.15511034638679
pt.ine.add.PTCONT.1134241,,,3220-532,VILA NOVA MCV,-8.337724328541917,40.070393673472566
pt.ine.add.PTCONT.1134242,,,3220-507,VILA NOVA MCV,-8.318577895456821,40.06905698311075
pt.ine.add.PTCONT.1134243,R NSA SRA DE MONSSERRATE,,3220-058,MIRANDA DO CORVO,-8.29988281203502,40.07945139804707
pt.ine.add.PTCONT.1134244,R JOSE PEREIRA CARDOSO,591,3220-433,SEMIDE,-8.349654019861124,40.15426299863042
pt.ine.add.PTCONT.1134245,,,3220-514,VILA NOVA MCV,-8.310124760747712,40.041340408634795
pt.ine.add.PTCONT.1134246,,,3220-514,VILA NOVA MCV,-8.310897785435836,40.041213139332456
pt.ine.add.PTCONT.1134248,R LAGAR,,3220-240,MIRANDA DO CORVO,-8.304247812921382,40.07154670461256
pt.ine.add.PTCONT.1134250,PCT LUÍS DE CAMÕES,,3220-208,MIRANDA DO CORVO,-8.332382955149782,40.091900456789666
pt.ine.add.PTCONT.1134251,PCT LUÍS DE CAMÕES,,3220-208,MIRANDA DO CORVO,-8.332382955149782,40.091900456789666
pt.ine.add.PTCONT.1134252,PCT LUÍS DE CAMÕES,,3220-208,MIRANDA DO CORVO,-8.332382955149782,40.091900456789666
pt.ine.add.PTCONT.1134253,PCT LUÍS DE CAMÕES,,3220-208,MIRANDA DO CORVO,-8.332382955149782,40.091900456789666
pt.ine.add.PTCONT.1134254,PCT LUÍS DE CAMÕES,,3220-208,MIRANDA DO CORVO,-8.332382955149782,40.091900456789666
pt.ine.add.PTCONT.1134255,PCT LUÍS DE CAMÕES,,3220-208,MIRANDA DO CORVO,-8.332382955149782,40.091900456789666
pt.ine.add.PTCONT.1134256,PCT LUÍS DE CAMÕES,,3220-208,MIRANDA DO CORVO,-8.332382955149782,40.091900456789666
pt.ine.add.PTCONT.1134257,R S LUZIA,62,3220-232,MIRANDA DO CORVO,-8.312123908853494,40.075434433279284
pt.ine.add.PTCONT.1134258,R PRINCIPAL,,3220-524,VILA NOVA MCV,-8.325954030987749,40.06175000830961
pt.ine.add.PTCONT.1134260,PCT LUÍS DE CAMÕES,,3220-208,MIRANDA DO CORVO,-8.332382955149782,40.091900456789666
pt.ine.add.PTCONT.1134261,PCT LUÍS DE CAMÕES,,3220-208,MIRANDA DO CORVO,-8.332382955149782,40.091900456789666
pt.ine.add.PTCONT.1134262,BC PATIO,,3220-115,MIRANDA DO CORVO,-8.316402694567497,40.084091578587724
pt.ine.add.PTCONT.1134263,R S MIGUEL,,3220-403,SEMIDE,-8.327111256759407,40.17621439515321
pt.ine.add.PTCONT.1134264,LG EIRA DO POVO,13,3220-442,SEMIDE,-8.33902795293779,40.172303257656885
pt.ine.add.PTCONT.1134265,R ESCOLAS,25,3220-435,SEMIDE,-8.349152997478233,40.15171525078841
pt.ine.add.PTCONT.1134266,,,3220-503,VILA NOVA MCV,-8.318603435413612,40.043893891066176
pt.ine.add.PTCONT.1134268,R QUELHA,,3220-115,MIRANDA DO CORVO,-8.315806175238116,40.08463288448481
pt.ine.add.PTCONT.1134269,AV 1 DEZEMBRO,,3220-409,SEMIDE,-8.344015526160849,40.17168187718852
pt.ine.add.PTCONT.1134270,R ESCOLAS,,3220-435,SEMIDE,-8.34903489219052,40.15148131633721
pt.ine.add.PTCONT.1134271,R S PEDRO,,3220-115,MIRANDA DO CORVO,-8.312518766065534,40.08294488309499
pt.ine.add.PTCONT.1134274,R PINHEIRO MANSO,85,3220-070,MIRANDA DO CORVO,-8.317257018367524,40.09220467791445
pt.ine.add.PTCONT.1134275,R TRAS DAS CASAS,160,3220-115,MIRANDA DO CORVO,-8.316576366332438,40.083271752148775
pt.ine.add.PTCONT.1134276,R S JOÃO,7,3220-412,SEMIDE,-8.32571027450078,40.15824089876292
pt.ine.add.PTCONT.1134278,ESTR REAL,,3220-060,MIRANDA DO CORVO,-8.3187092531963,40.091535912628885
pt.ine.add.PTCONT.1134279,R FONTE,,3220-036,MIRANDA DO CORVO,-8.305262811022057,40.083577311711934
pt.ine.add.PTCONT.1134284,R NOVA,232,3220-402,SEMIDE,-8.320006383242033,40.15844837660759
pt.ine.add.PTCONT.1134287,R DR FAUSTO LOBO,,3220-202,MIRANDA DO CORVO,-8.329678747482026,40.08940139579621
pt.ine.add.PTCONT.1134289,R D IRIA BARATA MARQUES,,3220-100,MIRANDA DO CORVO,-8.288976295052974,40.08834656354356
pt.ine.add.PTCONT.1134290,R MONTOIRO,74,3220-156,MIRANDA DO CORVO,-8.330556888707429,40.08489687536528
pt.ine.add.PTCONT.1134291,ZN INDUSTRIAL,17,3220-119,MIRANDA DO CORVO,-8.326896086743005,40.08397543322708
pt.ine.add.PTCONT.1134292,R ESCOLA,86,3220-407,SEMIDE,-8.310195513617948,40.159130236474205
pt.ine.add.PTCONT.1134294,R CARVALHAS,29,3220-406,SEMIDE,-8.3141805958068,40.158182699030924
pt.ine.add.PTCONT.1134295,R CAPELA,,3220-443,SEMIDE,-8.31752307467043,40.14730298886601
