id,street,house,postcode,city,lon,lat
pt.ine.add.PTCONT.863924,,,5370-172,MASCARENHAS,-7.165054815732443,41.57492042931157
pt.ine.add.PTCONT.880133,,,5370-132,FRECHAS,-7.165637090404117,41.39739911471847
pt.ine.add.PTCONT.851418,,,5385-133,VALE DE GOUVINHAS,-7.1940821721598756,41.63207256992454
pt.ine.add.PTCONT.849721,BC SANTANA,30,5370-660,VALE DE SALGUEIRO,-7.235855266865721,41.59064780293524
pt.ine.add.PTCONT.849687,R 25 DE MARCO,,5385-042,FRADIZELA,-7.168545431265621,41.6440788397131
pt.ine.add.PTCONT.849688,BR FLAGOSA,,5370-132,FRECHAS,-7.161589249261622,41.388982418566876
pt.ine.add.PTCONT.849689,AV TEN MORAIS SARMENTO,,5385-081,TORRE DE DONA CHAMA,-7.126883304734616,41.655624223020716
pt.ine.add.PTCONT.849690,R FRAGATA,,5385-101,TORRE DE DONA CHAMA,-7.126666507713616,41.651813867519905
pt.ine.add.PTCONT.849691,R JOÃO JULIO DE MACEDO,,5385-112,TORRE DE DONA CHAMA,-7.129856916953815,41.64967192900829
pt.ine.add.PTCONT.849692,R BAIRRO DO PINHEIRO,11,5385-087,TORRE DE DONA CHAMA,-7.125454707664628,41.651001942905175
pt.ine.add.PTCONT.849693,SALSA,,5385-073,TORRE DE DONA CHAMA,-7.128997625290353,41.62538206527953
pt.ine.add.PTCONT.849694,LUGAR DA SALSA,,5385-073,TORRE DE DONA CHAMA,-7.129726986323838,41.625550497075764
pt.ine.add.PTCONT.849711,R IGREJA,,5370-137,FRECHAS,-7.130603876906417,41.398026592367124
pt.ine.add.PTCONT.849712,EN 213,,5370-132,FRECHAS,-7.165451277018111,41.388159596105865
pt.ine.add.PTCONT.849713,BR VILA NORDESTE,117,5370-132,FRECHAS,-7.169798847751009,41.38278475197076
pt.ine.add.PTCONT.849714,BR SEIXO,3,5370-152,LAMAS DE ORELHÃO,-7.287143544426662,41.438432814355146
pt.ine.add.PTCONT.849715,BR SEIXO,19,5370-152,LAMAS DE ORELHÃO,-7.287031893070535,41.43873812326149
pt.ine.add.PTCONT.849716,R NOVA,,5370-160,MARMELOS,-7.190311890998503,41.432520803801026
pt.ine.add.PTCONT.849717,R OURO,,5370-652,VALE DE ASNES,-7.056384180616882,41.46456001090486
pt.ine.add.PTCONT.849718,,,5370-651,VALE DE ASNES,-7.079796455358548,41.45646635709501
pt.ine.add.PTCONT.849719,R NEGRILHOS,,5385-133,VALE DE GOUVINHAS,-7.20270015547113,41.62780296066451
pt.ine.add.PTCONT.849720,R ALMINHAS,10,5385-133,VALE DE GOUVINHAS,-7.199692836816156,41.628309786310496
pt.ine.add.PTCONT.849722,BC ANTÓNIO CALHO,9,5370-660,VALE DE SALGUEIRO,-7.235808070486014,41.59145775631844
pt.ine.add.PTCONT.849734,R ALMINHAS,10,5370-173,MASCARENHAS,-7.138724239192337,41.56319814099028
pt.ine.add.PTCONT.849735,R CASTELO,79,5370-173,MASCARENHAS,-7.136046442587669,41.56114914326179
pt.ine.add.PTCONT.849736,R CONDE,7,5370-175,MASCARENHAS,-7.153794736224186,41.54880468125556
pt.ine.add.PTCONT.849737,R IGREJA,15,5370-690,VILA VERDE MDL,-7.113356707262312,41.44570317178621
pt.ine.add.PTCONT.849747,LG RECREIO,5,5370-276,,-7.191743203443403,41.4866181262953
pt.ine.add.PTCONT.849748,AV COMUNIDADES EUROPEIAS,480,5370-205,MIRANDELA,-7.176142493309473,41.494664747554914
pt.ine.add.PTCONT.849749,R HERAS,38,5370-355,MIRANDELA,-7.171752215268569,41.49110768449205
pt.ine.add.PTCONT.849768,AV COMUNIDADES EUROPEIAS,313,5370-205,MIRANDELA,-7.176737769557595,41.49327412489425
pt.ine.add.PTCONT.849769,AV COMUNIDADES EUROPEIAS,307,5370-205,MIRANDELA,-7.176737769557595,41.49327412489425
pt.ine.add.PTCONT.849770,R CAP ILIDIO ESTEVES,16,5370-313,MIRANDELA,-7.176240076090944,41.49128916957186
pt.ine.add.PTCONT.849771,R CAP ILIDIO ESTEVES,16,5370-313,MIRANDELA,-7.176240076090944,41.49128916957186
pt.ine.add.PTCONT.849772,R CAP ILIDIO ESTEVES,15,5370-313,MIRANDELA,-7.176240076090944,41.49128916957186
pt.ine.add.PTCONT.849773,R CAP ILIDIO ESTEVES,,5370-313,MIRANDELA,-7.17632190218453,41.49142490595469
pt.ine.add.PTCONT.849797,R DEFICIENTES DAS FORÇAS ARMADAS,72,5370-302,MIRANDELA,-7.17254723551007,41.48997985986609
pt.ine.add.PTCONT.849798,R DEFICIENTES DAS FORÇAS ARMADAS,72,5370-302,MIRANDELA,-7.17254723551007,41.48997985986609
pt.ine.add.PTCONT.849799,R ARTISTAS MIRANDELENSES,156,5370-415,MIRANDELA,-7.177070831247788,41.486911270263775
pt.ine.add.PTCONT.849800,R ARTISTAS MIRANDELENSES,156,5370-415,MIRANDELA,-7.177070831247788,41.486911270263775
pt.ine.add.PTCONT.849801,R ARTISTAS MIRANDELENSES,156,5370-415,MIRANDELA,-7.177070831247788,41.486911270263775
pt.ine.add.PTCONT.849802,R D JOAO III,66,5370-411,MIRANDELA,-7.196252735244841,41.48777140914016
pt.ine.add.PTCONT.849803,R D JOAO III,72,5370-411,MIRANDELA,-7.196252735244841,41.48777140914016
pt.ine.add.PTCONT.849825,R S BENTO,104,5370-363,MIRANDELA,-7.196339920809973,41.48504399124016
pt.ine.add.PTCONT.849826,R COMBATENTES DA GRANDE GUERRA,18,5370-418,MIRANDELA,-7.180528413283322,41.4862916915666
pt.ine.add.PTCONT.849827,R COMBATENTES DA GRANDE GUERRA,18,5370-418,MIRANDELA,-7.180528413283322,41.4862916915666
pt.ine.add.PTCONT.849828,R CLEMENTE MENERES,52,5370-321,MIRANDELA,-7.17935247138812,41.484013008704586
pt.ine.add.PTCONT.849829,R CLEMENTE MENERES,52,5370-321,MIRANDELA,-7.17935247138812,41.484013008704586
pt.ine.add.PTCONT.849844,R D MARIA II,427,5370-413,MIRANDELA,-7.193233778452173,41.48538780303349
pt.ine.add.PTCONT.849845,R ENG JOSE MACHADO VAZ,798,5370-440,MIRANDELA,-7.192223568192214,41.48403798841999
pt.ine.add.PTCONT.849846,R VALE DA CERDEIRA,1A,5370-405,MIRANDELA,-7.193314447180036,41.48229118050756
pt.ine.add.PTCONT.849847,R CONVENTO,570,5370-383,MIRANDELA,-7.173810794810201,41.48468721834304
pt.ine.add.PTCONT.849848,R MONTEVIDEU,41,5370-358,MIRANDELA,-7.1830793141087295,41.48380075264341
pt.ine.add.PTCONT.849849,R PESCADORES,104,5370-421,MIRANDELA,-7.185595546860359,41.481210429025914
pt.ine.add.PTCONT.849850,R PESCADORES,104,5370-421,MIRANDELA,-7.185595546860359,41.481210429025914
pt.ine.add.PTCONT.849865,R FRAGAS,119,5370-354,MIRANDELA,-7.180930709907086,41.48253146743662
pt.ine.add.PTCONT.849866,R DR PAULO MENDO,,5370-435,MIRANDELA,-7.177060157415411,41.47949211492755
pt.ine.add.PTCONT.849867,R DR PAULO MENDO,,5370-435,MIRANDELA,-7.177060157415411,41.47949211492755
pt.ine.add.PTCONT.849868,R DR PAULO MENDO,,5370-435,MIRANDELA,-7.177060157415411,41.47949211492755
pt.ine.add.PTCONT.849869,R DR PAULO MENDO,,5370-435,MIRANDELA,-7.177060157415411,41.47949211492755
pt.ine.add.PTCONT.849870,R DR PAULO MENDO,,5370-435,MIRANDELA,-7.177060157415411,41.47949211492755
pt.ine.add.PTCONT.849871,R DR PAULO MENDO,,5370-435,MIRANDELA,-7.177060157415411,41.47949211492755
pt.ine.add.PTCONT.849888,R ANTERO DE QUENTAL,447,5370-301,MIRANDELA,-7.172949999123799,41.474865974671275
pt.ine.add.PTCONT.849889,R ENG FRANCISCO FERREIRA LEMOS,75,5370-596,MIRANDELA,-7.194379598458733,41.479004513363854
pt.ine.add.PTCONT.849890,R ENG FRANCISCO FERREIRA LEMOS,75,5370-596,MIRANDELA,-7.194379598458733,41.479004513363854
pt.ine.add.PTCONT.849891,R DR FRANCISCO DA FONSECA HENRIQUES,14,5370-426,MIRANDELA,-7.1786932872369595,41.48079321128879
pt.ine.add.PTCONT.849909,R DR FRANCISCO DA FONSECA HENRIQUES,14,5370-426,MIRANDELA,-7.1786932872369595,41.48079321128879
pt.ine.add.PTCONT.849910,R DR FRANCISCO DA FONSECA HENRIQUES,14,5370-426,MIRANDELA,-7.1786932872369595,41.48079321128879
pt.ine.add.PTCONT.849911,R DR FRANCISCO DA FONSECA HENRIQUES,14,5370-426,MIRANDELA,-7.1786932872369595,41.48079321128879
pt.ine.add.PTCONT.849912,R DR FRANCISCO DA FONSECA HENRIQUES,14,5370-426,MIRANDELA,-7.1786932872369595,41.48079321128879
pt.ine.add.PTCONT.849913,R DR FRANCISCO DA FONSECA HENRIQUES,14,5370-426,MIRANDELA,-7.1786932872369595,41.48079321128879
pt.ine.add.PTCONT.849914,R MISERICÓRDIA,159,5370-343,MIRANDELA,-7.184320353851949,41.47998441350025
pt.ine.add.PTCONT.849937,R EMIGRANTE,68,5370-386,MIRANDELA,-7.184778619649223,41.478115416957436
pt.ine.add.PTCONT.849938,AV FRANCISCO SA CARNEIRO,555,5370-209,MIRANDELA,-7.191047848047175,41.4792383807646
pt.ine.add.PTCONT.849939,R BERNARDIM RIBEIRO,210,5370-308,MIRANDELA,-7.176819773117874,41.475483456568995
pt.ine.add.PTCONT.849940,R BERNARDIM RIBEIRO,210,5370-308,MIRANDELA,-7.176819773117874,41.475483456568995
pt.ine.add.PTCONT.849941,R BERNARDIM RIBEIRO,210,5370-308,MIRANDELA,-7.176819773117874,41.475483456568995
pt.ine.add.PTCONT.849942,R BERNARDIM RIBEIRO,210,5370-308,MIRANDELA,-7.176819773117874,41.475483456568995
pt.ine.add.PTCONT.849943,R BERNARDIM RIBEIRO,210,5370-308,MIRANDELA,-7.176819773117874,41.475483456568995
pt.ine.add.PTCONT.849944,R BERNARDIM RIBEIRO,210,5370-308,MIRANDELA,-7.176819773117874,41.475483456568995
pt.ine.add.PTCONT.849945,R BERNARDIM RIBEIRO,210,5370-308,MIRANDELA,-7.176819773117874,41.475483456568995
pt.ine.add.PTCONT.849956,R DR ADERITO RODRIGUES,,5370-023,ABREIRO,-7.329141910960678,41.3578339683223
pt.ine.add.PTCONT.849957,R PRINCIPAL,,5385-018,AGUIEIRAS,-7.185575833638682,41.71134104446369
pt.ine.add.PTCONT.849958,R SANTA CATARINA,28,5385-018,AGUIEIRAS,-7.193975316355727,41.71047364787375
pt.ine.add.PTCONT.849959,R GIL,2,5370-030,ALVITES,-7.053922033698264,41.57033855660146
pt.ine.add.PTCONT.849960,R BERNARDIM RIBEIRO,210,5370-308,MIRANDELA,-7.176819773117874,41.475483456568995
pt.ine.add.PTCONT.849961,R BERNARDIM RIBEIRO,210,5370-308,MIRANDELA,-7.176819773117874,41.475483456568995
pt.ine.add.PTCONT.849962,R BERNARDIM RIBEIRO,210,5370-308,MIRANDELA,-7.176819773117874,41.475483456568995
pt.ine.add.PTCONT.849963,R BERNARDIM RIBEIRO,210,5370-308,MIRANDELA,-7.176819773117874,41.475483456568995
pt.ine.add.PTCONT.849964,R BERNARDIM RIBEIRO,210,5370-308,MIRANDELA,-7.176819773117874,41.475483456568995
pt.ine.add.PTCONT.849976,R SA CARNEIRO,,5370-060,BARCEL,-7.239458209993042,41.37417187398527
pt.ine.add.PTCONT.849977,R JOAQUIM NOGUEIRA,,5385-031,BOUÇA,-7.215394718374458,41.650746878753054
pt.ine.add.PTCONT.849978,BC JOAQUIM NOGUEIRA,,5385-031,BOUÇA,-7.21490732846893,41.6504098574842
pt.ine.add.PTCONT.849979,CRZT BOUCA,,5385-032,BOUÇA,-7.211153247326026,41.643447124691015
pt.ine.add.PTCONT.849980,BC D DINIS,,5385-033,BOUÇA,-7.191460404532936,41.64399875250495
pt.ine.add.PTCONT.849981,AV ENG CAMILO MENDONÇA,45,5370-208,MIRANDELA,-7.181177253469118,41.476320935420986
pt.ine.add.PTCONT.849982,R CONS ABILIO BECA,79,5370-324,MIRANDELA,-7.1852445972173875,41.47571526110377
pt.ine.add.PTCONT.849983,R IGREJA,,5385-053,MÚRIAS,-7.108476355409832,41.59670487979878
pt.ine.add.PTCONT.849997,R LARANGEIRA,47,5370-070,CABANELAS MDL,-7.213716215856307,41.57540989454064
pt.ine.add.PTCONT.849998,,,5370-070,CABANELAS MDL,-7.207445107414321,41.51324347762566
pt.ine.add.PTCONT.849999,R ESCOLA,78,5370-075,CARAVELAS,-7.050127589991495,41.43412269104859
pt.ine.add.PTCONT.850000,R CANTEIRA,28,5370-082,CARVALHAIS MDL,-7.176068493126711,41.53546877614165
pt.ine.add.PTCONT.850001,TV SILVA,,5370-087,CARVALHAIS MDL,-7.175564193234132,41.50953403382364
pt.ine.add.PTCONT.850002,EN 15,,5370-620,ROMEU,-7.052254331219283,41.54667052734039
pt.ine.add.PTCONT.850003,R BAIRRO,,5385-057,SÃO PEDRO VELHO,-7.1548396122261835,41.689178251731676
pt.ine.add.PTCONT.850004,R PADROEIRO,15,5370-632,SÃO SALVADOR,-7.153958538441295,41.45287179036433
pt.ine.add.PTCONT.850021,R PRINCIPAL,,5370-110,COBRO,-7.260384735613721,41.41646165551793
pt.ine.add.PTCONT.850022,TV RUA DIREITA,,5385-041,FRADIZELA,-7.198512135897013,41.654383293283885
pt.ine.add.PTCONT.850023,R CANTO,7,5385-041,FRADIZELA,-7.195921458181272,41.65421814242876
pt.ine.add.PTCONT.850024,R IGREJA,160,5370-644,SUÇÃES,-7.26137588560879,41.493451584961555
pt.ine.add.PTCONT.850025,R CAPELA,154,5370-641,SUÇÃES,-7.234142767295589,41.49269271907434
pt.ine.add.PTCONT.850026,BR OPERÁRIO,12,5385-086,TORRE DE DONA CHAMA,-7.125868195014053,41.65528220397355
pt.ine.add.PTCONT.850027,R ANTONIO BERNARDO TEIXEIRA,,5385-096,TORRE DE DONA CHAMA,-7.126883304734616,41.655624223020716
pt.ine.add.PTCONT.850028,R ANTONIO BERNARDO TEIXEIRA,,5385-096,TORRE DE DONA CHAMA,-7.126883304734616,41.655624223020716
pt.ine.add.PTCONT.850069,AV 25 DE ABRIL,4,5385-132,VALE DE GOUVINHAS,-7.205659160627183,41.63401228123417
pt.ine.add.PTCONT.850090,LG PRAÇA,48,5370-135,FRECHAS,-7.163940380661412,41.4117999785313
pt.ine.add.PTCONT.850092,R CLEMENTE MENERES,52,5370-321,MIRANDELA,-7.17935247138812,41.484013008704586
pt.ine.add.PTCONT.850097,R FONTE,13,5370-053,AVIDAGOS,-7.2766761261042605,41.387285466634715
pt.ine.add.PTCONT.850104,R JOÃO AZEVEDO LOPES,116,5370-450,MIRANDELA,-7.185590167830211,41.47582615325121
pt.ine.add.PTCONT.850109,R CHÃOS,,5385-088,TORRE DE DONA CHAMA,-7.118438160642538,41.659799598082586
pt.ine.add.PTCONT.850122,R SANTO ANTÓNIO,7,5370-682,VILA BOA MDL,-7.344627297692759,41.39662201370956
pt.ine.add.PTCONT.850160,R FONTANARIO,14,5370-175,MASCARENHAS,-7.154740528237789,41.54648979980404
pt.ine.add.PTCONT.850404,R FONTES FRIAS,55,5370-489,MIRANDELA,-7.178209196063694,41.491746717185364
pt.ine.add.PTCONT.850405,R DR ADERITO RODRIGUES,50,5370-023,ABREIRO,-7.328705859981955,41.35830813103045
pt.ine.add.PTCONT.850406,R SANTA BARBARA,393,5370-110,COBRO,-7.248572362525378,41.41431856685489
pt.ine.add.PTCONT.850407,R CAPELA,13,5370-030,ALVITES,-7.103655371266378,41.57174900531665
pt.ine.add.PTCONT.850408,R FRAGAS,26,5370-174,MASCARENHAS,-7.118516558333797,41.55526950790829
pt.ine.add.PTCONT.850410,R SANTANA,45,5370-135,FRECHAS,-7.1642298777635665,41.410830003551624
pt.ine.add.PTCONT.850412,AV TERRAS DE LEDRA,11,5370-088,CARVALHAIS MDL,-7.126389591212784,41.51445324580014
pt.ine.add.PTCONT.850413,AV COMUNIDADES EUROPEIAS,798,5370-205,MIRANDELA,-7.174108981760163,41.496943753027665
pt.ine.add.PTCONT.850415,R VALE DOS FENTOS,,5370-040,AVANTOS,-7.096843026827408,41.546378744627134
pt.ine.add.PTCONT.850416,R VIDEIRA,,5385-042,FRADIZELA,-7.166437468091677,41.64377301928556
pt.ine.add.PTCONT.850417,,,5370-137,FRECHAS,-7.130915840024151,41.3979572794699
pt.ine.add.PTCONT.850420,R S MARTINHO,21,5370-010,ABAMBRES,-7.180994743290741,41.5843812424499
pt.ine.add.PTCONT.850421,BR VILA NORDESTE,104,5370-132,FRECHAS,-7.168170686056732,41.382131834578864
pt.ine.add.PTCONT.850424,R TRINTA,114,5370-010,ABAMBRES,-7.186400552959749,41.55746013062864
pt.ine.add.PTCONT.850425,R CANTO,18,5370-070,CABANELAS MDL,-7.221538516293449,41.55546615989406
pt.ine.add.PTCONT.850426,BR VILA NORDESTE,77,5370-132,FRECHAS,-7.16833734297658,41.38298859993184
pt.ine.add.PTCONT.850429,R LARGO,13,5370-070,CABANELAS MDL,-7.21901849650968,41.55481589983555
pt.ine.add.PTCONT.850430,TV FEIRA,3,5370-120,FRANCO,-7.342196386792274,41.43339516662914
pt.ine.add.PTCONT.850431,BR VILA NORDESTE,56,5370-132,FRECHAS,-7.167184562036522,41.38171838633348
pt.ine.add.PTCONT.850432,BR VILA NORDESTE,50,5370-132,FRECHAS,-7.1669798524092,41.38262605880278
pt.ine.add.PTCONT.850433,BR VILA NORDESTE,47,5370-132,FRECHAS,-7.166951148226382,41.38294995715991
pt.ine.add.PTCONT.850438,R FONTE,,5385-017,AGUIEIRAS,-7.1956171152130475,41.68926604941914
pt.ine.add.PTCONT.850439,R BARREIROS,758,5370-081,CARVALHAIS MDL,-7.170562047730381,41.522151435093754
pt.ine.add.PTCONT.850440,R ESTRADA,12,5370-110,COBRO,-7.237555968269715,41.430035071298924
pt.ine.add.PTCONT.850445,R CASTELO VELHO,1893,5370-380,MIRANDELA,-7.153712871017252,41.49543932348732
pt.ine.add.PTCONT.850446,R FONTE DO PACO,9,5370-601,NAVALHO,-7.2863509420396895,41.37786694973176
pt.ine.add.PTCONT.850447,R LAMEIRAO,3,5370-601,NAVALHO,-7.286561639241468,41.375446445796484
pt.ine.add.PTCONT.850448,EN 15,,5370-620,ROMEU,-7.057260432634676,41.5396586630692
pt.ine.add.PTCONT.850449,R FUNDO DA VILA,,5370-652,VALE DE ASNES,-7.056263360644504,41.46535120607799
pt.ine.add.PTCONT.850450,R TERRINCHA,4,5370-601,NAVALHO,-7.285819339002223,41.37645842537898
pt.ine.add.PTCONT.850451,AV ENG JOSE MACHADO VAZ,,5370-375,MIRANDELA,-7.1957054879290725,41.484201475687435
pt.ine.add.PTCONT.850452,R LUIS DE CAMÕES,102,5370-456,MIRANDELA,-7.175968383693757,41.4772050912669
pt.ine.add.PTCONT.850453,R LUIS DE CAMÕES,104,5370-456,MIRANDELA,-7.175597423724136,41.477192999924775
pt.ine.add.PTCONT.850454,R CEMITÉRIO,272,5370-644,SUÇÃES,-7.258709425067539,41.49404359725395
pt.ine.add.PTCONT.850455,R CRUZEIRO,15,5370-385,MIRANDELA,-7.181483750156515,41.48401265513596
pt.ine.add.PTCONT.850456,R PEDRO NUNES,60,5370-472,MIRANDELA,-7.183764916316593,41.4786652857282
pt.ine.add.PTCONT.850457,R SANTO AMARO,98,5370-644,SUÇÃES,-7.26188666227136,41.490187099523084
pt.ine.add.PTCONT.850458,LG SEIXO,139,5370-644,SUÇÃES,-7.2618666685282225,41.49257293798013
pt.ine.add.PTCONT.850459,R IGREJA,141,5370-644,SUÇÃES,-7.261767408036925,41.49372466381102
pt.ine.add.PTCONT.850460,R OLIVEIRINHAS,,5385-084,TORRE DE DONA CHAMA,-7.130044913883829,41.64916037304439
pt.ine.add.PTCONT.850461,R MANUEL PINTO DE AZEVEDO,162,5370-460,MIRANDELA,-7.175441443958645,41.49103942218401
pt.ine.add.PTCONT.850462,R JOÃO MARIA ALVES ESTEVES,593,5370-199,MIRANDELA,-7.192826086056271,41.47880274524949
pt.ine.add.PTCONT.850463,R DR ARMANDO GUEDES,15,5370-602,PASSOS MDL,-7.2644390211506265,41.464950865595014
pt.ine.add.PTCONT.850464,R COR JAIME NEVES,57,5370-545,MIRANDELA,-7.172200947920587,41.48991394122202
pt.ine.add.PTCONT.850465,R COR JAIME NEVES,57,5370-545,MIRANDELA,-7.172200947920587,41.48991394122202
pt.ine.add.PTCONT.850466,R COR JAIME NEVES,57,5370-545,MIRANDELA,-7.172200947920587,41.48991394122202
pt.ine.add.PTCONT.850467,R IGREJA,,5385-056,SÃO PEDRO VELHO,-7.188920695560816,41.68967940317495
pt.ine.add.PTCONT.850468,R ESCOLA,267,5370-641,SUÇÃES,-7.231325061006211,41.49294977589927
pt.ine.add.PTCONT.850469,TV S BRÁS,,5385-086,TORRE DE DONA CHAMA,-7.12354351469348,41.65577500371477
pt.ine.add.PTCONT.850470,R COR JAIME NEVES,36,5370-545,MIRANDELA,-7.17109436601994,41.49024683146997
pt.ine.add.PTCONT.850471,EN 15,17,5370-602,PASSOS MDL,-7.26440174412406,41.46146612140741
pt.ine.add.PTCONT.850472,EN 15,7,5370-602,PASSOS MDL,-7.262744655314634,41.46275914301182
pt.ine.add.PTCONT.850473,BR CAMAPCOIS,360,5370-642,SUÇÃES,-7.205313795634588,41.50478984388189
pt.ine.add.PTCONT.850474,EN 213,,5370-642,SUÇÃES,-7.201163009332578,41.48687491452856
pt.ine.add.PTCONT.850475,R VALE DA CERDEIRA,29/30,5370-405,MIRANDELA,-7.193692982271791,41.48178106036359
pt.ine.add.PTCONT.850476,R VALE CERDEIRA,27,5370-405,MIRANDELA,-7.193692982271791,41.48178106036359
pt.ine.add.PTCONT.850477,AV FREIXEDA,,5385-080,TORRE DE DONA CHAMA,-7.139024734646906,41.657692629747835
pt.ine.add.PTCONT.850478,AV FRANCISCO SA CARNEIRO,358,5370-209,MIRANDELA,-7.191432971692438,41.48075416136057
pt.ine.add.PTCONT.850479,AV FRANCISCO SA CARNEIRO,452,5370-209,MIRANDELA,-7.191404356383813,41.48024971817231
pt.ine.add.PTCONT.850480,R ESCOLA,,5385-055,MÚRIAS,-7.142792054796019,41.60767479449966
pt.ine.add.PTCONT.850481,BR NOVO,,5385-071,TORRE DE DONA CHAMA,-7.152210565233763,41.64478692301643
pt.ine.add.PTCONT.850482,AV DR TRIGO NEGREIROS,204,5370-429,MIRANDELA,-7.1902107713358445,41.48247286414117
pt.ine.add.PTCONT.850483,AV DR TRIGO DE NEGREIROS,208,5370-429,MIRANDELA,-7.1902107713358445,41.48247286414117
pt.ine.add.PTCONT.850484,AV DR TRIGO DE NEGREIROS,208,5370-429,MIRANDELA,-7.1902107713358445,41.48247286414117
pt.ine.add.PTCONT.850485,AV DR TRIGO DE NEGREIROS,208,5370-429,MIRANDELA,-7.1902107713358445,41.48247286414117
pt.ine.add.PTCONT.850486,R ANTÓNIO FERREIRA,79,5370-303,MIRANDELA,-7.1762409029460015,41.47495642570979
pt.ine.add.PTCONT.850487,R FRAGAS,,5370-632,SÃO SALVADOR,-7.152135399343491,41.447580051455425
pt.ine.add.PTCONT.850488,R BARREIRA,39,5370-632,SÃO SALVADOR,-7.151155475340759,41.44749065670372
pt.ine.add.PTCONT.850489,R FIGUEIRA DE BAIXO,20,5370-338,MIRANDELA,-7.1918319627022615,41.486276711326404
pt.ine.add.PTCONT.850490,R ROSÁRIO,58,5370-398,MIRANDELA,-7.1815296475436545,41.48496742931685
pt.ine.add.PTCONT.850491,R ENG FRANCISCO FERREIRA LEMOS,90,5370-596,MIRANDELA,-7.194458849476538,41.479320290825
pt.ine.add.PTCONT.850492,R ENG FRANCISCO FERREIRA LEMOS,90,5370-596,MIRANDELA,-7.194458849476538,41.479320290825
pt.ine.add.PTCONT.850493,R BAIRRAO NOVO,,5385-053,MÚRIAS,-7.106903609326561,41.596042597296865
pt.ine.add.PTCONT.850494,BR S GIL,303,5370-642,SUÇÃES,-7.213769217584514,41.512447860962844
pt.ine.add.PTCONT.850495,R ROSÁRIO,13,5370-398,MIRANDELA,-7.182046162588641,41.48485465322656
pt.ine.add.PTCONT.850496,R D MARIA II,63,5370-413,MIRANDELA,-7.194388559265045,41.48419073478815
pt.ine.add.PTCONT.850497,R MIRA,2,5370-463,MIRANDELA,-7.192706875758301,41.483735814464296
pt.ine.add.PTCONT.850498,R MIRA,8,5370-463,MIRANDELA,-7.192706875758301,41.483735814464296
pt.ine.add.PTCONT.850499,R PEDRO NUNES,16,5370-472,MIRANDELA,-7.183899487668871,41.478468314313325
pt.ine.add.PTCONT.850540,R CABELO,19,5370-690,VILA VERDE MDL,-7.115563832571857,41.44459724690528
pt.ine.add.PTCONT.850547,R FIOLHAL,,5370-652,VALE DE ASNES,-7.053903654975378,41.46400554488956
pt.ine.add.PTCONT.850548,LG CABEÇO,16,5370-690,VILA VERDE MDL,-7.113445957454237,41.44535281641239
pt.ine.add.PTCONT.850551,R CEMITÉRIO,,5370-651,VALE DE ASNES,-7.080376148788155,41.4576241412202
pt.ine.add.PTCONT.850555,AV 25 DE ABRIL,7,5385-132,VALE DE GOUVINHAS,-7.206040832016855,41.634177423188454
pt.ine.add.PTCONT.850565,R PALMEIRAS,15,5385-140,VALE DE TELHAS,-7.2281288291710055,41.61746284656813
pt.ine.add.PTCONT.850579,R BELA VISTA,,5385-140,VALE DE TELHAS,-7.229241403251947,41.608242972077846
pt.ine.add.PTCONT.850587,BC SANTANA,10,5370-660,VALE DE SALGUEIRO,-7.235698375133166,41.59071860695785
pt.ine.add.PTCONT.850591,R DR JOSE SILVANO,60,5370-660,VALE DE SALGUEIRO,-7.23453576839739,41.588071477753616
pt.ine.add.PTCONT.850592,R NSA SRA DA ASSUNÇAO,10,5370-682,VILA BOA MDL,-7.343837784538419,41.39467175691656
pt.ine.add.PTCONT.850709,R ESCOLA,2,5370-652,VALE DE ASNES,-7.054762883323011,41.46271706941492
pt.ine.add.PTCONT.850762,LG S JOÃO BOSCO,,5370-532,MIRANDELA,-7.18052485405946,41.474271686272054
pt.ine.add.PTCONT.850763,R DIREITA,,5370-620,ROMEU,-7.079222339470125,41.52662674071118
pt.ine.add.PTCONT.850766,R EIRAS,95,5370-160,MARMELOS,-7.206994425531611,41.425453263002034
pt.ine.add.PTCONT.850767,BR VILA NORDESTE,3,5370-132,FRECHAS,-7.169659254252863,41.38333281940621
pt.ine.add.PTCONT.850785,R CIDADE DA MAIA,158,5370-318,MIRANDELA,-7.197237602063443,41.48340361721717
pt.ine.add.PTCONT.850790,BC FUNDO DO ADRO,6,5370-632,SÃO SALVADOR,-7.152213292738635,41.44717554613329
pt.ine.add.PTCONT.850794,R DR FERREIRA DA SILVA,3,5385-111,TORRE DE DONA CHAMA,-7.126080837468639,41.652420971920755
pt.ine.add.PTCONT.850795,R D TERESA,219,5370-414,MIRANDELA,-7.193420791235282,41.4873611462486
pt.ine.add.PTCONT.850796,R DIREITA,,5370-620,ROMEU,-7.078059745630955,41.52665209426301
pt.ine.add.PTCONT.850813,R SARG EUSEBIO COELHO,16 18 26,5370-478,MIRANDELA,-7.183899487668871,41.478468314313325
pt.ine.add.PTCONT.850821,R EIRA,,5385-055,MÚRIAS,-7.141745191933771,41.60474862994519
pt.ine.add.PTCONT.850849,R SANTO ANTÓNIO,662,5370-087,CARVALHAIS MDL,-7.174197410492968,41.51043201707752
pt.ine.add.PTCONT.850850,R SANTO ANTÓNIO,662,5370-087,CARVALHAIS MDL,-7.174197410492968,41.51043201707752
pt.ine.add.PTCONT.850851,LG SANTO ANTÓNIO,6,5370-602,PASSOS MDL,-7.26709514133857,41.46414254629979
pt.ine.add.PTCONT.850852,R SANTO ANTÓNIO,49,5370-362,MIRANDELA,-7.182400717037647,41.485992053241446
pt.ine.add.PTCONT.850853,R SANTO ANTÓNIO,49,5370-362,MIRANDELA,-7.182400717037647,41.485992053241446
pt.ine.add.PTCONT.850855,R SANTO ANTÓNIO,49,5370-362,MIRANDELA,-7.182400717037647,41.485992053241446
pt.ine.add.PTCONT.851191,R FREIXOS,99,5370-588,MIRANDELA,-7.183138826410983,41.49202163727435
pt.ine.add.PTCONT.851192,R FREIXOS,99,5370-588,MIRANDELA,-7.183138826410983,41.49202163727435
pt.ine.add.PTCONT.851193,R CIMA DO POVO,3,5370-030,ALVITES,-7.054012539595647,41.57066353379072
pt.ine.add.PTCONT.851195,R TUA,33,5370-135,FRECHAS,-7.16403439412471,41.411107475793926
pt.ine.add.PTCONT.851198,R IGREJA,4,5370-030,ALVITES,-7.082304075858244,41.569394988486366
pt.ine.add.PTCONT.851199,R MANCALVO,65,5370-082,CARVALHAIS MDL,-7.177173571795427,41.53528889173877
pt.ine.add.PTCONT.851200,BC EIRA,13,5370-081,CARVALHAIS MDL,-7.163966545855583,41.51534329245237
pt.ine.add.PTCONT.851201,R PADRE MANUEL DAVID,,5385-041,FRADIZELA,-7.19431327313283,41.65335869207421
pt.ine.add.PTCONT.851202,R TERREIRO DO POVO,38,5370-135,FRECHAS,-7.164864480045045,41.41078132307062
pt.ine.add.PTCONT.851203,BR S MARTINHO,25,5370-372,MIRANDELA,-7.164320689162218,41.49641153143648
pt.ine.add.PTCONT.851205,CRZT BOUCA,,5385-032,BOUÇA,-7.209205527090662,41.641153602587735
pt.ine.add.PTCONT.851206,BR PONTE,29,5370-088,CARVALHAIS MDL,-7.140112820050745,41.51084504556816
pt.ine.add.PTCONT.851208,R MURO,8,5370-152,LAMAS DE ORELHÃO,-7.288271543407636,41.43817999291841
pt.ine.add.PTCONT.851209,LG 1 DE MAIO,42,5370-081,CARVALHAIS MDL,-7.1643015945521755,41.51376146970733
pt.ine.add.PTCONT.851210,AV TERRAS DE LEDRA,478,5370-088,CARVALHAIS MDL,-7.129622046269968,41.51224859025854
pt.ine.add.PTCONT.851212,R PRINCIPAL,,5370-102,CEDÃES,-7.106169770928053,41.50834105114185
pt.ine.add.PTCONT.851214,,,5370-021,ABREIRO,-7.306727514675624,41.36409500968601
pt.ine.add.PTCONT.851216,,,5370-103,CEDÃES,-7.081679812463199,41.50656212005054
pt.ine.add.PTCONT.851219,R SANTO ILDEFONSO,762,5370-101,CEDÃES,-7.107005598512069,41.47360328725195
pt.ine.add.PTCONT.851220,LG TANQUE,3,5370-173,MASCARENHAS,-7.139321500189764,41.56221636854838
pt.ine.add.PTCONT.851224,R PADRE EDUARDO ALMEIDA,23,5370-101,CEDÃES,-7.109509481200623,41.47120359840291
pt.ine.add.PTCONT.851225,R S JOSE,37,5370-135,FRECHAS,-7.1650952928801,41.41215184705666
pt.ine.add.PTCONT.851226,BC 25 DE ABRIL,7,5370-081,CARVALHAIS MDL,-7.164956365369458,41.514838420664226
pt.ine.add.PTCONT.851227,LG AREEIRO,21,5370-563,MIRANDELA,-7.149909000199524,41.489608485493115
pt.ine.add.PTCONT.851228,R JOÃO DE DEUS,40,5370-452,MIRANDELA,-7.172045444130067,41.48423129832405
pt.ine.add.PTCONT.851229,R JOÃO DE DEUS,28,5370-452,MIRANDELA,-7.171783390738885,41.484139071110604
pt.ine.add.PTCONT.851230,R D LUIS,206,5370-290,MIRANDELA,-7.196546949362014,41.48480257667918
pt.ine.add.PTCONT.851231,R S FRANCISCO,7,5370-365,MIRANDELA,-7.181723585215363,41.48398762810675
pt.ine.add.PTCONT.851232,R LUIS DE CAMÕES,33,5370-456,MIRANDELA,-7.174037381215575,41.47744111028179
pt.ine.add.PTCONT.851233,R S FRANCISCO DE SALES,,5370-366,MIRANDELA,-7.181182127609493,41.47598783761337
pt.ine.add.PTCONT.851234,R CEMITÉRIO,202,5370-644,SUÇÃES,-7.258796754788704,41.49378315297441
pt.ine.add.PTCONT.851235,R REPUBLICA,119,5370-347,MIRANDELA,-7.180664144787155,41.48765237693365
pt.ine.add.PTCONT.851236,R S COSME,57,5370-364,MIRANDELA,-7.182166265016615,41.48646731209689
pt.ine.add.PTCONT.851237,R CRUZEIRO,21,5370-385,MIRANDELA,-7.181545585933968,41.48387811091726
pt.ine.add.PTCONT.851238,R EIRAS,4,5370-602,PASSOS MDL,-7.261308783060192,41.46540438359955
pt.ine.add.PTCONT.851239,R VALE DA CERDEIRA,4ZC,5370-405,MIRANDELA,-7.195390717029764,41.4811196346788
pt.ine.add.PTCONT.851240,R S COSME,57,5370-364,MIRANDELA,-7.182166265016615,41.48646731209689
pt.ine.add.PTCONT.851241,R S COSME,57,5370-364,MIRANDELA,-7.182166265016615,41.48646731209689
pt.ine.add.PTCONT.851242,R CANELHA,64,5370-644,SUÇÃES,-7.2620555090423435,41.493672823747836
pt.ine.add.PTCONT.851243,R DEFICIENTES DAS FORÇAS ARMADAS,112,5370-302,MIRANDELA,-7.173123670585163,41.48986762451074
pt.ine.add.PTCONT.851244,R DEFICIENTES DAS FORÇAS ARMADAS,112,5370-302,MIRANDELA,-7.173123670585163,41.48986762451074
pt.ine.add.PTCONT.851245,R FERNANDO MORAIS,152,5370-445,MIRANDELA,-7.172810118045292,41.49082840379792
pt.ine.add.PTCONT.851246,R PADRE JOÃO,59,5370-602,PASSOS MDL,-7.263984448495095,41.46492942421851
pt.ine.add.PTCONT.851247,R BAIRRO,,5385-057,SÃO PEDRO VELHO,-7.155037770176233,41.68878378881537
pt.ine.add.PTCONT.851248,BR ESCOLAR,572,5370-644,SUÇÃES,-7.256590418814678,41.49044398191262
pt.ine.add.PTCONT.851249,BR ESCOLAR,572,5370-644,SUÇÃES,-7.256590418814678,41.49044398191262
pt.ine.add.PTCONT.851250,R OUTEIRO,,5385-057,SÃO PEDRO VELHO,-7.157565036995476,41.68925544070056
pt.ine.add.PTCONT.851251,R CEMITÉRIO,73,5370-610,PEREIRA MDL,-7.314818605717962,41.411774508073066
pt.ine.add.PTCONT.851252,R CENTRAL,96,5370-610,PEREIRA MDL,-7.31642429056634,41.411533808556
pt.ine.add.PTCONT.851253,R MIMOSA,75,5385-104,TORRE DE DONA CHAMA,-7.12421870604898,41.65789674088607
pt.ine.add.PTCONT.851254,R S SEBASTIÃO,85,5370-376,MIRANDELA,-7.174713034415057,41.49008796508086
pt.ine.add.PTCONT.851255,R JOÃO MARIA SARMENTO PIMENTEL,216,5370-326,MIRANDELA,-7.177375371747782,41.485743318132855
pt.ine.add.PTCONT.851256,R JOÃO MARIA SARMENTO PIMENTEL,216,5370-326,MIRANDELA,-7.177375371747782,41.485743318132855
pt.ine.add.PTCONT.851257,R JOÃO MARIA SARMENTO PIMENTEL,216,5370-326,MIRANDELA,-7.177375371747782,41.485743318132855
pt.ine.add.PTCONT.851258,R JOÃO MARIA SARMENTO PIMENTEL,216,5370-326,MIRANDELA,-7.177375371747782,41.485743318132855
pt.ine.add.PTCONT.851259,R JOÃO MARIA SARMENTO PIMENTEL,216,5370-326,MIRANDELA,-7.177375371747782,41.485743318132855
pt.ine.add.PTCONT.851260,R JOÃO MARIA SARMENTO PIMENTEL,216,5370-326,MIRANDELA,-7.177375371747782,41.485743318132855
pt.ine.add.PTCONT.851261,R JOÃO MARIA ALVES ESTEVES,470,5370-199,MIRANDELA,-7.193151773856297,41.47780599282732
pt.ine.add.PTCONT.851262,R ARCO,5,5370-379,MIRANDELA,-7.183028277998794,41.48565509764186
pt.ine.add.PTCONT.851263,R DR CASIMIRO PIRES,116,5370-425,MIRANDELA,-7.1886429961737734,41.48242398589683
pt.ine.add.PTCONT.851264,R ESCOLA,215,5370-610,PEREIRA MDL,-7.314525998687824,41.409359388082564
pt.ine.add.PTCONT.851265,R CENTRAL,135,5370-610,PEREIRA MDL,-7.316997652160856,41.41159190030062
pt.ine.add.PTCONT.851266,BR CONVENTO,445,5370-383,MIRANDELA,-7.173896900048135,41.48615554239195
pt.ine.add.PTCONT.851267,R CONVENTO,439,5370-383,MIRANDELA,-7.173896900048135,41.48615554239195
pt.ine.add.PTCONT.851268,URB D DINIS,,5370-210,MIRANDELA,-7.187320782743501,41.48524929379439
pt.ine.add.PTCONT.851269,URB D DINIS,,5370-210,MIRANDELA,-7.187320782743501,41.48524929379439
pt.ine.add.PTCONT.851270,URB D DINIS,,5370-210,MIRANDELA,-7.187320782743501,41.48524929379439
pt.ine.add.PTCONT.851271,URB D DINIS,,5370-210,MIRANDELA,-7.187320782743501,41.48524929379439
pt.ine.add.PTCONT.851272,URB D DINIS,,5370-210,MIRANDELA,-7.187320782743501,41.48524929379439
pt.ine.add.PTCONT.851273,R CRUZ,3,5370-632,SÃO SALVADOR,-7.151545281508131,41.44703479141539
pt.ine.add.PTCONT.851274,URB D DINIS,,5370-210,MIRANDELA,-7.187320782743501,41.48524929379439
pt.ine.add.PTCONT.851275,URB D DINIS,,5370-210,MIRANDELA,-7.187320782743501,41.48524929379439
pt.ine.add.PTCONT.851276,URB D DINIS,,5370-210,MIRANDELA,-7.187320782743501,41.48524929379439
pt.ine.add.PTCONT.851277,URB D DINIS,,5370-210,MIRANDELA,-7.187320782743501,41.48524929379439
pt.ine.add.PTCONT.851278,URB D DINIS,,5370-210,MIRANDELA,-7.187320782743501,41.48524929379439
pt.ine.add.PTCONT.851279,URB D DINIS,,5370-210,MIRANDELA,-7.187320782743501,41.48524929379439
pt.ine.add.PTCONT.851280,URB D DINIS,,5370-210,MIRANDELA,-7.187320782743501,41.48524929379439
pt.ine.add.PTCONT.851281,URB D DINIS,,5370-210,MIRANDELA,-7.187320782743501,41.48524929379439
pt.ine.add.PTCONT.851282,URB D DINIS,,5370-210,MIRANDELA,-7.187320782743501,41.48524929379439
pt.ine.add.PTCONT.851283,URB D DINIS,,5370-210,MIRANDELA,-7.187320782743501,41.48524929379439
pt.ine.add.PTCONT.851284,URB D DINIS,,5370-210,MIRANDELA,-7.187320782743501,41.48524929379439
pt.ine.add.PTCONT.851285,URB D DINIS,,5370-210,MIRANDELA,-7.187320782743501,41.48524929379439
pt.ine.add.PTCONT.851286,URB D DINIS,,5370-210,MIRANDELA,-7.187320782743501,41.48524929379439
pt.ine.add.PTCONT.851287,AV BOMBEIROS VOLUNTARIOS,60,5370-206,MIRANDELA,-7.174406186410022,41.48409793734317
pt.ine.add.PTCONT.851288,AV BOMBEIROS VOLUNTARIOS,60,5370-206,MIRANDELA,-7.174406186410022,41.48409793734317
pt.ine.add.PTCONT.851289,AV BOMBEIROS VOLUNTARIOS,60,5370-206,MIRANDELA,-7.174406186410022,41.48409793734317
pt.ine.add.PTCONT.851290,R GUERRA JUNQUEIRO,42,5370-447,MIRANDELA,-7.176097443033479,41.475756564404726
pt.ine.add.PTCONT.851291,R CARLOS LOPES,60,5370-314,MIRANDELA,-7.172167558512508,41.48407025171885
pt.ine.add.PTCONT.851292,R S JOAO,60,5370-368,MIRANDELA,-7.174406186410022,41.48409793734317
pt.ine.add.PTCONT.851293,AV BOMBEIROS VOLUNTARIOS,60,5370-206,MIRANDELA,-7.174406186410022,41.48409793734317
pt.ine.add.PTCONT.851294,R LINHA,,5370-620,ROMEU,-7.07925710868646,41.52743738530099
pt.ine.add.PTCONT.851295,BR SA LIMA,387,5370-642,SUÇÃES,-7.222042753003668,41.51527783573926
pt.ine.add.PTCONT.851296,R SOBREIROS,,5370-620,ROMEU,-7.078052460430435,41.5256256144595
pt.ine.add.PTCONT.851376,AV ALFREDO LOPES,722,5370-660,VALE DE SALGUEIRO,-7.2282100899360175,41.585032673940105
pt.ine.add.PTCONT.851381,R ESCOLA,,5370-652,VALE DE ASNES,-7.0544626804487836,41.46349757730106
pt.ine.add.PTCONT.851384,,,5370-651,VALE DE ASNES,-7.078492851924028,41.45862431046674
pt.ine.add.PTCONT.851385,R PENDAO,187,5370-660,VALE DE SALGUEIRO,-7.2563190842852,41.56556860020372
pt.ine.add.PTCONT.851399,R HORTAS,16,5385-140,VALE DE TELHAS,-7.224197328078317,41.61462272565284
pt.ine.add.PTCONT.851404,R FONTE,5,5385-133,VALE DE GOUVINHAS,-7.200685876673991,41.628515923075426
pt.ine.add.PTCONT.851611,BR VILA NORDESTE,87,5370-132,FRECHAS,-7.168733002544712,41.38291088188568
pt.ine.add.PTCONT.851614,R JOÃO MARIA SARMENTO PIMENTEL,216,5370-326,MIRANDELA,-7.177375371747782,41.485743318132855
pt.ine.add.PTCONT.851615,URB D DINIS,,5370-210,MIRANDELA,-7.187320782743501,41.48524929379439
pt.ine.add.PTCONT.851616,AV BOMBEIROS VOLUNTARIOS,60,5370-206,MIRANDELA,-7.174406186410022,41.48409793734317
pt.ine.add.PTCONT.851641,LG FEIRA,37,5370-660,VALE DE SALGUEIRO,-7.2349098839077275,41.58876767677963
pt.ine.add.PTCONT.851650,R JOÃO MARIA SARMENTO PIMENTEL,216,5370-326,MIRANDELA,-7.177375371747782,41.485743318132855
pt.ine.add.PTCONT.851653,R MANUEL PINTO DE AZEVEDO,235,5370-460,MIRANDELA,-7.174809678694175,41.49165541577737
pt.ine.add.PTCONT.851654,R CHÃOS,,5385-088,TORRE DE DONA CHAMA,-7.119129183099934,41.659373531924075
pt.ine.add.PTCONT.851658,R RAMALHO ORTIGÃO,15,5370-316,MIRANDELA,-7.176039394213792,41.474819693123926
pt.ine.add.PTCONT.851662,R SANTO ANTÓNIO,58,5370-362,MIRANDELA,-7.182487155555527,41.48581269332972
pt.ine.add.PTCONT.851711,R FRIEIRA,3,5370-602,PASSOS MDL,-7.267954131679288,41.466156852709844
pt.ine.add.PTCONT.851970,R SAMBRAS,5,5370-152,LAMAS DE ORELHÃO,-7.287891373270588,41.44442585147587
pt.ine.add.PTCONT.851972,R ESCOLA PRIMARIA,13,5370-135,FRECHAS,-7.161224871065232,41.414244118797505
pt.ine.add.PTCONT.851973,R JOSE JOAQUIM GOMES,22,5370-173,MASCARENHAS,-7.135210411201099,41.56328474404045
pt.ine.add.PTCONT.851974,R SANTA LUZIA,3,5370-172,MASCARENHAS,-7.165172929513251,41.574237151822366
pt.ine.add.PTCONT.851975,R DIREITA,2,5370-174,MASCARENHAS,-7.122533435069401,41.55979767474765
pt.ine.add.PTCONT.851981,R EIROL,71,5370-082,CARVALHAIS MDL,-7.175687145840801,41.533700887649424
pt.ine.add.PTCONT.851982,R DIREITA,,5385-041,FRADIZELA,-7.199027638308807,41.65443250128958
pt.ine.add.PTCONT.851983,R IGREJA,,5385-041,FRADIZELA,-7.198313775482942,41.65315720854724
pt.ine.add.PTCONT.851989,TV CRUZEIRO,2,5370-021,ABREIRO,-7.295042654928666,41.350765693144936
pt.ine.add.PTCONT.851990,QTA GORRAO,,5370-081,CARVALHAIS MDL,-7.168004037176727,41.508858586769705
pt.ine.add.PTCONT.851991,BC IGREJA,,5370-137,FRECHAS,-7.130692272605125,41.397721232122116
pt.ine.add.PTCONT.851993,R PEDRACA,13,5370-021,ABREIRO,-7.292943640846547,41.350453257597216
pt.ine.add.PTCONT.851994,R CASA DO POVO,31,5370-160,MARMELOS,-7.209493067402079,41.42556338845353
pt.ine.add.PTCONT.851995,LG CANTO EIRA,2,5370-176,MASCARENHAS,-7.148064350926723,41.53152279386255
pt.ine.add.PTCONT.851996,R SANTA BARBARA,4,5370-120,FRANCO,-7.342463400189817,41.437025551510814
pt.ine.add.PTCONT.851997,R COR JAIME NEVES,123,5370-545,MIRANDELA,-7.171583666031457,41.49035896770152
pt.ine.add.PTCONT.851998,R COR JAIME NEVES,123,5370-545,MIRANDELA,-7.171583666031457,41.49035896770152
pt.ine.add.PTCONT.852001,R TRINTA,99,5370-010,ABAMBRES,-7.183762944571809,41.55667307613173
pt.ine.add.PTCONT.852002,R DR JOAQUIM TRIGO DE NEGRAIS,20A,5370-052,AVIDAGOS,-7.30760152294271,41.40083726097899
pt.ine.add.PTCONT.852003,R CALVÁRIO,1,5370-052,AVIDAGOS,-7.307791476908794,41.39905585358815
pt.ine.add.PTCONT.852004,R ESTRADA,3,5370-070,CABANELAS MDL,-7.2151606737140535,41.56569754826691
pt.ine.add.PTCONT.852005,,,5370-103,CEDÃES,-7.081584297520517,41.50654323943343
pt.ine.add.PTCONT.852006,,,5370-120,FRANCO,-7.343077597393917,41.43669662892645
pt.ine.add.PTCONT.852007,BR VILA NORDESTE,119,5370-132,FRECHAS,-7.170203004575566,41.382941200683774
pt.ine.add.PTCONT.852008,R SANTA CATARINA,28,5370-160,MARMELOS,-7.206570659568528,41.425810003617485
pt.ine.add.PTCONT.852010,TV CORTINAS,,5370-087,CARVALHAIS MDL,-7.173730432989796,41.50960878751397
pt.ine.add.PTCONT.852011,R CHINCHIGUEIRA,,5370-103,CEDÃES,-7.081035597815945,41.506403166236225
pt.ine.add.PTCONT.852012,R S ROQUE,27,5370-120,FRANCO,-7.343075723641406,41.434877839540555
pt.ine.add.PTCONT.852014,R RIBEIRO,34,5370-087,CARVALHAIS MDL,-7.174025447550417,41.509098038430174
pt.ine.add.PTCONT.852020,R DIREITA,57,5370-010,ABAMBRES,-7.1856411183786335,41.53805106164024
pt.ine.add.PTCONT.852021,R EIRA,,5370-087,CARVALHAIS MDL,-7.1769708962817225,41.509176586943475
pt.ine.add.PTCONT.852022,R LADEIRA,81,5370-101,CEDÃES,-7.109030981799544,41.47270295957768
pt.ine.add.PTCONT.852023,R FRAGA,,5370-101,CEDÃES,-7.107866946439368,41.47288166755635
pt.ine.add.PTCONT.852024,R PRADO,6,5370-140,FREIXEDA,-7.108947791363932,41.41787834708231
pt.ine.add.PTCONT.852025,R POMBAL,75,5370-563,MIRANDELA,-7.14912980711924,41.489664847647084
pt.ine.add.PTCONT.852028,R PRINCIPAL,4,5385-012,AGUIEIRAS,-7.193230297044702,41.693154032709046
pt.ine.add.PTCONT.852029,R PRINCIPAL,30,5370-075,CARAVELAS,-7.053111806454374,41.435978508262764
pt.ine.add.PTCONT.852030,R CENTRO,20,5370-140,FREIXEDA,-7.1064704989692595,41.41644267056534
pt.ine.add.PTCONT.852034,R NSA SRA DE FÁTIMA,,5385-031,BOUÇA,-7.211377142860999,41.65131796303138
pt.ine.add.PTCONT.852035,R FRANCISCO ELOI ESTEVES PEREIRA,59,5370-600,MIRANDELA,-7.17583613836317,41.478869680570085
pt.ine.add.PTCONT.852036,PCT VARANDAS TUA,57,5370-180,MIRANDELA,-7.186291982616503,41.478605082635866
pt.ine.add.PTCONT.852037,PCT VARANDAS TUA,57,5370-180,MIRANDELA,-7.186291982616503,41.478605082635866
pt.ine.add.PTCONT.852038,PCT VARANDAS TUA,57,5370-180,MIRANDELA,-7.186291982616503,41.478605082635866
pt.ine.add.PTCONT.852039,PCT VARANDAS TUA,57,5370-180,MIRANDELA,-7.186291982616503,41.478605082635866
pt.ine.add.PTCONT.852040,PCT VARANDAS TUA,57,5370-180,MIRANDELA,-7.186291982616503,41.478605082635866
pt.ine.add.PTCONT.852041,PCT VARANDAS TUA,57,5370-180,MIRANDELA,-7.186291982616503,41.478605082635866
pt.ine.add.PTCONT.852042,PCT VARANDAS TUA,57,5370-180,MIRANDELA,-7.186291982616503,41.478605082635866
pt.ine.add.PTCONT.852043,PCT VARANDAS TUA,23,5370-180,MIRANDELA,-7.186291982616503,41.478605082635866
pt.ine.add.PTCONT.852044,R FIGUEIRA ALVAR,6,5370-601,NAVALHO,-7.286865400255916,41.37598891533945
pt.ine.add.PTCONT.852045,BR DR PINTO BALSEMÃO,296,5370-221,,-7.17415225746153,41.48020621241449
pt.ine.add.PTCONT.852046,R EMIGRANTE,107,5370-386,MIRANDELA,-7.184663635771196,41.477790334489754
pt.ine.add.PTCONT.852047,R IGREJA,190,5370-644,SUÇÃES,-7.261528047663034,41.49371384640555
pt.ine.add.PTCONT.852048,R LUIS DE CAMÕES,57,5370-456,MIRANDELA,-7.1742656218962635,41.47738899086055
pt.ine.add.PTCONT.852049,R CEMITÉRIO,120,5370-644,SUÇÃES,-7.258680041343345,41.49355717238769
pt.ine.add.PTCONT.852050,R DR MANUEL MARIA PIRES,160,5370-434,MIRANDELA,-7.182873149346774,41.480701768135155
pt.ine.add.PTCONT.852051,R DEFICIENTES DAS FORÇAS ARMADAS,,5370-302,MIRANDELA,-7.172879024745249,41.490216726906
pt.ine.add.PTCONT.852052,R VALE DA CERDEIRA,32,5370-405,MIRANDELA,-7.194703405204386,41.481456170770386
pt.ine.add.PTCONT.852053,R VALE DA CERDEIRA,32,5370-405,MIRANDELA,-7.194703405204386,41.481456170770386
pt.ine.add.PTCONT.852054,LG SEIXO,155,5370-644,SUÇÃES,-7.262693665281426,41.49162480382184
pt.ine.add.PTCONT.852055,BR OLIVEIRINHAS,,5385-080,TORRE DE DONA CHAMA,-7.1306941565058155,41.6467711182048
pt.ine.add.PTCONT.852056,R FERNANDO MORAIS,122,5370-445,MIRANDELA,-7.172981713920442,41.49060817682599
pt.ine.add.PTCONT.852057,R SANTA CATARINA,,5370-359,MIRANDELA,-7.203554665809587,41.482068270771684
pt.ine.add.PTCONT.852058,R COMEND MANUEL MENERES,40 42,5370-322,MIRANDELA,-7.1760567930199235,41.487470070718146
pt.ine.add.PTCONT.852059,BR ESCOLAR,700,5370-644,SUÇÃES,-7.257329134045315,41.49071972138142
pt.ine.add.PTCONT.852060,R FUNDACAO CALOUSTE GULBENKIAN,37,5370-340,MIRANDELA,-7.176603428392316,41.487753733280535
pt.ine.add.PTCONT.852061,R FUNDACAO CALOUSTE GULBENKIAN,37,5370-340,MIRANDELA,-7.176603428392316,41.487753733280535
pt.ine.add.PTCONT.852062,R FUNDACAO CALOUSTE GULBENKIAN,37,5370-340,MIRANDELA,-7.176603428392316,41.487753733280535
pt.ine.add.PTCONT.852063,R FUNDACAO CALOUSTE GULBENKIAN,37,5370-340,MIRANDELA,-7.176603428392316,41.487753733280535
pt.ine.add.PTCONT.852064,R S GONÇALO,10,5370-602,PASSOS MDL,-7.265752765095867,41.46337611445957
pt.ine.add.PTCONT.852065,R COMEND MANUEL MENERES,69,5370-322,MIRANDELA,-7.176015395066606,41.48702854418726
pt.ine.add.PTCONT.852066,R COMEND MANUEL MENERES,69,5370-322,MIRANDELA,-7.176015395066606,41.48702854418726
pt.ine.add.PTCONT.852067,R COMEND MANUEL MENERES,69,5370-322,MIRANDELA,-7.176015395066606,41.48702854418726
pt.ine.add.PTCONT.852068,R COMEND MANUEL MENERES,69,5370-322,MIRANDELA,-7.176015395066606,41.48702854418726
pt.ine.add.PTCONT.852069,R COMEND MANUEL MENERES,69,5370-322,MIRANDELA,-7.176015395066606,41.48702854418726
pt.ine.add.PTCONT.852070,R COMEND MANUEL MENERES,69,5370-322,MIRANDELA,-7.176015395066606,41.48702854418726
pt.ine.add.PTCONT.852071,R FRAGAS,43,5370-354,MIRANDELA,-7.181376677360457,41.4831474118152
pt.ine.add.PTCONT.852072,R OUTEIRO,,5370-204,MIRANDELA,-7.178637373905419,41.48297164854251
pt.ine.add.PTCONT.852073,R OLIMPIO CABRAL,9Z,5370-465,MIRANDELA,-7.184079520606483,41.475975765892365
pt.ine.add.PTCONT.852074,R OLIMPIO CABRAL,9Z,5370-465,MIRANDELA,-7.184079520606483,41.475975765892365
pt.ine.add.PTCONT.852075,R VALE DA CERDEIRA,31,5370-405,MIRANDELA,-7.193801377003972,41.481736927003546
pt.ine.add.PTCONT.852076,BC CANELHAS,32,5370-237,MIRANDELA,-7.1936357248323315,41.481600518101196
pt.ine.add.PTCONT.852077,R FRAGAS,3,5370-632,SÃO SALVADOR,-7.152360704275689,41.44771702912212
pt.ine.add.PTCONT.852078,AV ABILIO FONSECA,623,5370-610,PEREIRA MDL,-7.314496860668836,41.410727769889384
pt.ine.add.PTCONT.852079,R CENTRAL,89,5370-610,PEREIRA MDL,-7.316413684617946,41.41142568678103
pt.ine.add.PTCONT.852080,TV BARREIRA,19,5370-610,PEREIRA MDL,-7.316295672563627,41.41129879477768
pt.ine.add.PTCONT.852081,R CONVENTO,,5370-383,MIRANDELA,-7.173625483737817,41.484262497795456
pt.ine.add.PTCONT.852082,LG ADELINO MORAIS CASTRO,,5370-180,MIRANDELA,-7.185168016144086,41.481792148431175
pt.ine.add.PTCONT.852083,LG ADELINO MORAIS CASTRO,,5370-180,MIRANDELA,-7.185168016144086,41.481792148431175
pt.ine.add.PTCONT.852084,R PRINCIPAL,,5385-053,MÚRIAS,-7.113660295642123,41.598074485746785
pt.ine.add.PTCONT.852085,EN 15,,5370-620,ROMEU,-7.052975113611895,41.54656925762993
pt.ine.add.PTCONT.852086,EN 15,,5370-620,ROMEU,-7.080229114662643,41.531038733059766
pt.ine.add.PTCONT.852087,R CASA DO POVO,,5370-620,ROMEU,-7.080068674553633,41.52911048982511
pt.ine.add.PTCONT.852088,R BAIXO,15,5370-357,MIRANDELA,-7.191121961580589,41.48569466024575
pt.ine.add.PTCONT.852089,LG ADELINO MORAIS CASTRO,,5370-180,MIRANDELA,-7.185168016144086,41.481792148431175
pt.ine.add.PTCONT.852090,LG ADELINO MORAIS CASTRO,,5370-180,MIRANDELA,-7.185168016144086,41.481792148431175
pt.ine.add.PTCONT.852091,LG ADELINO MORAIS CASTRO,,5370-180,MIRANDELA,-7.185168016144086,41.481792148431175
pt.ine.add.PTCONT.852092,R SENHOR DOS AFLITOS,91,5370-399,MIRANDELA,-7.183389709228418,41.47648328496889
pt.ine.add.PTCONT.852093,R CAROLINO GONÇALVES,,5385-097,TORRE DE DONA CHAMA,-7.128120744843748,41.65324913727498
pt.ine.add.PTCONT.852094,R CENTRAL,17,5385-073,TORRE DE DONA CHAMA,-7.120424075225784,41.6303578051859
pt.ine.add.PTCONT.852095,R SENHOR DOS AFLITOS,91,5370-399,MIRANDELA,-7.183389709228418,41.47648328496889
pt.ine.add.PTCONT.852145,R SANTA BARBARA,18,5370-690,VILA VERDE MDL,-7.114070072752061,41.446762933075206
pt.ine.add.PTCONT.852147,BC NAVAREGAS,83,5370-660,VALE DE SALGUEIRO,-7.226568988170541,41.58490269870267
pt.ine.add.PTCONT.852165,R FONTE,5,5385-132,VALE DE GOUVINHAS,-7.202452497535677,41.63417543641126
pt.ine.add.PTCONT.852173,R FONTE,2,5385-133,VALE DE GOUVINHAS,-7.200888039823776,41.62864361189813
pt.ine.add.PTCONT.852178,R ALMINHAS,4,5385-133,VALE DE GOUVINHAS,-7.20045958709578,41.62839704164988
pt.ine.add.PTCONT.852179,R PALMEIRAS,,5385-140,VALE DE TELHAS,-7.228377113113863,41.61772590338048
pt.ine.add.PTCONT.852377,R LIBERDADE,260,5370-135,FRECHAS,-7.163482642281429,41.41523558222078
pt.ine.add.PTCONT.852383,R ALEXANDRE HERCULANO,13,5370-299,MIRANDELA,-7.180771025663521,41.48607761147318
pt.ine.add.PTCONT.852391,LG ADELINO MORAIS CASTRO,,5370-180,MIRANDELA,-7.185168016144086,41.481792148431175
pt.ine.add.PTCONT.852397,R POMBAL,75,5370-563,MIRANDELA,-7.14912980711924,41.489664847647084
pt.ine.add.PTCONT.852409,TV DO MANCALVO,173,5370-082,CARVALHAIS MDL,-7.180023482240932,41.53461026415058
pt.ine.add.PTCONT.852424,R OUTEIRO,,5370-040,AVANTOS,-7.099355446861466,41.54364625803605
pt.ine.add.PTCONT.852466,R SANTO ANTÓNIO,,5370-070,CABANELAS MDL,-7.212948688743256,41.57457542378366
pt.ine.add.PTCONT.852467,R SANTO ANTÓNIO,590,5370-087,CARVALHAIS MDL,-7.1743203670964455,41.510216953950994
pt.ine.add.PTCONT.852468,R SANTO ANTÓNIO,590,5370-087,CARVALHAIS MDL,-7.1743203670964455,41.510216953950994
pt.ine.add.PTCONT.852469,R SANTO ANTÓNIO,,5385-051,MÚRIAS,-7.1285102407498195,41.58951680190691
pt.ine.add.PTCONT.852508,R DIREITA,6,5370-174,MASCARENHAS,-7.1223688608925615,41.55958914562892
pt.ine.add.PTCONT.852881,R S COSME,,5370-364,MIRANDELA,-7.182929474236486,41.48586136697334
pt.ine.add.PTCONT.855202,R MEIO,7,5385-071,TORRE DE DONA CHAMA,-7.151174265999132,41.63872774175749
pt.ine.add.PTCONT.856092,R GIESTA,,5370-569,MIRANDELA,-7.1984916208875775,41.4844582466419
pt.ine.add.PTCONT.852756,R DR ADERITO RODRIGUES,4,5370-023,ABREIRO,-7.326921238011961,41.35960121659411
pt.ine.add.PTCONT.852757,BR NOVO,35,5370-030,ALVITES,-7.08609714630542,41.57357122939028
pt.ine.add.PTCONT.852758,R JOAQUIM NOGUEIRA,,5385-031,BOUÇA,-7.215803329059994,41.65071412667247
pt.ine.add.PTCONT.852761,R POMAR,15,5370-152,LAMAS DE ORELHÃO,-7.295592134968453,41.4420601470855
pt.ine.add.PTCONT.852762,R RIBEIRA DE CARVALHAIS,,5370-186,MIRANDELA,-7.176179002759914,41.497879372724235
pt.ine.add.PTCONT.852763,R C,,5370-309,MIRANDELA,-7.1696188997375385,41.4993102115478
pt.ine.add.PTCONT.852764,R C,9,5370-309,MIRANDELA,-7.1696188997375385,41.4993102115478
pt.ine.add.PTCONT.852766,R PORTELINHA,9,5370-021,ABREIRO,-7.29265714459731,41.35136056565442
pt.ine.add.PTCONT.852767,R CAMÕES,,5385-041,FRADIZELA,-7.20084088586605,41.65523052494917
pt.ine.add.PTCONT.852772,R S SEBASTIÃO,40,5370-040,AVANTOS,-7.097653370066248,41.5459178577353
pt.ine.add.PTCONT.852773,BR ENTRONCAMENTO DA BELA VISTA,8,5370-152,LAMAS DE ORELHÃO,-7.309483306389563,41.43741542390378
pt.ine.add.PTCONT.852774,R PEDRACA,,5370-021,ABREIRO,-7.294159433309895,41.35068722616368
pt.ine.add.PTCONT.852775,TV CARPINTEIRO,5,5370-040,AVANTOS,-7.096968161463414,41.543795839021314
pt.ine.add.PTCONT.852776,ESTR MUNICIPAL,,5370-102,CEDÃES,-7.109206885250511,41.51019587472496
pt.ine.add.PTCONT.852777,R PRINCIPAL,,5370-102,CEDÃES,-7.106168632738199,41.508413070252786
pt.ine.add.PTCONT.852778,R SANTA BARBARA,16,5370-120,FRANCO,-7.341814507935845,41.43725518988714
pt.ine.add.PTCONT.852779,EN 213,,5370-132,FRECHAS,-7.164551556601107,41.38916946235184
pt.ine.add.PTCONT.852780,EN 213 O OLIVAL,O OLIVAL,5370-132,FRECHAS,-7.164551556601107,41.38916946235184
pt.ine.add.PTCONT.852784,R TRINTA,110,5370-010,ABAMBRES,-7.185803904423722,41.55727514422551
pt.ine.add.PTCONT.852785,R AMOREIRAS,50,5370-010,ABAMBRES,-7.182857709414057,41.55709777170061
pt.ine.add.PTCONT.852786,R SOUTO,,5370-120,FRANCO,-7.345313721797098,41.428887618471514
pt.ine.add.PTCONT.852787,R D DINIS,,5370-410,MIRANDELA,-7.1740288858850185,41.491819977794805
pt.ine.add.PTCONT.852788,BC ESTRADA,70,5370-101,CEDÃES,-7.110746887053376,41.47244811307818
pt.ine.add.PTCONT.852789,R PRINCIPAL,116,5370-101,CEDÃES,-7.1091773095752755,41.47253319175039
pt.ine.add.PTCONT.852790,R 25 DE ABRIL,17,5370-563,MIRANDELA,-7.151627680033523,41.490775639131854
pt.ine.add.PTCONT.852791,R CARRASCAL,8,5370-070,CABANELAS MDL,-7.206562203640745,41.512155925265944
pt.ine.add.PTCONT.852792,R LIBERDADE,87,5370-563,MIRANDELA,-7.150412406954092,41.490369098893375
pt.ine.add.PTCONT.852793,R DIREITA,34,5385-017,AGUIEIRAS,-7.1963193190858865,41.688056314919955
pt.ine.add.PTCONT.852794,R FOZ,,5370-060,BARCEL,-7.241176731014079,41.36999838837275
pt.ine.add.PTCONT.852795,R EIRA VELHA,1,5370-140,FREIXEDA,-7.106822388004581,41.41764331539007
pt.ine.add.PTCONT.852796,BC COELHO,,5385-031,BOUÇA,-7.212951886388153,41.65032219151198
pt.ine.add.PTCONT.852797,R IGREJA,33,5370-075,CARAVELAS,-7.053768232525537,41.43535440665643
pt.ine.add.PTCONT.852798,R NSA SRA LURDES,205,5370-135,FRECHAS,-7.164679985955444,41.414345285072166
pt.ine.add.PTCONT.852799,R CASTELO,35,5370-173,MASCARENHAS,-7.137118276274786,41.561608612526925
pt.ine.add.PTCONT.852800,R CARVALHAL,,5385-072,TORRE DE DONA CHAMA,-7.158647722754102,41.618263378283324
pt.ine.add.PTCONT.852801,R D LUIS,141,5370-290,MIRANDELA,-7.19748736979837,41.48601672980362
pt.ine.add.PTCONT.852802,,,5370-652,VALE DE ASNES,-7.0553192488506475,41.46309143619662
pt.ine.add.PTCONT.852803,FUNDO,,5370-652,VALE DE ASNES,-7.055888577159668,41.46485249278033
pt.ine.add.PTCONT.852804,R MALHADINHAS,419,5370-584,MIRANDELA,-7.186854250912178,41.47698903788504
pt.ine.add.PTCONT.852805,LG PEDRO ÁLVARES CABRAL A,,5370-223,MIRANDELA,-7.179166641340985,41.48035595567379
pt.ine.add.PTCONT.852806,LG PEDRO ÁLVARES CABRAL A,,5370-223,MIRANDELA,-7.179166641340985,41.48035595567379
pt.ine.add.PTCONT.852807,LG PEDRO ÁLVARES CABRAL A,,5370-223,MIRANDELA,-7.179166641340985,41.48035595567379
pt.ine.add.PTCONT.852808,AV COMUNIDADES EUROPEIAS,325,5370-205,MIRANDELA,-7.17678328071504,41.493436570044246
pt.ine.add.PTCONT.852809,AV FRANCISCO SA CARNEIRO,378,5370-209,MIRANDELA,-7.1912679571894085,41.48140107873501
pt.ine.add.PTCONT.852810,LG PEDRO ÁLVARES CABRAL A,,5370-223,MIRANDELA,-7.179166641340985,41.48035595567379
pt.ine.add.PTCONT.852811,LG PEDRO ÁLVARES CABRAL A,,5370-223,MIRANDELA,-7.179166641340985,41.48035595567379
pt.ine.add.PTCONT.852812,R SEARA,6,5370-602,PASSOS MDL,-7.26816717699003,41.46543815279204
pt.ine.add.PTCONT.852813,R COR FRANCISCO SARMENTO PIMENTEL,442,5370-325,MIRANDELA,-7.174802820160662,41.48643320569589
pt.ine.add.PTCONT.852814,R CONVENTO,376,5370-383,MIRANDELA,-7.174659018436481,41.48644101114474
pt.ine.add.PTCONT.852815,R VILA MARIA,2,5370-350,MIRANDELA,-7.181475730014927,41.48374247711674
pt.ine.add.PTCONT.852816,R VILA MARIA,2,5370-350,MIRANDELA,-7.181475730014927,41.48374247711674
pt.ine.add.PTCONT.852817,R CAROLINO GONÇALVES,67,5385-097,TORRE DE DONA CHAMA,-7.127796172826095,41.651733719592144
pt.ine.add.PTCONT.852818,R DEFICIENTES FORCAS ARMADAS,56,5370-302,MIRANDELA,-7.172112285571717,41.490307418837645
pt.ine.add.PTCONT.852819,R DEFICIENTES DAS FORCAS ARMADAS,52,5370-302,MIRANDELA,-7.172112285571717,41.490307418837645
pt.ine.add.PTCONT.852820,R MISERICÓRDIA,190-192,5370-343,MIRANDELA,-7.184764236509013,41.48074438749117
pt.ine.add.PTCONT.852821,R MISERICÓRDIA,190-192,5370-343,MIRANDELA,-7.184764236509013,41.48074438749117
pt.ine.add.PTCONT.852822,TV TERREIRO,4,5370-602,PASSOS MDL,-7.262672388360815,41.46547773700187
pt.ine.add.PTCONT.852823,R SOUTO,,5385-057,SÃO PEDRO VELHO,-7.157929094572572,41.690600037199744
pt.ine.add.PTCONT.852824,R ENG JOSE MACHADO VAZ,140 1,5370-440,MIRANDELA,-7.198258777898641,41.483997164234964
pt.ine.add.PTCONT.852825,R CONVENTO,120,5370-383,MIRANDELA,-7.17664589004534,41.48812323869053
pt.ine.add.PTCONT.852826,R CONVENTO,122,5370-383,MIRANDELA,-7.17664589004534,41.48812323869053
pt.ine.add.PTCONT.852827,R JOGOS DO RIO,92,5370-197,MIRANDELA,-7.192973122525708,41.47939819358089
pt.ine.add.PTCONT.852828,R JOGOS DO RIO,92,5370-197,MIRANDELA,-7.192973122525708,41.47939819358089
pt.ine.add.PTCONT.852829,R DR ARMANDO GUEDES,31,5370-602,PASSOS MDL,-7.265575694250533,41.46498645544472
pt.ine.add.PTCONT.852830,R CALVÁRIO,,5385-057,SÃO PEDRO VELHO,-7.155096139825119,41.68572312855489
pt.ine.add.PTCONT.852831,R S MIGUEL,2,5370-374,MIRANDELA,-7.180782626999565,41.48528538025895
pt.ine.add.PTCONT.852832,R S MIGUEL,2,5370-374,MIRANDELA,-7.180782626999565,41.48528538025895
pt.ine.add.PTCONT.852833,R S MIGUEL,2,5370-374,MIRANDELA,-7.180782626999565,41.48528538025895
pt.ine.add.PTCONT.852834,R S MIGUEL,2,5370-374,MIRANDELA,-7.180782626999565,41.48528538025895
pt.ine.add.PTCONT.852835,R S MIGUEL,2,5370-374,MIRANDELA,-7.180782626999565,41.48528538025895
pt.ine.add.PTCONT.852836,AV AMOREIRAS,371,5370-204,MIRANDELA,-7.178782703642937,41.48367514481088
pt.ine.add.PTCONT.852837,R AMOREIRAS,371,5370-351,MIRANDELA,-7.178782703642937,41.48367514481088
pt.ine.add.PTCONT.852838,AV AMOREIRAS,371,5370-204,MIRANDELA,-7.178782703642937,41.48367514481088
pt.ine.add.PTCONT.852839,AV AMOREIRAS,371,5370-204,MIRANDELA,-7.178782703642937,41.48367514481088
pt.ine.add.PTCONT.852840,AV AMOREIRAS,371,5370-204,MIRANDELA,-7.178782703642937,41.48367514481088
pt.ine.add.PTCONT.852841,AV AMOREIRAS,371,5370-204,MIRANDELA,-7.178782703642937,41.48367514481088
pt.ine.add.PTCONT.852842,BR FUNDO FOMENTO HABITACAO B,B BL 3,5370-223,MIRANDELA,-7.1805462697249585,41.479349968770094
pt.ine.add.PTCONT.852843,R PADRE JOÃO,35,5370-602,PASSOS MDL,-7.264076524633025,41.46430885927362
pt.ine.add.PTCONT.852844,AV AMOREIRAS,371,5370-204,MIRANDELA,-7.178782703642937,41.48367514481088
pt.ine.add.PTCONT.852845,AV AMOREIRAS,371,5370-204,MIRANDELA,-7.178782703642937,41.48367514481088
pt.ine.add.PTCONT.852846,AV AMOREIRAS,371,5370-204,MIRANDELA,-7.178782703642937,41.48367514481088
pt.ine.add.PTCONT.852847,AV AMOREIRAS,371,5370-204,MIRANDELA,-7.178782703642937,41.48367514481088
pt.ine.add.PTCONT.852848,AV AMOREIRAS,371,5370-204,MIRANDELA,-7.178782703642937,41.48367514481088
pt.ine.add.PTCONT.852849,AV AMOREIRAS,371,5370-204,MIRANDELA,-7.178782703642937,41.48367514481088
pt.ine.add.PTCONT.852850,AV AMOREIRAS,371,5370-204,MIRANDELA,-7.178782703642937,41.48367514481088
pt.ine.add.PTCONT.852851,AV AMOREIRAS,371,5370-204,MIRANDELA,-7.178782703642937,41.48367514481088
pt.ine.add.PTCONT.852852,AV AMOREIRAS,371,5370-204,MIRANDELA,-7.178782703642937,41.48367514481088
pt.ine.add.PTCONT.852853,AV AMOREIRAS,371,5370-204,MIRANDELA,-7.178782703642937,41.48367514481088
pt.ine.add.PTCONT.852854,R JOÃO MARIA SARMENTO PIMENTEL ENTRADA Z,180,5370-326,MIRANDELA,-7.178068369693777,41.48502877719722
pt.ine.add.PTCONT.852855,R JOÃO MARIA SARMENTO PIMENTEL ENTRADA Z,180,5370-326,MIRANDELA,-7.178068369693777,41.48502877719722
pt.ine.add.PTCONT.852856,R JOÃO MARIA SARMENTO PIMENTEL ENTRADA Z,180,5370-326,MIRANDELA,-7.178068369693777,41.48502877719722
pt.ine.add.PTCONT.852857,R JOÃO MARIA SARMENTO PIMENTEL ENTRADA Z,180,5370-326,MIRANDELA,-7.178068369693777,41.48502877719722
pt.ine.add.PTCONT.852858,R JOÃO MARIA SARMENTO PIMENTEL ENTRADA Z,180,5370-326,MIRANDELA,-7.178068369693777,41.48502877719722
pt.ine.add.PTCONT.852859,R JOAO MARIA SARMENTO PIMENTEL ENT 2,180,5370-326,MIRANDELA,-7.178068369693777,41.48502877719722
pt.ine.add.PTCONT.852860,R JOÃO MARIA SARMENTO PIMENTEL ENTRADA Z,180,5370-326,MIRANDELA,-7.178068369693777,41.48502877719722
pt.ine.add.PTCONT.852861,R JOÃO MARIA SARMENTO PIMENTEL ENTRADA Z,180,5370-326,MIRANDELA,-7.178068369693777,41.48502877719722
pt.ine.add.PTCONT.852862,R JOÃO MARIA SARMENTO PIMENTEL ENTRADA Z,180,5370-326,MIRANDELA,-7.178068369693777,41.48502877719722
pt.ine.add.PTCONT.852863,R JOÃO MARIA SARMENTO PIMENTEL ENTRADA Z,180,5370-326,MIRANDELA,-7.178068369693777,41.48502877719722
pt.ine.add.PTCONT.852864,R JOÃO MARIA SARMENTO PIMENTEL ENTRADA Z,180,5370-326,MIRANDELA,-7.178068369693777,41.48502877719722
pt.ine.add.PTCONT.852865,R JOÃO MARIA SARMENTO PIMENTEL ENTRADA Z,180,5370-326,MIRANDELA,-7.178068369693777,41.48502877719722
pt.ine.add.PTCONT.852866,R JOÃO MARIA SARMENTO PIMENTEL ENTRADA Z,180,5370-326,MIRANDELA,-7.178068369693777,41.48502877719722
pt.ine.add.PTCONT.852867,R JOÃO MARIA SARMENTO PIMENTEL ENTRADA Z,180,5370-326,MIRANDELA,-7.178068369693777,41.48502877719722
pt.ine.add.PTCONT.852868,R JOÃO MARIA SARMENTO PIMENTEL ENTRADA Z,180,5370-326,MIRANDELA,-7.178068369693777,41.48502877719722
pt.ine.add.PTCONT.852869,R TARANA,300,5370-348,MIRANDELA,-7.174376745177198,41.48284617480646
pt.ine.add.PTCONT.852870,R TARANA,300,5370-348,MIRANDELA,-7.174376745177198,41.48284617480646
pt.ine.add.PTCONT.852871,R GUERRA JUNQUEIRO,115,5370-447,MIRANDELA,-7.176436510687165,41.47630861279648
pt.ine.add.PTCONT.852872,R GUERRA JUNQUEIRO,115,5370-447,MIRANDELA,-7.176436510687165,41.47630861279648
pt.ine.add.PTCONT.852873,R GUERRA JUNQUEIRO,115,5370-447,MIRANDELA,-7.176436510687165,41.47630861279648
pt.ine.add.PTCONT.852874,R GUERRA JUNQUEIRO,115,5370-447,MIRANDELA,-7.176436510687165,41.47630861279648
pt.ine.add.PTCONT.852897,R SOBREIROS,,5370-620,ROMEU,-7.077552110669563,41.52544995380155
pt.ine.add.PTCONT.852875,R GUERRA JUNQUEIRO,115,5370-447,MIRANDELA,-7.176436510687165,41.47630861279648
pt.ine.add.PTCONT.852876,R GUERRA JUNQUEIRO,115,5370-447,MIRANDELA,-7.176436510687165,41.47630861279648
pt.ine.add.PTCONT.852877,R PATEIRA,9,5385-105,TORRE DE DONA CHAMA,-7.125430574645794,41.65255032431164
pt.ine.add.PTCONT.852878,R BAIRRO DE CIMA,18,5385-085,TORRE DE DONA CHAMA,-7.125632862660495,41.651894846054496
pt.ine.add.PTCONT.852879,R JOÃO MARIA ALVES ESTEVES,456,5370-199,MIRANDELA,-7.193356059437695,41.477753639714706
pt.ine.add.PTCONT.852880,R JOÃO MARIA ALVES ESTEVES,520,5370-199,MIRANDELA,-7.192681394902195,41.478045248632654
pt.ine.add.PTCONT.852882,R DR CASIMIRO PIRES,,5370-425,MIRANDELA,-7.1890268756404465,41.48237311518015
pt.ine.add.PTCONT.852883,R ESTANCA RIOS,242,5370-222,MIRANDELA,-7.192441362328619,41.472289896643034
pt.ine.add.PTCONT.852884,R RIBEIRO,45,5370-610,PEREIRA MDL,-7.315724684241511,41.41105163503521
pt.ine.add.PTCONT.852885,R FUNDO DO POVO,65,5370-632,SÃO SALVADOR,-7.15174988258298,41.44616317149377
pt.ine.add.PTCONT.852886,R FUNDACAO CALOUSTE GULBENKIAN,261,5370-340,MIRANDELA,-7.178064080372122,41.48613619893147
pt.ine.add.PTCONT.852887,AV DR TRIGO DE NEGREIROS,220,5370-429,MIRANDELA,-7.1901764223103655,41.48236453781732
pt.ine.add.PTCONT.852888,AV DR TRIGO DE NEGREIROS,220,5370-429,MIRANDELA,-7.1901764223103655,41.48236453781732
pt.ine.add.PTCONT.852889,LG SANTO,18,5385-095,TORRE DE DONA CHAMA,-7.128043201759022,41.65514818605278
pt.ine.add.PTCONT.852890,EN 206,,5385-073,TORRE DE DONA CHAMA,-7.12443996334525,41.629861910634446
pt.ine.add.PTCONT.852891,R ENTRE VINHAS,141,5370-353,MIRANDELA,-7.190478716376083,41.482159929991724
pt.ine.add.PTCONT.852892,R ENTRE VINHAS,141,5370-353,MIRANDELA,-7.190478716376083,41.482159929991724
pt.ine.add.PTCONT.852893,R ENTRE VINHAS,141,5370-353,MIRANDELA,-7.190478716376083,41.482159929991724
pt.ine.add.PTCONT.852894,R PREGUICA,,5370-345,MIRANDELA,-7.182988099068408,41.47611081502306
pt.ine.add.PTCONT.852895,R PREGUICA,241,5370-345,MIRANDELA,-7.182988099068408,41.47611081502306
pt.ine.add.PTCONT.852896,R LUZ,,5370-620,ROMEU,-7.077604379284723,41.526656918990135
pt.ine.add.PTCONT.852949,LG SANTO APOLINARIO,34,5370-690,VILA VERDE MDL,-7.114366384610263,41.44618031350586
pt.ine.add.PTCONT.852953,R REGUEIRADAS,,5370-652,VALE DE ASNES,-7.054466143722608,41.46401082116435
pt.ine.add.PTCONT.852969,R ALMINHAS,19,5385-133,VALE DE GOUVINHAS,-7.197874236957008,41.62793486386276
pt.ine.add.PTCONT.852986,ESTR PRINCIPAL,70,5370-670,VALVERDE MDL,-7.204503295140429,41.40130289829949
pt.ine.add.PTCONT.852988,R OUTEIRO,32,5370-660,VALE DE SALGUEIRO,-7.235943896384464,41.588577671873956
pt.ine.add.PTCONT.852992,R ESCOLA,1,5370-660,VALE DE SALGUEIRO,-7.2355837141022,41.59120390491136
pt.ine.add.PTCONT.852993,QTA S SILVESTRE,,5370-670,VALVERDE MDL,-7.2130650372392395,41.38521873706238
pt.ine.add.PTCONT.853162,R CAMPO DE FUTEBOL,12,5370-644,SUÇÃES,-7.257515196645842,41.49290904528106
pt.ine.add.PTCONT.853163,R JOÃO MARIA SARMENTO PIMENTEL ENTRADA Z,180,5370-326,MIRANDELA,-7.178068369693777,41.48502877719722
pt.ine.add.PTCONT.853164,R JOÃO MARIA SARMENTO PIMENTEL ENTRADA Z,180,5370-326,MIRANDELA,-7.178068369693777,41.48502877719722
pt.ine.add.PTCONT.853167,LG PEDRO ÁLVARES CABRAL A,,5370-223,MIRANDELA,-7.179166641340985,41.48035595567379
pt.ine.add.PTCONT.853168,R JOÃO MARIA SARMENTO PIMENTEL ENTRADA Z,180,5370-326,MIRANDELA,-7.178068369693777,41.48502877719722
pt.ine.add.PTCONT.853173,R ANTÓNIO JOSÉ DE ALMEIDA,77,5370-563,MIRANDELA,-7.197498466877175,41.48274846739066
pt.ine.add.PTCONT.853174,AV AMOREIRAS,371,5370-204,MIRANDELA,-7.178782703642937,41.48367514481088
pt.ine.add.PTCONT.853178,R FUNDACAO CALOUSTE GULBENKIAN,251 261,5370-340,MIRANDELA,-7.178064080372122,41.48613619893147
pt.ine.add.PTCONT.853196,R RAMALHO URTIGÃO,110,5370-316,MIRANDELA,-7.17496913314557,41.475143920653075
pt.ine.add.PTCONT.853210,R SANTO ANTÓNIO,918,5370-087,CARVALHAIS MDL,-7.172890879760654,41.51292413762405
pt.ine.add.PTCONT.853496,R NSA SRA ENCARNAÇÃO,158,5370-195,MIRANDELA,-7.183656972628571,41.491800823154726
pt.ine.add.PTCONT.853497,R NSA SRA ENCARNAÇÃO,158,5370-195,MIRANDELA,-7.183656972628571,41.491800823154726
pt.ine.add.PTCONT.853501,R PRINCIPAL,57,5370-075,CARAVELAS,-7.052985142457472,41.43568019525546
pt.ine.add.PTCONT.853502,R VISC DA BOUCA,,5385-031,BOUÇA,-7.214610600194454,41.64932706920107
pt.ine.add.PTCONT.853503,R VALE DE PEREIRO,490,5370-081,CARVALHAIS MDL,-7.157662547725737,41.51474076966687
pt.ine.add.PTCONT.853504,R VALE DE PEREIRO,490,5370-081,CARVALHAIS MDL,-7.157662547725737,41.51474076966687
pt.ine.add.PTCONT.853506,AV DR TRIGO DE NEGREIROS,3,5370-021,ABREIRO,-7.298151040187867,41.35250804393853
pt.ine.add.PTCONT.853507,R ESCOLA,60,5370-335,MIRANDELA,-7.192291073745164,41.48682069108411
pt.ine.add.PTCONT.853513,R BARREAIS,23,5370-135,FRECHAS,-7.165221497389618,41.4109013768969
pt.ine.add.PTCONT.853514,AV DR TRIGO DE NEGREIROS,,5370-021,ABREIRO,-7.296360228421512,41.35145057767875
pt.ine.add.PTCONT.853515,LG CRUZEIRO,7,5370-030,ALVITES,-7.0835656271943765,41.568488148705626
pt.ine.add.PTCONT.853516,R FLOR DO BAIRRO,,5385-041,FRADIZELA,-7.201370280418789,41.65431646417837
pt.ine.add.PTCONT.853519,R PORTELINHA,12,5370-021,ABREIRO,-7.292957350134067,41.35124570620758
pt.ine.add.PTCONT.853520,R CAMPO DA BOLA,205,5370-088,CARVALHAIS MDL,-7.13081109756251,41.51514913453439
pt.ine.add.PTCONT.853521,R DIREITA,,5385-041,FRADIZELA,-7.197839264369492,41.653594518195476
pt.ine.add.PTCONT.853522,R FONTANARIO,10,5370-175,MASCARENHAS,-7.154499230690685,41.54659578982441
pt.ine.add.PTCONT.853523,R CASTELO VELHO,1328,5370-380,MIRANDELA,-7.160101105016888,41.49428705187211
pt.ine.add.PTCONT.853525,R OUTEIRO,5,5370-021,ABREIRO,-7.2939617922204025,41.35119000698985
pt.ine.add.PTCONT.853526,R LARANGEIRA,36,5370-070,CABANELAS MDL,-7.213736375829063,41.57483382582226
pt.ine.add.PTCONT.853530,R OUTEIRO,14,5370-040,AVANTOS,-7.117119330307922,41.5373309916394
pt.ine.add.PTCONT.853531,R DIREITA,,5370-102,CEDÃES,-7.1071575055246585,41.50798972080038
pt.ine.add.PTCONT.853532,R PENDELHA,118,5370-160,MARMELOS,-7.206281773879536,41.42761744391917
pt.ine.add.PTCONT.853534,R CASA DO POVO,131,5370-010,ABAMBRES,-7.183240047925735,41.558001291910934
pt.ine.add.PTCONT.853535,BR VILA NORDESTE,96,5370-132,FRECHAS,-7.169058802557447,41.382706522973045
pt.ine.add.PTCONT.853538,R CAPELA,1,5385-013,AGUIEIRAS,-7.181349755263745,41.71762648409053
pt.ine.add.PTCONT.853539,R ESPADANA,7,5370-052,AVIDAGOS,-7.3049826140679,41.39990004463709
pt.ine.add.PTCONT.853542,R D DINIS,34,5370-410,MIRANDELA,-7.174218070583036,41.49198362199594
pt.ine.add.PTCONT.853543,R D DINIS,40,5370-410,MIRANDELA,-7.1742651677596205,41.49203803689902
pt.ine.add.PTCONT.853544,R PRINCIPAL,45,5370-101,CEDÃES,-7.108327891763938,41.47249861566473
pt.ine.add.PTCONT.853545,ESTR PRINCIPAL,23,5370-140,FREIXEDA,-7.107818547627184,41.420470385619716
pt.ine.add.PTCONT.853547,R DIREITA,41,5370-010,ABAMBRES,-7.186941871474181,41.535135587999925
pt.ine.add.PTCONT.853548,R PRINCIPAL,15,5385-012,AGUIEIRAS,-7.193874685971458,41.6934474101857
pt.ine.add.PTCONT.853549,R NSA SRA LURDES,408,5370-135,FRECHAS,-7.164008231269785,41.41608636982624
pt.ine.add.PTCONT.853550,R PRADO,3,5370-140,FREIXEDA,-7.10850288129833,41.418027450071435
pt.ine.add.PTCONT.853551,R OLIVEIRAS,93,5370-563,MIRANDELA,-7.152291068654833,41.4896648393343
pt.ine.add.PTCONT.853555,R PRINCIPAL,44,5370-075,CARAVELAS,-7.0535701465072576,41.436478016695595
pt.ine.add.PTCONT.853556,R BOAVISTA,310,5370-329,MIRANDELA,-7.192248763071506,41.48808986949593
pt.ine.add.PTCONT.853557,R BOAVISTA,310,5370-329,MIRANDELA,-7.192248763071506,41.48808986949593
pt.ine.add.PTCONT.853558,R BOAVISTA,310,5370-329,MIRANDELA,-7.192248763071506,41.48808986949593
pt.ine.add.PTCONT.853559,R BOAVISTA,310,5370-329,MIRANDELA,-7.192248763071506,41.48808986949593
pt.ine.add.PTCONT.853560,R CIMO DO POVO,57,5370-563,MIRANDELA,-7.151685356204879,41.49012786476052
pt.ine.add.PTCONT.853562,R SOLDADOS DE PORTUGAL,,5385-031,BOUÇA,-7.214743618991403,41.65094875817052
pt.ine.add.PTCONT.853563,R LOMBINHO,3,5370-075,CARAVELAS,-7.052888461221065,41.43285210910522
pt.ine.add.PTCONT.853564,R LOMBINHO,18,5370-075,CARAVELAS,-7.053557295685387,41.43292141397933
pt.ine.add.PTCONT.853565,R PRINCIPAL,404,5370-110,COBRO,-7.259704731874895,41.41722182240576
pt.ine.add.PTCONT.853566,R PRINCIPAL,31,5370-110,COBRO,-7.2598075273348535,41.41669137564726
pt.ine.add.PTCONT.853567,,,5370-652,VALE DE ASNES,-7.054437433381322,41.464298670574124
pt.ine.add.PTCONT.853568,R CIDADE DA MAIA,,5370-318,MIRANDELA,-7.197725085258169,41.483641679730724
pt.ine.add.PTCONT.853569,LG IGREJA,210,5370-643,SUÇÃES,-7.276113209843093,41.515567432876914
pt.ine.add.PTCONT.853570,R CAPELA,,5385-058,SÃO PEDRO VELHO,-7.161901547051082,41.70439986097362
pt.ine.add.PTCONT.853571,AV FRANCISCO SA CARNEIRO,160,5370-209,MIRANDELA,-7.192118707980758,41.48218236287014
pt.ine.add.PTCONT.853572,R CRUZEIRO,56,5370-602,PASSOS MDL,-7.261494319068155,41.467638725506404
pt.ine.add.PTCONT.853573,R FERNANDO PESSOA,86,5370-446,MIRANDELA,-7.174813058772779,41.476799307073215
pt.ine.add.PTCONT.853574,R FERNANDO PESSOA,77,5370-446,MIRANDELA,-7.174524834650337,41.47685993142249
pt.ine.add.PTCONT.853575,R OLIMPIO CABRAL,61,5370-465,MIRANDELA,-7.184495732372726,41.476168277782676
pt.ine.add.PTCONT.853576,R MISERICÓRDIA,174-176,5370-343,MIRANDELA,-7.184750296189382,41.480879328464354
pt.ine.add.PTCONT.853577,R MISERICÓRDIA,174-176,5370-343,MIRANDELA,-7.184750296189382,41.480879328464354
pt.ine.add.PTCONT.853578,BR CERDEIRA,450,5370-405,MIRANDELA,-7.195180478670159,41.48241445750025
pt.ine.add.PTCONT.853579,R FORMIGA,30,5370-339,MIRANDELA,-7.180186358073124,41.48593771302739
pt.ine.add.PTCONT.853580,R PADARIA,,5385-057,SÃO PEDRO VELHO,-7.155073506203167,41.687217501031974
pt.ine.add.PTCONT.853581,BR NAVAINHO,361,5370-644,SUÇÃES,-7.252786927057689,41.48746170685405
pt.ine.add.PTCONT.853582,R EUSÉBIO DA SILVA FERREIRA,140,5370-443,MIRANDELA,-7.174758834936535,41.49104273994955
pt.ine.add.PTCONT.853583,R D AFONSO III,,5370-408,MIRANDELA,-7.180202961495543,41.478266677472405
pt.ine.add.PTCONT.853584,R DR FRANCISCO FONSECA HENRIQUES,3 B,5370-426,MIRANDELA,-7.180202961495543,41.478266677472405
pt.ine.add.PTCONT.853585,R DR FRANCISCO DA FONSECA HENRIQUES,3,5370-426,MIRANDELA,-7.180202961495543,41.478266677472405
pt.ine.add.PTCONT.853586,R DR FRANCISCO FONSECA HENRIQUES B,B,5370-426,MIRANDELA,-7.180202961495543,41.478266677472405
pt.ine.add.PTCONT.853587,R DR FRANCISCO FONSECA HENRIQUES B,B,5370-426,MIRANDELA,-7.180202961495543,41.478266677472405
pt.ine.add.PTCONT.853588,R DR FRANCISCO FONSECA HENRIQUES,3 B,5370-426,MIRANDELA,-7.180202961495543,41.478266677472405
pt.ine.add.PTCONT.853589,R DR ARMANDO GUEDES,7,5370-602,PASSOS MDL,-7.264223342960869,41.4649672441484
pt.ine.add.PTCONT.853590,R COR JAIME NEVES,64,5370-545,MIRANDELA,-7.172116072141103,41.48998526173998
pt.ine.add.PTCONT.853591,R COR JAIME NEVES,64,5370-545,MIRANDELA,-7.172116072141103,41.48998526173998
pt.ine.add.PTCONT.853592,R COR JAIME NEVES,64,5370-545,MIRANDELA,-7.172116072141103,41.48998526173998
pt.ine.add.PTCONT.853593,TV S BRÁS,14,5385-086,TORRE DE DONA CHAMA,-7.123860666560275,41.65545366525117
pt.ine.add.PTCONT.853594,LG CARDAL,21,5370-274,MIRANDELA,-7.183701368050401,41.48629991987907
pt.ine.add.PTCONT.853595,R PRADO RUA DE TRAZ,1O,5370-632,SÃO SALVADOR,-7.152869596322694,41.44968418780691
pt.ine.add.PTCONT.853596,R MIMOSA,31,5385-104,TORRE DE DONA CHAMA,-7.125181969295317,41.65771612034941
pt.ine.add.PTCONT.853597,R CACADORES,,5370-416,MIRANDELA,-7.169722312583639,41.48505821205734
pt.ine.add.PTCONT.853598,LG CARDAL,21,5370-274,MIRANDELA,-7.183701368050401,41.48629991987907
pt.ine.add.PTCONT.853599,LG CARDAL,21,5370-274,MIRANDELA,-7.183701368050401,41.48629991987907
pt.ine.add.PTCONT.853600,LG CARDAL,21,5370-274,MIRANDELA,-7.183701368050401,41.48629991987907
pt.ine.add.PTCONT.853601,LG CARDAL,21,5370-274,MIRANDELA,-7.183701368050401,41.48629991987907
pt.ine.add.PTCONT.853602,LG CARDAL,21,5370-274,MIRANDELA,-7.183701368050401,41.48629991987907
pt.ine.add.PTCONT.853603,LG CARDAL,21,5370-274,MIRANDELA,-7.183701368050401,41.48629991987907
pt.ine.add.PTCONT.853604,R MALHADINHAS,17,5370-584,MIRANDELA,-7.186209541470534,41.479333706169044
pt.ine.add.PTCONT.853605,R MALHADINHAS,27,5370-584,MIRANDELA,-7.186209541470534,41.479333706169044
pt.ine.add.PTCONT.853606,AV ABILIO FONSECA,483,5370-610,PEREIRA MDL,-7.313093288943491,41.41011451517067
pt.ine.add.PTCONT.853607,R JOÃO MARIA ALVES ESTEVES,66,5370-199,MIRANDELA,-7.195554521991734,41.48055373498627
pt.ine.add.PTCONT.853608,R ANTÓNIO BERNARDO TEIXEIRA,,5385-096,TORRE DE DONA CHAMA,-7.127292587614736,41.654781481889586
pt.ine.add.PTCONT.853609,EN 15,,5370-620,ROMEU,-7.053179274971705,41.54654416458874
pt.ine.add.PTCONT.853610,BR OPERÁRIO,,5385-086,TORRE DE DONA CHAMA,-7.125870579531167,41.65512916634794
pt.ine.add.PTCONT.853611,R ENTRE VINHAS,28,5370-353,MIRANDELA,-7.189165358727079,41.48190605799666
pt.ine.add.PTCONT.853612,R ENTRE VINHAS,,5370-353,MIRANDELA,-7.189165358727079,41.48190605799666
pt.ine.add.PTCONT.853613,R ENTRE VINHAS,28,5370-353,MIRANDELA,-7.189165358727079,41.48190605799666
pt.ine.add.PTCONT.853614,R ENTRE VINHAS,28,5370-353,MIRANDELA,-7.189165358727079,41.48190605799666
pt.ine.add.PTCONT.853615,R ENTRE VINHAS,,5370-353,MIRANDELA,-7.189165358727079,41.48190605799666
pt.ine.add.PTCONT.853616,R ENTRE VINHAS,28,5370-353,MIRANDELA,-7.189165358727079,41.48190605799666
pt.ine.add.PTCONT.853617,R S JOSE,,5385-053,MÚRIAS,-7.109112244520664,41.596692538667426
pt.ine.add.PTCONT.853618,R CENTRAL,,5385-073,TORRE DE DONA CHAMA,-7.122094907181614,41.630948736109744
pt.ine.add.PTCONT.853619,ESTR NACIONAL,,5385-073,TORRE DE DONA CHAMA,-7.125287143656737,41.63325464961527
pt.ine.add.PTCONT.853620,R SOL,,5370-620,ROMEU,-7.077903866171783,41.526659667582734
pt.ine.add.PTCONT.857449,R VALE,,5385-072,TORRE DE DONA CHAMA,-7.159668067936978,41.619028318220934
pt.ine.add.PTCONT.853671,R SERRINHA,252,5370-660,VALE DE SALGUEIRO,-7.23092151586125,41.58494594035801
pt.ine.add.PTCONT.853676,R GRICHA,14,5370-660,VALE DE SALGUEIRO,-7.256367760865046,41.56728866256613
pt.ine.add.PTCONT.853920,R VALE DE PEREIRO,490,5370-081,CARVALHAIS MDL,-7.157662547725737,41.51474076966687
pt.ine.add.PTCONT.853938,TV VALE DAS PEREIRAS,20,5370-088,CARVALHAIS MDL,-7.126671191543803,41.51483386422698
pt.ine.add.PTCONT.853939,R AMEIXEIRAS,47,5385-140,VALE DE TELHAS,-7.22498036987116,41.61268415031533
pt.ine.add.PTCONT.853944,R PRINCIPAL,,5385-053,MÚRIAS,-7.112578452965294,41.597461650719964
pt.ine.add.PTCONT.853984,R SANTO ANTÓNIO,8,5370-682,VILA BOA MDL,-7.344206880884291,41.39579077262528
pt.ine.add.PTCONT.853986,R SANTO ANTÓNIO,587,5370-087,CARVALHAIS MDL,-7.174726383250317,41.510301371375576
pt.ine.add.PTCONT.853987,R SANTO ANTÓNIO,587,5370-087,CARVALHAIS MDL,-7.174726383250317,41.510301371375576
pt.ine.add.PTCONT.854053,R CIDADE ORTHEZ,123,5370-320,MIRANDELA,-7.191590501883788,41.48310542408126
pt.ine.add.PTCONT.854054,R CIDADE ORTHEZ,123,5370-320,MIRANDELA,-7.191590501883788,41.48310542408126
pt.ine.add.PTCONT.854055,AV FRANCISCO SA CARNEIRO,294,5370-209,MIRANDELA,-7.191263524861111,41.48170716921642
pt.ine.add.PTCONT.854056,AV FRANCISCO SA CARNEIRO,162,5370-209,MIRANDELA,-7.192229057904125,41.482003191071655
pt.ine.add.PTCONT.854097,R DR ADERITO RODRIGUES,32,5370-023,ABREIRO,-7.328292592441276,41.35887249096045
pt.ine.add.PTCONT.854098,LG OUTEIRO,11,5370-021,ABREIRO,-7.29365195387567,41.351124719594125
pt.ine.add.PTCONT.854099,TV DR TRIGO DE NEGREIROS,18,5370-524,MIRANDELA,-7.190842534963666,41.482667119884255
pt.ine.add.PTCONT.854100,R DR CASIMIRO PIRES,97,5370-425,MIRANDELA,-7.188042316714053,41.48256311137793
pt.ine.add.PTCONT.854101,R DR CASIMIRO PIRES,97,5370-425,MIRANDELA,-7.188042316714053,41.48256311137793
pt.ine.add.PTCONT.854102,AV AMOREIRAS,266,5370-204,MIRANDELA,-7.180123691716108,41.48367726003978
pt.ine.add.PTCONT.854103,AV AMOREIRAS,266,5370-204,MIRANDELA,-7.180123691716108,41.48367726003978
pt.ine.add.PTCONT.854104,AV AMOREIRAS,266,5370-204,MIRANDELA,-7.180123691716108,41.48367726003978
pt.ine.add.PTCONT.854139,R DR JOAQUIM TRIGO DE NEGREIROS,15 A,5370-052,AVIDAGOS,-7.30680943993751,41.39822945113006
pt.ine.add.PTCONT.854140,LG TARRINCHA,,5370-060,BARCEL,-7.239630960670098,41.37465042259637
pt.ine.add.PTCONT.854141,R VISC DA BOUCA,,5385-031,BOUÇA,-7.212467204422156,41.64979610854917
pt.ine.add.PTCONT.854142,R COMBATENTES,,5385-031,BOUÇA,-7.213220559922871,41.65000021693861
pt.ine.add.PTCONT.854143,R SOLDADOS DE PORTUGAL,,5385-031,BOUÇA,-7.214624100851671,41.65091178922942
pt.ine.add.PTCONT.854144,AV AMOREIRAS,266,5370-204,MIRANDELA,-7.180123691716108,41.48367726003978
pt.ine.add.PTCONT.854145,AV AMOREIRAS,266,5370-204,MIRANDELA,-7.180123691716108,41.48367726003978
pt.ine.add.PTCONT.854146,R ANTERO DE QUENTAL,120,5370-301,MIRANDELA,-7.173757163226428,41.47371122822362
pt.ine.add.PTCONT.854147,R JOGOS DO RIO,106,5370-197,MIRANDELA,-7.192998626256393,41.479290357250804
pt.ine.add.PTCONT.854148,R JOGOS DO RIO,106,5370-197,MIRANDELA,-7.192998626256393,41.479290357250804
pt.ine.add.PTCONT.854200,R LOMBINHO,,5370-075,CARAVELAS,-7.053053393852889,41.433006721578124
pt.ine.add.PTCONT.854201,R IGREJA,74,5370-075,CARAVELAS,-7.0536860157139465,41.43598389776423
pt.ine.add.PTCONT.854202,R PAZ,6,5370-081,CARVALHAIS MDL,-7.16460589458665,41.51424122739623
pt.ine.add.PTCONT.854203,R MISERICÓRDIA,366,5370-343,MIRANDELA,-7.184475431644921,41.47920236818713
pt.ine.add.PTCONT.854204,R JOÃO AZEVEDO LOPES,47,5370-450,MIRANDELA,-7.185546350757186,41.47554667646763
pt.ine.add.PTCONT.854205,R GUERRA JUNQUEIRO,147,5370-447,MIRANDELA,-7.176431347409191,41.47665971538537
pt.ine.add.PTCONT.854237,R 25 DE ABRIL,928,5370-081,CARVALHAIS MDL,-7.169618028091435,41.515525835904505
pt.ine.add.PTCONT.854238,R 25 DE ABRIL,374,5370-081,CARVALHAIS MDL,-7.163519838020863,41.51397096928634
pt.ine.add.PTCONT.854239,R EIRA,84,5370-081,CARVALHAIS MDL,-7.1642052944270125,41.5153993262436
pt.ine.add.PTCONT.854240,R FONTE,19,5370-088,CARVALHAIS MDL,-7.127648482567477,41.51283459725727
pt.ine.add.PTCONT.854241,R FUNDO DO POVO,,5370-102,CEDÃES,-7.107531039391995,41.507848994005265
pt.ine.add.PTCONT.854278,R DIREITA,142,5370-101,CEDÃES,-7.106091881225613,41.47309092420401
pt.ine.add.PTCONT.854279,R EIRA,30,5370-101,CEDÃES,-7.1065419670198535,41.47187944082873
pt.ine.add.PTCONT.854280,R PRINCIPAL,470,5370-110,COBRO,-7.259974724626538,41.41671065236916
pt.ine.add.PTCONT.854281,R FONTELA,6,5385-041,FRADIZELA,-7.195523261457863,41.65353063135271
pt.ine.add.PTCONT.854282,TV OURO,1,5385-042,FRADIZELA,-7.165922751246839,41.64367865447861
pt.ine.add.PTCONT.854283,R SARG EUSÉBIO COELHO,98,5370-478,MIRANDELA,-7.184123370941998,41.47789392293025
pt.ine.add.PTCONT.854284,R SARG EUSÉBIO COELHO,98,5370-478,MIRANDELA,-7.184123370941998,41.47789392293025
pt.ine.add.PTCONT.854285,R SENHOR DOS AFLITOS,58,5370-399,MIRANDELA,-7.1835951807722385,41.47634992537877
pt.ine.add.PTCONT.854286,R SENHOR DOS AFLITOS,58,5370-399,MIRANDELA,-7.1835951807722385,41.47634992537877
pt.ine.add.PTCONT.854304,R PENEDO,42,5370-135,FRECHAS,-7.16457471708948,41.41740569779248
pt.ine.add.PTCONT.854305,R TUA,3,5370-135,FRECHAS,-7.164054297282472,41.411377758252506
pt.ine.add.PTCONT.854306,LG PELOURINHO,114,5370-135,FRECHAS,-7.163851135051544,41.41136704302227
pt.ine.add.PTCONT.854307,R EIRA,,5385-054,MÚRIAS,-7.093908427128185,41.60760341563315
pt.ine.add.PTCONT.854308,R PRINCIPAL,,5385-053,MÚRIAS,-7.109855497475141,41.59671716381798
pt.ine.add.PTCONT.854309,R DR JULIO DOS SANTOS,,5370-610,PEREIRA MDL,-7.314482210942759,41.40998934787876
pt.ine.add.PTCONT.854310,R VALE,31,5370-610,PEREIRA MDL,-7.313521806439507,41.40932522744514
pt.ine.add.PTCONT.854311,BC ESTRADA,,5370-620,ROMEU,-7.053872777377228,41.5444798515995
pt.ine.add.PTCONT.854339,,,5370-137,FRECHAS,-7.130741815875332,41.39838794760294
pt.ine.add.PTCONT.854340,R EIRA VELHA,3,5370-140,FREIXEDA,-7.107016858022533,41.41744696649225
pt.ine.add.PTCONT.854341,R GRICHA,26,5370-152,LAMAS DE ORELHÃO,-7.290666106397273,41.44083567380882
pt.ine.add.PTCONT.854342,R CANELHO,,5370-160,MARMELOS,-7.190580406938284,41.432153848133574
pt.ine.add.PTCONT.854343,R MEIO,,5370-160,MARMELOS,-7.19061238761124,41.432424224263094
pt.ine.add.PTCONT.854344,R PAZ,,5370-620,ROMEU,-7.059596026332513,41.529587453249974
pt.ine.add.PTCONT.854345,R OLIVAIS,,5385-057,SÃO PEDRO VELHO,-7.158223367180647,41.69099868353465
pt.ine.add.PTCONT.854346,R BAIRRO,,5385-057,SÃO PEDRO VELHO,-7.155337878670666,41.688795346054356
pt.ine.add.PTCONT.854347,R EIRA,86,5370-632,SÃO SALVADOR,-7.153407055530179,41.45134545905588
pt.ine.add.PTCONT.854376,R DIREITA,18,5370-174,MASCARENHAS,-7.120871496160386,41.557217032714064
pt.ine.add.PTCONT.854377,R FRAGAS,24,5370-174,MASCARENHAS,-7.118615675584706,41.55506329986534
pt.ine.add.PTCONT.854378,R DR JOSE GAMA,9,5370-174,MASCARENHAS,-7.119097016196703,41.55417619011297
pt.ine.add.PTCONT.854379,R ESTRADA N 213,483,5370-642,SUÇÃES,-7.220917684939332,41.51606124147515
pt.ine.add.PTCONT.854380,BR SA LINA,207,5370-642,SUÇÃES,-7.223848258104344,41.514661867154494
pt.ine.add.PTCONT.854421,R DR EGAS MONIZ,21,5370-438,MIRANDELA,-7.194308213099309,41.48809769464417
pt.ine.add.PTCONT.854422,R HERAS,,5370-355,MIRANDELA,-7.171846265805064,41.492035852441255
pt.ine.add.PTCONT.854423,R EMIGRANTES,,5385-110,TORRE DE DONA CHAMA,-7.129715378059111,41.65105722492953
pt.ine.add.PTCONT.854424,TV SAINHA,49,5385-083,TORRE DE DONA CHAMA,-7.1289369662965205,41.64784519765124
pt.ine.add.PTCONT.854425,R CAROLINO GONÇALVES,,5385-097,TORRE DE DONA CHAMA,-7.128366600423575,41.65133355241338
pt.ine.add.PTCONT.854426,R JOÃO JULIO DE MACEDO,,5385-112,TORRE DE DONA CHAMA,-7.129906453318747,41.65034762027421
pt.ine.add.PTCONT.854427,R OPERÁRIO,,5385-086,TORRE DE DONA CHAMA,-7.125052732852771,41.65599532990842
pt.ine.add.PTCONT.854428,TV CARRASCO DO MURO,,5385-113,TORRE DE DONA CHAMA,-7.12579719591013,41.652904672466725
pt.ine.add.PTCONT.854454,R RETIRO,,5370-397,MIRANDELA,-7.165596454485265,41.48230445611983
pt.ine.add.PTCONT.854455,R MANUEL PINTO DE AZEVEDO,320,5370-460,MIRANDELA,-7.173699209772781,41.4914390724103
pt.ine.add.PTCONT.854456,R COR JAIME NEVES,12,5370-545,MIRANDELA,-7.172184053037939,41.489436603428594
pt.ine.add.PTCONT.854457,TV IGREJA,,5385-073,TORRE DE DONA CHAMA,-7.122622719622261,41.63096238086885
pt.ine.add.PTCONT.854458,R FUNDO DA VILA,,5370-652,VALE DE ASNES,-7.056548604717336,41.464750627848744
pt.ine.add.PTCONT.854459,R ESCOLA,3,5370-652,VALE DE ASNES,-7.054752556437095,41.46261793178533
pt.ine.add.PTCONT.854491,,,5370-651,VALE DE ASNES,-7.080343277490912,41.45669645638745
pt.ine.add.PTCONT.854492,AL NSA SRA DO ROSÁRIO,5,5385-132,VALE DE GOUVINHAS,-7.2006886623567965,41.63082084299715
pt.ine.add.PTCONT.854525,URB D DINIS,,5370-210,MIRANDELA,-7.1873251032547385,41.48495220649548
pt.ine.add.PTCONT.854526,URB D DINIS,,5370-210,MIRANDELA,-7.1873251032547385,41.48495220649548
pt.ine.add.PTCONT.854527,URB D DINIS,,5370-210,MIRANDELA,-7.1873251032547385,41.48495220649548
pt.ine.add.PTCONT.854528,TV S FRANCISCO,14,5370-690,VILA VERDE MDL,-7.1137967117919025,41.44664346226743
pt.ine.add.PTCONT.854558,URB D DINIS,,5370-210,MIRANDELA,-7.1873251032547385,41.48495220649548
pt.ine.add.PTCONT.854559,URB D DINIS,,5370-210,MIRANDELA,-7.1873251032547385,41.48495220649548
pt.ine.add.PTCONT.854560,URB D DINIS,,5370-210,MIRANDELA,-7.1873251032547385,41.48495220649548
pt.ine.add.PTCONT.854561,URB D DINIS,,5370-210,MIRANDELA,-7.1873251032547385,41.48495220649548
pt.ine.add.PTCONT.854562,URB D DINIS,,5370-210,MIRANDELA,-7.1873251032547385,41.48495220649548
pt.ine.add.PTCONT.854563,URB D DINIS,,5370-210,MIRANDELA,-7.1873251032547385,41.48495220649548
pt.ine.add.PTCONT.854564,URB D DINIS,,5370-210,MIRANDELA,-7.1873251032547385,41.48495220649548
pt.ine.add.PTCONT.854565,URB D DINIS,,5370-210,MIRANDELA,-7.1873251032547385,41.48495220649548
pt.ine.add.PTCONT.854566,URB D DINIS,,5370-210,MIRANDELA,-7.1873251032547385,41.48495220649548
pt.ine.add.PTCONT.854567,URB D DINIS,,5370-210,MIRANDELA,-7.1873251032547385,41.48495220649548
pt.ine.add.PTCONT.854568,URB D DINIS,,5370-210,MIRANDELA,-7.1873251032547385,41.48495220649548
pt.ine.add.PTCONT.854569,URB D DINIS,,5370-210,MIRANDELA,-7.1873251032547385,41.48495220649548
pt.ine.add.PTCONT.854570,URB D DINIS,,5370-210,MIRANDELA,-7.1873251032547385,41.48495220649548
pt.ine.add.PTCONT.854571,URB D DINIS,,5370-210,MIRANDELA,-7.1873251032547385,41.48495220649548
pt.ine.add.PTCONT.854572,URB D DINIS,,5370-210,MIRANDELA,-7.1873251032547385,41.48495220649548
pt.ine.add.PTCONT.854652,R CLEMENTE MENERES,1B,5370-321,MIRANDELA,-7.180796576658907,41.48515043996649
pt.ine.add.PTCONT.854653,R D MARIA II,335,5370-413,MIRANDELA,-7.193253947309588,41.484820733239644
pt.ine.add.PTCONT.854723,URB D DINIS,,5370-210,MIRANDELA,-7.1873251032547385,41.48495220649548
pt.ine.add.PTCONT.854725,R JOSE JOAQUIM GOMES,4,5370-173,MASCARENHAS,-7.135647738734839,41.56291038825447
pt.ine.add.PTCONT.854728,R CLEMENTE MENERES,1B,5370-321,MIRANDELA,-7.180796576658907,41.48515043996649
pt.ine.add.PTCONT.854732,R GUERRA JUNQUEIRO,,5370-447,MIRANDELA,-7.176431347409191,41.47665971538537
pt.ine.add.PTCONT.854734,R REGUEIRADAS,,5370-652,VALE DE ASNES,-7.054800199372418,41.46407697933899
pt.ine.add.PTCONT.854743,R DR EGAS MONIZ,21,5370-438,MIRANDELA,-7.194308213099309,41.48809769464417
pt.ine.add.PTCONT.854744,R FRAGATA,42,5385-101,TORRE DE DONA CHAMA,-7.127060919789157,41.65192536195672
pt.ine.add.PTCONT.854746,R S JOSE,235,5370-087,CARVALHAIS MDL,-7.176918220636874,41.50950028152129
pt.ine.add.PTCONT.854748,R SAGRADO CORACAO DE JESUS,128,5370-110,COBRO,-7.259218342740395,41.41602962077871
pt.ine.add.PTCONT.854760,R DR ADERITO RODRIGUES,41,5370-023,ABREIRO,-7.328970298437953,41.35818392371571
pt.ine.add.PTCONT.854762,R SOL,,5370-620,ROMEU,-7.077625997085419,41.526801175360085
pt.ine.add.PTCONT.854777,AV FRANCISCO SA CARNEIRO,294,5370-209,MIRANDELA,-7.191263524861111,41.48170716921642
pt.ine.add.PTCONT.854778,LG FONTE,25,5385-140,VALE DE TELHAS,-7.227762558767185,41.616199467846855
pt.ine.add.PTCONT.854784,BC HERAS,119,5370-238,MIRANDELA,-7.171574870758356,41.49176347259025
pt.ine.add.PTCONT.854796,R SANTO ANTÓNIO,39,5370-682,VILA BOA MDL,-7.344310821281889,41.394116758459035
pt.ine.add.PTCONT.854797,R SANTO ANTÓNIO,14,5370-682,VILA BOA MDL,-7.344106024633142,41.395231838869485
pt.ine.add.PTCONT.854815,R FERREIRO,30,5370-088,CARVALHAIS MDL,-7.127107678209275,41.51449554445807
pt.ine.add.PTCONT.854833,R ESCOLA,16,5385-140,VALE DE TELHAS,-7.225230774500142,41.61450484272551
pt.ine.add.PTCONT.855118,R NSA SRA ENCARNACAO,170,5370-195,MIRANDELA,-7.183773683744475,41.49200887192627
pt.ine.add.PTCONT.855121,ESTR MACEDO DE CAVALEIROS,1,5370-030,ALVITES,-7.0543980926079,41.57127038948233
pt.ine.add.PTCONT.855122,R N SENHORA ENCARNACAO,168,5370-195,MIRANDELA,-7.183773683744475,41.49200887192627
pt.ine.add.PTCONT.855124,R S MIGUEL,25,5370-135,FRECHAS,-7.164669859593175,41.41180612131156
pt.ine.add.PTCONT.855126,TV IGREJA,55,5370-081,CARVALHAIS MDL,-7.163607059626593,41.51454793950631
pt.ine.add.PTCONT.855127,R DIREITA,10,5370-174,MASCARENHAS,-7.117173117503934,41.553799063275925
pt.ine.add.PTCONT.855129,R DIREITA,34,5385-033,BOUÇA,-7.191500153136594,41.64456629738144
pt.ine.add.PTCONT.855133,R POÇO,8,5370-021,ABREIRO,-7.29461033462081,41.35093361929695
pt.ine.add.PTCONT.855134,R OUTEIRO,2,5370-021,ABREIRO,-7.29407001784168,41.35113677232848
pt.ine.add.PTCONT.855135,R NSA SRA DE FÁTIMA,,5385-031,BOUÇA,-7.20733364372998,41.65704768570513
pt.ine.add.PTCONT.855136,R PEDRACA,3,5370-021,ABREIRO,-7.294088323856423,41.35064168794849
pt.ine.add.PTCONT.855137,R CRUZEIRO,,5370-102,CEDÃES,-7.106708210342872,41.50686025403587
pt.ine.add.PTCONT.855138,R ALTO,48,5370-010,ABAMBRES,-7.1827071435548815,41.584548471856834
pt.ine.add.PTCONT.855139,R OUTEIRO,8,5370-040,AVANTOS,-7.1169701961835985,41.53767181135784
pt.ine.add.PTCONT.855140,TV CASINHAS,5,5370-120,FRANCO,-7.3432512464851065,41.43520318321942
pt.ine.add.PTCONT.855141,R SANTA BARBARA,49,5370-120,FRANCO,-7.342838430348922,41.436685982377725
pt.ine.add.PTCONT.855144,R TRINTA,112,5370-010,ABAMBRES,-7.186153850160541,41.55711596185274
pt.ine.add.PTCONT.855145,R ADEGAS,,5385-013,AGUIEIRAS,-7.1817830350242575,41.716765749017874
pt.ine.add.PTCONT.855146,BR VILA NORDESTE,79,5370-132,FRECHAS,-7.168039705914259,41.38290506910887
pt.ine.add.PTCONT.855148,R CRUZEIRO,77,5370-010,ABAMBRES,-7.18333767377079,41.555427065537145
pt.ine.add.PTCONT.855149,BR CRUZEIRO,,5385-018,AGUIEIRAS,-7.188437318610855,41.71203985773037
pt.ine.add.PTCONT.855150,BR CRUZ,4,5385-013,AGUIEIRAS,-7.179361721639206,41.71066840223625
pt.ine.add.PTCONT.855151,R IGREJA,15,5370-052,AVIDAGOS,-7.306940931995986,41.400121212342206
pt.ine.add.PTCONT.855152,BR VILA NORDESTE,44,5370-132,FRECHAS,-7.16729806307848,41.382934861845655
pt.ine.add.PTCONT.855153,R OLIMPO CABRAL,37,5370-173,MASCARENHAS,-7.1354042095359835,41.56393468403127
pt.ine.add.PTCONT.855155,R CABEÇO,,5370-060,BARCEL,-7.240618295735378,41.374126854122956
pt.ine.add.PTCONT.855156,BR VILA NORDESTE,34,5370-132,FRECHAS,-7.166632539220822,41.38266816143105
pt.ine.add.PTCONT.855159,R NSA SRA LURDES,464,5370-135,FRECHAS,-7.163940002252204,41.416653035691965
pt.ine.add.PTCONT.855160,R IGREJA,61,5370-563,MIRANDELA,-7.150696359881513,41.49059661729369
pt.ine.add.PTCONT.855162,R CASTELO,4,5370-173,MASCARENHAS,-7.137490224840783,41.56236813537727
pt.ine.add.PTCONT.855164,R LOMBINHO,20,5370-075,CARAVELAS,-7.053699946392792,41.432976775119315
pt.ine.add.PTCONT.855165,CC AMOREIRAS,11,5370-259,MIRANDELA,-7.182878160651182,41.48445636263631
pt.ine.add.PTCONT.855166,CC AMOREIRAS,11,5370-259,MIRANDELA,-7.182878160651182,41.48445636263631
pt.ine.add.PTCONT.855167,CC AMOREIRAS,11,5370-259,MIRANDELA,-7.182878160651182,41.48445636263631
pt.ine.add.PTCONT.855168,AV FRANCISCO SA CARNEIRO,262,5370-209,MIRANDELA,-7.191271715947404,41.481968344412365
pt.ine.add.PTCONT.855169,TV CIMO DO POVO,66,5370-563,MIRANDELA,-7.152283689758464,41.488566324468955
pt.ine.add.PTCONT.855170,R LUIS DE CAMÕES,101,5370-456,MIRANDELA,-7.176075987786531,41.47721499039482
pt.ine.add.PTCONT.855171,R SEARA,2,5370-602,PASSOS MDL,-7.267195063517813,41.46562892188631
pt.ine.add.PTCONT.855172,R CRUZEIRO,46,5370-602,PASSOS MDL,-7.261871995120208,41.467146379314116
pt.ine.add.PTCONT.855173,LG ENG BARRETO CHAVES,110,5370-282,MIRANDELA,-7.184384058573791,41.476437468734865
pt.ine.add.PTCONT.855174,R OLIVAIS,,5385-057,SÃO PEDRO VELHO,-7.158268553613863,41.69118813822052
pt.ine.add.PTCONT.855175,R CESARIO VERDE,65,5370-317,MIRANDELA,-7.173073421746988,41.47461490038883
pt.ine.add.PTCONT.855176,TV TERREIRO,5,5370-602,PASSOS MDL,-7.2624588759773046,41.46533206066976
pt.ine.add.PTCONT.855177,R DR ARMANDO GUEDES,30,5370-602,PASSOS MDL,-7.265214830083115,41.46511878985863
pt.ine.add.PTCONT.855178,R JOÃO MARIA ALVES ESTEVES,781,5370-199,MIRANDELA,-7.191998364505923,41.48056971069258
pt.ine.add.PTCONT.855179,R JOÃO MARIA ALVES ESTEVES,781,5370-199,MIRANDELA,-7.191998364505923,41.48056971069258
pt.ine.add.PTCONT.855201,R CRUZ,75,5370-632,SÃO SALVADOR,-7.151038131640112,41.44733659090319
pt.ine.add.PTCONT.855180,R JOÃO MARIA ALVES ESTEVES,781,5370-199,MIRANDELA,-7.191998364505923,41.48056971069258
pt.ine.add.PTCONT.855181,R JOÃO MARIA ALVES ESTEVES,781,5370-199,MIRANDELA,-7.191998364505923,41.48056971069258
pt.ine.add.PTCONT.855182,R JOÃO MARIA ALVES ESTEVES,781,5370-199,MIRANDELA,-7.191998364505923,41.48056971069258
pt.ine.add.PTCONT.855183,R JOÃO MARIA ALVES ESTEVES,781,5370-199,MIRANDELA,-7.191998364505923,41.48056971069258
pt.ine.add.PTCONT.855184,R JOÃO MARIA ALVES ESTEVES,781,5370-199,MIRANDELA,-7.191998364505923,41.48056971069258
pt.ine.add.PTCONT.855185,BR S JOÃO BAPTISTA,293,5370-644,SUÇÃES,-7.254925996492961,41.48866655292911
pt.ine.add.PTCONT.855186,R BAIRRO,,5385-057,SÃO PEDRO VELHO,-7.155120066126548,41.68890153341659
pt.ine.add.PTCONT.855187,R COR JAIME NEVES,48,5370-545,MIRANDELA,-7.171856125014277,41.489748992969425
pt.ine.add.PTCONT.855188,R DR JOSE GAMA,6,5370-602,PASSOS MDL,-7.25704299677958,41.46306700658941
pt.ine.add.PTCONT.855189,AV ABILIO FONSECA,636,5370-610,PEREIRA MDL,-7.314287566371439,41.41120348588979
pt.ine.add.PTCONT.855190,R PINHEIRO,,5385-056,SÃO PEDRO VELHO,-7.189863662944398,41.68926398658151
pt.ine.add.PTCONT.855191,R FRAGAS,142,5370-632,SÃO SALVADOR,-7.151800889571151,41.446748851635796
pt.ine.add.PTCONT.855192,BC FUNDO DO ADRO,,5370-632,SÃO SALVADOR,-7.152355382767107,41.44727579912463
pt.ine.add.PTCONT.855193,R MIGUEL TORGA,,5370-462,MIRANDELA,-7.176738421747282,41.4761310489283
pt.ine.add.PTCONT.855194,R MIGUEL TORGA,,5370-462,MIRANDELA,-7.176738421747282,41.4761310489283
pt.ine.add.PTCONT.855195,R MIGUEL TORGA,,5370-462,MIRANDELA,-7.176738421747282,41.4761310489283
pt.ine.add.PTCONT.855196,R MIGUEL TORGA,,5370-462,MIRANDELA,-7.176738421747282,41.4761310489283
pt.ine.add.PTCONT.855197,R MIGUEL TORGA,,5370-462,MIRANDELA,-7.176738421747282,41.4761310489283
pt.ine.add.PTCONT.855198,R ANTÓNIO GUERRA,43,5370-303,MIRANDELA,-7.175913995714834,41.47520581016719
pt.ine.add.PTCONT.855199,R EIRA,,5385-055,MÚRIAS,-7.141857548705227,41.60446148603964
pt.ine.add.PTCONT.855200,R FRAGAS,,5370-632,SÃO SALVADOR,-7.151856373934513,41.44703744554237
pt.ine.add.PTCONT.855203,R RAINHA SANTA ISABEL,135,5370-476,MIRANDELA,-7.194450126868317,41.484902531560245
pt.ine.add.PTCONT.855204,R PRINCIPAL,,5385-053,MÚRIAS,-7.108030779681991,41.59681795335093
pt.ine.add.PTCONT.855205,TV LARGO DO CENCELHO,4,5385-071,TORRE DE DONA CHAMA,-7.151029877746651,41.63796121267263
pt.ine.add.PTCONT.855206,R CALÇADA S JOÃO,48,5370-261,MIRANDELA,-7.172062869506838,41.4846726261155
pt.ine.add.PTCONT.855207,AV FRANCISCO SA CARNEIRO,201,5370-209,MIRANDELA,-7.1909053934767995,41.48246054911477
pt.ine.add.PTCONT.855208,R DIREITA,,5370-620,ROMEU,-7.0795099903355405,41.525882075949696
pt.ine.add.PTCONT.855209,R DIREITA,28,5385-106,TORRE DE DONA CHAMA,-7.128878523309109,41.65160812990802
pt.ine.add.PTCONT.855210,R FE,5,5385-099,TORRE DE DONA CHAMA,-7.129507419639534,41.6513075058361
pt.ine.add.PTCONT.855211,R DIREITA,,5385-072,TORRE DE DONA CHAMA,-7.159611062340491,41.618829758269634
pt.ine.add.PTCONT.855212,BR AZENHA,,5385-072,TORRE DE DONA CHAMA,-7.160302413204773,41.61913272693786
pt.ine.add.PTCONT.855213,R IGREJA,,5385-072,TORRE DE DONA CHAMA,-7.158192661252823,41.61820549866817
pt.ine.add.PTCONT.855257,R IGREJA,5,5370-690,VILA VERDE MDL,-7.112971298251958,41.44586182211798
pt.ine.add.PTCONT.855262,LG CABELO,15,5370-690,VILA VERDE MDL,-7.113491138030855,41.44552428828798
pt.ine.add.PTCONT.855269,AL NSA SRA DO ROSÁRIO,1,5385-132,VALE DE GOUVINHAS,-7.201456869726166,41.63080906499393
pt.ine.add.PTCONT.855272,R FLORES,13,5385-140,VALE DE TELHAS,-7.227442587198007,41.61677317351012
pt.ine.add.PTCONT.855285,R EIRO,7,5385-133,VALE DE GOUVINHAS,-7.201380694900413,41.627765262542276
pt.ine.add.PTCONT.855294,R NSA SRA DA ASSUNÇAO,8,5370-682,VILA BOA MDL,-7.34373766965585,41.39504023033123
pt.ine.add.PTCONT.860337,R SOL,,5370-103,CEDÃES,-7.08119230268615,41.50634157414696
pt.ine.add.PTCONT.855408,,,5370-652,VALE DE ASNES,-7.054579158933556,41.462247153878266
pt.ine.add.PTCONT.855448,R DR BONFIM COSTA NEVES,17,5385-119,TORRE DE DONA CHAMA,-7.126715346044319,41.65638804496752
pt.ine.add.PTCONT.855457,TV OURO,2,5385-042,FRADIZELA,-7.1658146035368935,41.64368674786147
pt.ine.add.PTCONT.855483,R SERRADOURO,86,5370-010,ABAMBRES,-7.185233994254962,41.53802969907365
pt.ine.add.PTCONT.855489,R BERROA,25,5385-090,TORRE DE DONA CHAMA,-7.127329562673973,41.652404895864116
pt.ine.add.PTCONT.855505,R AMEIXEIRAS,49,5385-140,VALE DE TELHAS,-7.225438991069769,41.612489694604164
pt.ine.add.PTCONT.855564,R DR JOSÉ GAMA,21,5370-174,MASCARENHAS,-7.121497048020601,41.55399925200623
pt.ine.add.PTCONT.855568,R FERROVIÁRIOS,,5370-419,MIRANDELA,-7.18491153919236,41.47967415823541
pt.ine.add.PTCONT.855689,R S GONÇALO,5,5370-602,PASSOS MDL,-7.265430936342992,41.46327464568068
pt.ine.add.PTCONT.855690,R DR JOSE GAMA,1,5370-602,PASSOS MDL,-7.257075480872853,41.46421073362501
pt.ine.add.PTCONT.855691,R IGREJA,3,5385-057,SÃO PEDRO VELHO,-7.158108383977413,41.68986327974173
pt.ine.add.PTCONT.855692,R IGREJA,,5385-056,SÃO PEDRO VELHO,-7.189056097074315,41.68945543032477
pt.ine.add.PTCONT.855693,TV S BRÁS,24,5385-116,TORRE DE DONA CHAMA,-7.123165075830112,41.65617683370952
pt.ine.add.PTCONT.855694,COLADA,,5385-085,TORRE DE DONA CHAMA,-7.12535136662662,41.64839003613161
pt.ine.add.PTCONT.855695,R FIGUEIRA,5,5385-071,TORRE DE DONA CHAMA,-7.150726451276412,41.63818370665845
pt.ine.add.PTCONT.855696,BR FONTE,5,5370-682,VILA BOA MDL,-7.342715505265321,41.39551942423461
pt.ine.add.PTCONT.855775,R ESCOLA,44,5370-010,ABAMBRES,-7.181423493538921,41.58458287091068
pt.ine.add.PTCONT.855777,R 15 DE AGOSTO,,5385-012,AGUIEIRAS,-7.1914531638347725,41.693931783836
pt.ine.add.PTCONT.855778,R FONTE,,5385-016,AGUIEIRAS,-7.191404976283653,41.70464543001303
pt.ine.add.PTCONT.855779,R CANTO,5,5370-030,ALVITES,-7.1032413953157745,41.5706378595887
pt.ine.add.PTCONT.855780,R CIMA,1,5370-030,ALVITES,-7.048780478252737,41.554452922796656
pt.ine.add.PTCONT.855781,R IGREJA,7,5370-052,AVIDAGOS,-7.306639497598094,41.40031713306343
pt.ine.add.PTCONT.855782,R ESTRADA,39,5370-070,CABANELAS MDL,-7.205465845689119,41.512597271181285
pt.ine.add.PTCONT.855783,R 1 DE MAIO,18,5370-082,CARVALHAIS MDL,-7.173770838705154,41.53445022597229
pt.ine.add.PTCONT.855784,R PAZ,28,5370-081,CARVALHAIS MDL,-7.164580329053353,41.51434905612637
pt.ine.add.PTCONT.855785,TV PENEDO REDONDO,43,5370-087,CARVALHAIS MDL,-7.180627254563999,41.504065822806666
pt.ine.add.PTCONT.855786,R EIRA,18,5370-087,CARVALHAIS MDL,-7.176848745355478,41.509337637577396
pt.ine.add.PTCONT.855787,R BARREIROS,609,5370-081,CARVALHAIS MDL,-7.171882679815948,41.52115407150295
pt.ine.add.PTCONT.855788,R GRAÇA,,5370-081,CARVALHAIS MDL,-7.163563986044717,41.51422344426117
pt.ine.add.PTCONT.855789,R HORTA,,5370-102,CEDÃES,-7.107254309540098,41.50792755874757
pt.ine.add.PTCONT.855790,,,5370-103,CEDÃES,-7.0815188526850985,41.506146480248724
pt.ine.add.PTCONT.855791,R PRINCIPAL,624,5370-110,COBRO,-7.260750431177872,41.416842590676794
pt.ine.add.PTCONT.855792,R IGREJA,,5385-041,FRADIZELA,-7.196499970078796,41.653232476824265
pt.ine.add.PTCONT.855793,R S ROQUE,58,5370-120,FRANCO,-7.343508372958918,41.434718740665694
pt.ine.add.PTCONT.855794,,,5370-120,FRANCO,-7.343097685545224,41.43504005957673
pt.ine.add.PTCONT.855795,R COMBATENTES,173,5370-135,FRECHAS,-7.166058165950417,41.414969137734694
pt.ine.add.PTCONT.855796,R D MANUEL 1,236,5370-135,FRECHAS,-7.162498135035571,41.413075367031425
pt.ine.add.PTCONT.855797,,,5370-137,FRECHAS,-7.130141519895741,41.39854478524729
pt.ine.add.PTCONT.855798,R RETORNADOS,9,5370-152,LAMAS DE ORELHÃO,-7.293634225111839,41.441712734680785
pt.ine.add.PTCONT.855799,R ESTEVA,20,5370-568,MIRANDELA,-7.186138737948522,41.496530223353055
pt.ine.add.PTCONT.855800,R LIBERDADE,24,5370-563,MIRANDELA,-7.151214873907363,41.49035794528424
pt.ine.add.PTCONT.855801,R JOAQUIM TEÓFILO BRAGA,240,5370-198,MIRANDELA,-7.182269758322829,41.492491652222625
pt.ine.add.PTCONT.855802,R QUINTA DOS CORDÕES,36,5370-188,MIRANDELA,-7.1823780528185965,41.49163719505647
pt.ine.add.PTCONT.855803,R JOAQUIM TEÓFILO BRAGA,521,5370-198,MIRANDELA,-7.180434860703445,41.490225540143825
pt.ine.add.PTCONT.855807,R S PEDRO,28,5370-375,MIRANDELA,-7.172515814260381,41.48481146575699
pt.ine.add.PTCONT.855808,CC S JOÃO,107,5370-261,MIRANDELA,-7.17279436331001,41.48459770262526
pt.ine.add.PTCONT.855809,R JOÃO MARIA SARMENTO PIMENTEL,118,5370-326,MIRANDELA,-7.178613724012094,41.48458311837944
pt.ine.add.PTCONT.855810,R JOÃO MARIA SARMENTO PIMENTEL,118,5370-326,MIRANDELA,-7.178613724012094,41.48458311837944
pt.ine.add.PTCONT.855811,R JOÃO MARIA SARMENTO PIMENTEL,118,5370-326,MIRANDELA,-7.178613724012094,41.48458311837944
pt.ine.add.PTCONT.855812,R JOÃO MARIA SARMENTO PIMENTEL,118,5370-326,MIRANDELA,-7.178613724012094,41.48458311837944
pt.ine.add.PTCONT.855813,R JOÃO MARIA SARMENTO PIMENTEL,118,5370-326,MIRANDELA,-7.178613724012094,41.48458311837944
pt.ine.add.PTCONT.855814,R JOÃO MARIA SARMENTO PIMENTEL,118,5370-326,MIRANDELA,-7.178613724012094,41.48458311837944
pt.ine.add.PTCONT.855815,R MONTEVIDEU,2,5370-358,MIRANDELA,-7.183121147487593,41.483395930648825
pt.ine.add.PTCONT.856052,R OLIMPO CABRAL,33,5370-173,MASCARENHAS,-7.135634446769382,41.563774617168534
pt.ine.add.PTCONT.856053,R FONTE,8,5370-173,MASCARENHAS,-7.137815341472419,41.56305522285922
pt.ine.add.PTCONT.856093,R D LUIS,208,5370-290,MIRANDELA,-7.196532643490776,41.484964527241566
pt.ine.add.PTCONT.856094,R COMBATENTES DA GRANDE GUERRA,16,5370-418,MIRANDELA,-7.180684450221737,41.486265972659126
pt.ine.add.PTCONT.856095,R COMBATENTES DA GRANDE GUERRA,16,5370-418,MIRANDELA,-7.180684450221737,41.486265972659126
pt.ine.add.PTCONT.856096,R COMBATENTES DA GRANDE GUERRA,16,5370-418,MIRANDELA,-7.180684450221737,41.486265972659126
pt.ine.add.PTCONT.856097,R CAPOEIRA,12,5370-331,MIRANDELA,-7.180078244454872,41.4851444899472
pt.ine.add.PTCONT.856098,R PINTOR HILARIO TEIXEIRA LOPES,106,5370-473,MIRANDELA,-7.188983693294566,41.48204862654606
pt.ine.add.PTCONT.856099,AV AMOREIRAS,306,5370-204,MIRANDELA,-7.179670342080084,41.483565458129064
pt.ine.add.PTCONT.856100,AV AMOREIRAS,306,5370-204,MIRANDELA,-7.179670342080084,41.483565458129064
pt.ine.add.PTCONT.856101,AV AMOREIRAS,306,5370-204,MIRANDELA,-7.179670342080084,41.483565458129064
pt.ine.add.PTCONT.856102,R TARANA,243,5370-348,MIRANDELA,-7.1751429378540506,41.48285255902706
pt.ine.add.PTCONT.856103,R TARANA,234,5370-348,MIRANDELA,-7.1751429378540506,41.48285255902706
