id,street,house,postcode,city,lon,lat
pt.ine.add.PTCONT.5286480,ZN INDUSTRIAL,,5470-430,SALTO,-7.940269664737316,41.650341170109506
pt.ine.add.PTCONT.5286481,R PADRE JOÃO ADELINO ALVES FERREIRA,24,5470-430,SALTO,-7.945783709410542,41.640662396613166
pt.ine.add.PTCONT.5286482,R DO TORRÃO DA VEIGA,5,5470-430,SALTO,-7.948402808919811,41.6397752759622
pt.ine.add.PTCONT.5286483,R DO MURO,35,5470-430,SALTO,-7.944158017833108,41.63838181844382
pt.ine.add.PTCONT.5286484,R DO ADRO,4,5470-430,SALTO,-7.944648006194321,41.639102913008614
pt.ine.add.PTCONT.5286511,R DA ALVARINHA,1,5470-461,VILAR PERDIZES (S MIGUEL),-7.630015153193338,41.85838916437628
pt.ine.add.PTCONT.5286512,R DOS CARRINS,56,5470-459,VILAR PERDIZES (S MIGUEL),-7.629788699038775,41.856551509075665
pt.ine.add.PTCONT.5286513,AV CENTRAL,13,5470-459,VILAR PERDIZES (S MIGUEL),-7.631257867649115,41.85501838169484
pt.ine.add.PTCONT.5286514,R DA CARVALHA MOURA,,5470-464,SARRAQUINHOS,-7.6386113975620065,41.81024089962259
pt.ine.add.PTCONT.5286515,R DO VIDOEIRO,29,5470-464,SARRAQUINHOS,-7.642965743733231,41.808927068982044
pt.ine.add.PTCONT.5286516,R PRINCIPAL,12,5470-466,SARRAQUINHOS,-7.686016123392045,41.79088891548073
pt.ine.add.PTCONT.5286586,R DO OUTEIRO,10,5470-016,CABRIL MTR,-8.02005940991247,41.720945190137414
pt.ine.add.PTCONT.5286587,R DE CIMA,,5470-022,CABRIL MTR,-8.036862810048545,41.71900673178264
pt.ine.add.PTCONT.5286635,R DA CASA NOVA,1,5470-020,CABRIL MTR,-8.0528341443769,41.708935062744814
pt.ine.add.PTCONT.5286636,R DA PORTELA,,5470-020,CABRIL MTR,-8.051718426374523,41.707583749533626
pt.ine.add.PTCONT.5286637,R DA EIRA GALEGA,1,5470-017,CABRIL MTR,-8.090398406662677,41.70221152039764
pt.ine.add.PTCONT.5286638,R DAS CHÃS DE TRÁS,,5470-017,CABRIL MTR,-8.085654720783877,41.699679666181396
pt.ine.add.PTCONT.5286639,BC DA PAULA,1 A,5470-041,CAMBESES DO RIO,-7.837906655815966,41.80296696267549
pt.ine.add.PTCONT.5286679,R DE CIMA,,5470-051,CERVOS,-7.6728284977723105,41.7609095854062
pt.ine.add.PTCONT.5286680,R DO CAPITÃO,3,5470-067,CHÃ,-7.782351699151412,41.796238315514465
pt.ine.add.PTCONT.5286681,R DIREITA,14,5470-072,CHÃ,-7.7951333634240605,41.78857874532214
pt.ine.add.PTCONT.5286682,R DAS CRUZES,12,5470-071,CHÃ,-7.78697923177215,41.78144179353153
pt.ine.add.PTCONT.5286683,R PRINCIPAL,9,5470-063,CHÃ,-7.80991700339813,41.7840655732034
pt.ine.add.PTCONT.5286791,R DA RAPOSEIRA,8,5470-127,FERRAL,-8.020256742178736,41.697446195595646
pt.ine.add.PTCONT.5286743,R DO PÉ DE CARVALHO,31,5470-063,CHÃ,-7.807553318132561,41.78048455322898
pt.ine.add.PTCONT.5286744,R PRINCIPAL,54,5470-063,CHÃ,-7.807651958478329,41.78000765280919
pt.ine.add.PTCONT.5286745,R DE TRÁS,,5470-062,CHÃ,-7.75803053145756,41.77858688946334
pt.ine.add.PTCONT.5286746,R DE STO ISIDRO,21 A,5470-062,CHÃ,-7.757234799853008,41.77684663407301
pt.ine.add.PTCONT.5286792,R CENTRAL,20,5470-122,FERRAL,-7.998159063037336,41.69432515422916
pt.ine.add.PTCONT.5286747,R ANTÓNIO DO PADRÃO,3,5470-073,CHÃ,-7.7951173439680925,41.766430341039005
pt.ine.add.PTCONT.5286748,R DO CARVALHAL,,5470-101,COVELO DO GEREZ,-7.981152261844551,41.723664402173085
pt.ine.add.PTCONT.5286749,R DO BARREIRO,,5470-101,COVELO DO GEREZ,-7.9837840749411315,41.713340832740684
pt.ine.add.PTCONT.5288495,,,5470-525,VIADE DE BAIXO,-7.842581603501921,41.75628725588841
pt.ine.add.PTCONT.5286787,R DOS PARDIEIROS,8,5470-124,FERRAL,-7.98854318029748,41.70229059394425
pt.ine.add.PTCONT.5286788,R DA FECHEIRA,1,5470-129,FERRAL,-7.995566104099404,41.69913897368673
pt.ine.add.PTCONT.5286789,R CENTRAL,15,5470-123,FERRAL,-7.975686797594434,41.69791599247727
pt.ine.add.PTCONT.5286790,R CENTRAL,28,5470-123,FERRAL,-7.974968167158627,41.697032659245885
pt.ine.add.PTCONT.5286850,R DA ESTRADA,4,5470-151,FIÃES DO RIO,-7.9247655974056554,41.77512077065395
pt.ine.add.PTCONT.5286851,R DA ESTRADA,3,5470-151,FIÃES DO RIO,-7.925093250648923,41.77422102307569
pt.ine.add.PTCONT.5286852,R CENTRAL,24,5470-160,GRALHAS,-7.705748169924854,41.85214155646485
pt.ine.add.PTCONT.5286853,BC DO FILIPE,10,5470-160,GRALHAS,-7.705229194155662,41.85051003221173
pt.ine.add.PTCONT.5286854,R DAS LAGES,7,5470-160,GRALHAS,-7.704073208660519,41.84870506523645
pt.ine.add.PTCONT.5286866,R DIREITA,4,5470-462,SARRAQUINHOS,-7.659384197145925,41.777313142091835
pt.ine.add.PTCONT.5286867,R 25 DE ABRIL,14,5470-480,SOLVEIRA,-7.6770569223703795,41.84636815951289
pt.ine.add.PTCONT.5286868,R DO COMÉRCIO,1,5470-523,VIADE DE BAIXO,-7.876681312798276,41.73832550076
pt.ine.add.PTCONT.5286869,BR DAS LAMELAS,3,5470-523,VIADE DE BAIXO,-7.873580528882801,41.738183487164385
pt.ine.add.PTCONT.5286870,R DA PEDREIRA,33,5470-543,VILA DA PONTE MTR,-7.8950347037854955,41.71616239848025
pt.ine.add.PTCONT.5286908,R DA CASTELHANA,15,5470-219,MONTALEGRE,-7.738790906084872,41.83458629720118
pt.ine.add.PTCONT.5286909,R DO CAMPO,10,5470-219,MONTALEGRE,-7.7399732668359915,41.834167194894924
pt.ine.add.PTCONT.5286910,R DO TERNOVAL,17,5470-219,MONTALEGRE,-7.749055400253794,41.8192344112067
pt.ine.add.PTCONT.5286911,R DO MORGADO,,5470-502,VENDA NOVA,-7.9776307119696295,41.673897153352726
pt.ine.add.PTCONT.5286912,R DE FORA DA EIRA,82,5470-504,VENDA NOVA,-7.9595163667685656,41.6713322137971
pt.ine.add.PTCONT.5286913,R DA BOAVISTA,97,5470-504,VENDA NOVA,-7.95577194446669,41.6705431862619
pt.ine.add.PTCONT.5286972,R BENTO GONÇALVES,221,5470-171,MEIXEDO MTR,-7.776405580635306,41.835735643592265
pt.ine.add.PTCONT.5286973,R C B,B3,5470-171,MEIXEDO MTR,-7.775998788147028,41.833114417558484
pt.ine.add.PTCONT.5286974,R C B,B1,5470-171,MEIXEDO MTR,-7.775998788147028,41.833114417558484
pt.ine.add.PTCONT.5286975,R C,1,5470-171,MEIXEDO MTR,-7.775998788147028,41.833114417558484
pt.ine.add.PTCONT.5286976,R C,1,5470-171,MEIXEDO MTR,-7.775998788147028,41.833114417558484
pt.ine.add.PTCONT.5286977,R C B,B2,5470-171,MEIXEDO MTR,-7.775998788147028,41.833114417558484
pt.ine.add.PTCONT.5286978,R C,1,5470-171,MEIXEDO MTR,-7.775998788147028,41.833114417558484
pt.ine.add.PTCONT.5286979,R C,1,5470-171,MEIXEDO MTR,-7.775998788147028,41.833114417558484
pt.ine.add.PTCONT.5286980,R C,1,5470-171,MEIXEDO MTR,-7.775998788147028,41.833114417558484
pt.ine.add.PTCONT.5286981,R C,1,5470-171,MEIXEDO MTR,-7.775998788147028,41.833114417558484
pt.ine.add.PTCONT.5287014,AV MARGINAL DO CÁVADO,9,5470-171,MEIXEDO MTR,-7.786000350442141,41.82910258954772
pt.ine.add.PTCONT.5287015,R DA TRINDADE,41,5470-171,MEIXEDO MTR,-7.786820158512883,41.826638154995855
pt.ine.add.PTCONT.5287016,TV DE AVELAR,891,5470-171,MEIXEDO MTR,-7.793557619514939,41.815890287925754
pt.ine.add.PTCONT.5287070,R 25 DE ABRIL,2,5470-171,MEIXEDO MTR,-7.791854004220073,41.82394322026533
pt.ine.add.PTCONT.5287071,R PRINCIPAL,9,5470-302,MORGADE,-7.743533794524886,41.75716455991186
pt.ine.add.PTCONT.5287072,R DO SABUGUEIRO,2,5470-302,MORGADE,-7.749841798473375,41.75391753112892
pt.ine.add.PTCONT.5287073,R CENTRAL,91,5470-304,MORGADE,-7.747825061724403,41.749355049432324
pt.ine.add.PTCONT.5287074,R CARREIROS,8,5470-311,MOURILHE,-7.8421245799510295,41.838765976005405
pt.ine.add.PTCONT.5287490,,,5470-543,VILA DA PONTE MTR,-7.888610196926873,41.71817469676796
pt.ine.add.PTCONT.5287141,R DA BAGANHA,2,5470-321,NEGRÕES,-7.768282401355179,41.71633409486118
pt.ine.add.PTCONT.5287142,R DA CIDADE,4,5470-219,MONTALEGRE,-7.757559971320119,41.861235890487116
pt.ine.add.PTCONT.5287143,R DE TRÁS,1,5470-171,MEIXEDO MTR,-7.781006209153522,41.85957253266949
pt.ine.add.PTCONT.5287144,R DA BARRAGEM,1,5470-362,PARADELA MTR,-7.944175488232167,41.763746993163785
pt.ine.add.PTCONT.5287221,R PRINCIPAL,,5470-362,PARADELA MTR,-7.94465309546519,41.76080365479514
pt.ine.add.PTCONT.5287222,R DO CÔTO,,5470-370,PITÕES DAS JUNIAS,-7.951258131096186,41.84048515139763
pt.ine.add.PTCONT.5287223,R DA EIRA,3,5470-384,PONDRAS,-7.932626790168922,41.69551702720784
pt.ine.add.PTCONT.5287224,R DO CABO DA ALDEIA,,5470-393,REIGOSO MTR,-7.935404488214734,41.714231160102074
pt.ine.add.PTCONT.5287288,R DO CABO DA ALDEIA,,5470-393,REIGOSO MTR,-7.935404488214734,41.714231160102074
pt.ine.add.PTCONT.5287289,R DO CASAL,,5470-392,REIGOSO MTR,-7.918591977440704,41.718369628389546
pt.ine.add.PTCONT.5287290,R SOUTO,20,5470-402,SALTO,-7.934916687426724,41.66959975529416
pt.ine.add.PTCONT.5287291,R DE BAIXO,6,5470-417,SALTO,-7.9534719349370775,41.62965422071881
pt.ine.add.PTCONT.5287292,LG DA CAPELA,3,5470-417,SALTO,-7.955382364474615,41.6288018440936
pt.ine.add.PTCONT.5287293,R DOS PARDIEIROS,17,5470-405,SALTO,-7.915272225895824,41.59813838051395
pt.ine.add.PTCONT.5287422,R DA SOBREIRA DO CHÃO,4,5470-017,CABRIL MTR,-8.090085801544053,41.70257154511381
pt.ine.add.PTCONT.5287414,TV DA FONTE,10,5470-312,MOURILHE,-7.832265334086349,41.84366538179
pt.ine.add.PTCONT.5287419,R DO FUNDO DA RUA,6,5470-362,PARADELA MTR,-7.9460406361802605,41.7633358872028
pt.ine.add.PTCONT.5287430,R PRINCIPAL,43,5470-063,CHÃ,-7.80781621495262,41.780827426853584
pt.ine.add.PTCONT.5287433,R DO FUNDO DA RUA,9,5470-430,SALTO,-7.874669700378487,41.607265044293186
pt.ine.add.PTCONT.5287442,R DE S PEDRO,5,5470-082,CONTIM,-7.8855036413322175,41.79173516086088
pt.ine.add.PTCONT.5287559,R DE STA MARIA MADALENA,16,5470-543,VILA DA PONTE MTR,-7.89565033622687,41.72193491449282
pt.ine.add.PTCONT.5287571,R PADRE MANUEL BAPTISTA,,5470-543,VILA DA PONTE MTR,-7.895756780935019,41.71913504723117
pt.ine.add.PTCONT.5287999,,,5470-105,COVELO DO GEREZ,-7.976410528983537,41.731338010940824
pt.ine.add.PTCONT.5288007,,,5470-101,COVELO DO GEREZ,-7.976060671814243,41.731868738842586
pt.ine.add.PTCONT.5288008,R DOS CANASTROS,10,5470-125,FERRAL,-7.960959669740425,41.70651125302093
pt.ine.add.PTCONT.5288009,R CENTRAL,19,5470-160,GRALHAS,-7.705603369513004,41.85218603394001
pt.ine.add.PTCONT.5288010,R DA FORJA,4,5470-171,MEIXEDO MTR,-7.787147534118875,41.82619797879939
pt.ine.add.PTCONT.5288011,R DE AVELAR,406,5470-171,MEIXEDO MTR,-7.794716059290537,41.81988218324298
pt.ine.add.PTCONT.5288012,R DE TRÁS,10,5470-323,NEGRÕES,-7.801267664165146,41.737439192326626
pt.ine.add.PTCONT.5288023,R DO FUNDO DA VILA,2,5470-069,CHÃ,-7.806777405722442,41.762700621703395
pt.ine.add.PTCONT.5288024,R DA CARVALHA,5,5470-082,CONTIM,-7.889648755113715,41.790006366688374
pt.ine.add.PTCONT.5288025,R DA IGREJA,,5470-101,COVELO DO GEREZ,-7.98118704988136,41.71909967382374
pt.ine.add.PTCONT.5288026,R EGAS MONIZ,36,5470-171,MEIXEDO MTR,-7.770603961876869,41.84406353647794
pt.ine.add.PTCONT.5288027,R MIGUEL TORGA,526,5470-171,MEIXEDO MTR,-7.789974743701377,41.82197489697319
pt.ine.add.PTCONT.5288028,R DO TORNADOURO,21,5470-321,NEGRÕES,-7.770912331904393,41.71663952927512
pt.ine.add.PTCONT.5288029,R DO MORGADO,,5470-502,VENDA NOVA,-7.978578389798595,41.674321599372334
pt.ine.add.PTCONT.5288039,R DA FONTE DA CABRA,4,5470-069,CHÃ,-7.809540290256189,41.763284654746045
pt.ine.add.PTCONT.5288040,R DA POÇA,,5470-127,FERRAL,-8.021169115885524,41.69780722943358
pt.ine.add.PTCONT.5288041,R CENTRAL,44,5470-160,GRALHAS,-7.705622125123708,41.85117773745803
pt.ine.add.PTCONT.5288042,R BENTO GONÇALVES,332,5470-171,MEIXEDO MTR,-7.775005723358183,41.83633450917721
pt.ine.add.PTCONT.5288043,R DE S ROSENDO,13,5470-171,MEIXEDO MTR,-7.787885604257143,41.82773076359211
pt.ine.add.PTCONT.5288044,R DA CORUJEIRA,41,5470-171,MEIXEDO MTR,-7.791537869386464,41.822276665453316
pt.ine.add.PTCONT.5288051,R DA QUEBRADA,5,5470-057,CERVOS,-7.67970012154349,41.73793315297531
pt.ine.add.PTCONT.5288052,R CENTRAL,7,5470-054,CERVOS,-7.690828692811066,41.72253559576386
pt.ine.add.PTCONT.5288053,R PINTO DE DONÕES,3,5470-171,MEIXEDO MTR,-7.772178160237576,41.83604655660871
pt.ine.add.PTCONT.5288054,R DE AVELAR,47,5470-171,MEIXEDO MTR,-7.792356429681492,41.82226108992864
pt.ine.add.PTCONT.5288055,R DO SAROUTO,2,5470-304,MORGADE,-7.752006942982874,41.749702123116535
pt.ine.add.PTCONT.5288056,R DO BR NOVO,4,5470-521,VIADE DE BAIXO,-7.854384786600391,41.757324879435615
pt.ine.add.PTCONT.5288057,R DA ARREQUEIXADA,,5470-525,VIADE DE BAIXO,-7.835892749019564,41.75703543991243
pt.ine.add.PTCONT.5288080,R DO BR DOS TRABALHADORES,,5470-526,VIADE DE BAIXO,-7.864152797290597,41.739017136064874
pt.ine.add.PTCONT.5288081,R DO FORNO,2,5470-527,VIADE DE BAIXO,-7.8525381476946485,41.711960902949755
pt.ine.add.PTCONT.5288082,R DE BAIXO,4,5470-527,VIADE DE BAIXO,-7.851654247567424,41.7107522716567
pt.ine.add.PTCONT.5288088,R CENTRAL,31,5470-465,SARRAQUINHOS,-7.662304377924025,41.79740264990677
pt.ine.add.PTCONT.5288093,R DO PADELAR,4,5470-160,GRALHAS,-7.704967730067121,41.84818621316962
pt.ine.add.PTCONT.5288094,R DA ESCOLA,8,5470-312,MOURILHE,-7.833454215528521,41.84433473353385
pt.ine.add.PTCONT.5288108,R DA CAPELA,20,5470-067,CHÃ,-7.7838669177728566,41.796377982346954
pt.ine.add.PTCONT.5288109,R DA CAPELA,17,5470-067,CHÃ,-7.783773013425903,41.79594553522986
pt.ine.add.PTCONT.5288110,R DO CARNEIRO,5,5470-152,FIÃES DO RIO,-7.935726520036262,41.77389765330355
pt.ine.add.PTCONT.5288111,TV DA FONTE,2,5470-219,MONTALEGRE,-7.765309187275865,41.89186297635167
pt.ine.add.PTCONT.5288112,R DO CRUZEIRO,,5470-480,SOLVEIRA,-7.669215362732082,41.843437701313086
pt.ine.add.PTCONT.5288113,R DA IGREJA,,5470-480,SOLVEIRA,-7.66872321879957,41.843228637173716
pt.ine.add.PTCONT.5288114,R DO CANTO DA MOURA,,5470-480,SOLVEIRA,-7.670695590666226,41.84186809618232
pt.ine.add.PTCONT.5288115,LG DA POÇA DA CEGA,,5470-480,SOLVEIRA,-7.6688904761046635,41.84174377212173
pt.ine.add.PTCONT.5288116,R PRINCIPAL,,5470-362,PARADELA MTR,-7.9448332584492345,41.76087597764578
pt.ine.add.PTCONT.5288117,R DO TARANHAL,18,5470-370,PITÕES DAS JUNIAS,-7.947714190942269,41.8419470254081
pt.ine.add.PTCONT.5288121,R DO CÔTO,28,5470-370,PITÕES DAS JUNIAS,-7.951293664366108,41.84069228379755
pt.ine.add.PTCONT.5288122,R DE INFESTA,9,5470-382,PONDRAS,-7.913324926842327,41.70178420728794
pt.ine.add.PTCONT.5288123,R DO FUNDO DO LUGAR,12,5470-384,PONDRAS,-7.933673760750305,41.69491561176524
pt.ine.add.PTCONT.5288124,R DO CRUZEIRO,,5470-393,REIGOSO MTR,-7.934878717260968,41.717183404338904
pt.ine.add.PTCONT.5288125,R NOVA,2,5470-393,REIGOSO MTR,-7.935212781186383,41.714050759959456
pt.ine.add.PTCONT.5288126,R NOVA,,5470-393,REIGOSO MTR,-7.933749255945193,41.71325592154478
pt.ine.add.PTCONT.5288149,R DA SEARA,9,5470-219,MONTALEGRE,-7.7427999424377045,41.818709140255564
pt.ine.add.PTCONT.5288150,R DA IGREJA,6,5470-311,MOURILHE,-7.841904198632341,41.836919739523964
pt.ine.add.PTCONT.5288151,R DO CRUZEIRO,45,5470-393,REIGOSO MTR,-7.935187920223263,41.71432082239747
pt.ine.add.PTCONT.5288152,R DO FREIXO,3,5470-391,REIGOSO MTR,-7.938696798272104,41.706304680490106
pt.ine.add.PTCONT.5288162,R DO BARREIRO,29,5470-219,MONTALEGRE,-7.755889734109586,41.8605821820353
pt.ine.add.PTCONT.5288163,R PRINCIPAL,34,5470-392,REIGOSO MTR,-7.916309530573627,41.71098246974724
pt.ine.add.PTCONT.5288164,R DA FECHA,3,5470-426,SALTO,-7.928767271830825,41.62823540406957
pt.ine.add.PTCONT.5288165,R BAGULHAO,,5470-403,SALTO,-7.956898275405864,41.60975243576956
pt.ine.add.PTCONT.5288166,R DO GIESTAL,1,5470-430,SALTO,-7.877533865241687,41.60801875186531
pt.ine.add.PTCONT.5288167,R DA GALINHELA,6,5470-405,SALTO,-7.9120750480539765,41.600068071133784
pt.ine.add.PTCONT.5288180,R DO CEMITÉRIO,16,5470-064,CHÃ,-7.723389001808548,41.78994787859163
pt.ine.add.PTCONT.5288181,R DA FELICIDADE,20,5470-407,SALTO,-7.977335857287537,41.6567269125787
pt.ine.add.PTCONT.5288182,LG DE S FRUTUOSO,,5470-441,SALTO,-7.901439950885629,41.6256265455862
pt.ine.add.PTCONT.5288183,R DAS LAGES,3,5470-405,SALTO,-7.91297861939988,41.598908329114984
pt.ine.add.PTCONT.5288184,BR DO OUTEIRO,20,5470-450,SANTO ANDRÉ,-7.667067888991586,41.867251632513785
pt.ine.add.PTCONT.5288185,TV DA RAPOSA,3,5470-450,SANTO ANDRÉ,-7.667608175069121,41.86250911373847
pt.ine.add.PTCONT.5288212,R DO MIROTE,25,5470-430,SALTO,-7.952216594773816,41.64084376855321
pt.ine.add.PTCONT.5288213,QLHA DO BORRALHEIRO,18,5470-430,SALTO,-7.944998663495344,41.638212128231686
pt.ine.add.PTCONT.5288214,TV 1 DA R DA PEDREIRA,24,5470-460,VILAR PERDIZES (S MIGUEL),-7.635325004586087,41.85388366423152
pt.ine.add.PTCONT.5288220,R DO CARVALHAL,6,5470-053,CERVOS,-7.703130110598091,41.77190309225133
pt.ine.add.PTCONT.5288221,R DO OUTEIRO,13,5470-450,SANTO ANDRÉ,-7.667159195400468,41.86628865613516
pt.ine.add.PTCONT.5288222,R DA FORJA,,5470-450,SANTO ANDRÉ,-7.666793279853144,41.86526080129278
pt.ine.add.PTCONT.5288223,R BARROS,,5470-480,SOLVEIRA,-7.669392958926942,41.84218696262222
pt.ine.add.PTCONT.5288224,TV DO ALEMÃO,,5470-480,SOLVEIRA,-7.669859016223201,41.83933480267089
pt.ine.add.PTCONT.5288225,LG DO OUTEIRO,12,5470-490,TOURÉM,-7.898287241855395,41.90836364362072
pt.ine.add.PTCONT.5288226,R DAS EIRAS,11,5470-490,TOURÉM,-7.898641574623765,41.9070499001498
pt.ine.add.PTCONT.5288234,R DA ESTRADA MUNICIPAL,57,5470-067,CHÃ,-7.7815385325954916,41.79092384121088
pt.ine.add.PTCONT.5288235,TV 2 DA R DA PEDREIRA,2,5470-460,VILAR PERDIZES (S MIGUEL),-7.635954372449229,41.855029803772084
pt.ine.add.PTCONT.5288236,R DIREITA,35,5470-490,TOURÉM,-7.897028195844742,41.90660543765725
pt.ine.add.PTCONT.5288237,R DO PENEDO DA CARVALHA,142,5470-504,VENDA NOVA,-7.95397597164569,41.668649649513
pt.ine.add.PTCONT.5288238,R DA CRUZ DA AROUCA,13,5470-527,VIADE DE BAIXO,-7.859411505191358,41.75719290852765
pt.ine.add.PTCONT.5288481,R DA COSTA,88,5470-171,MEIXEDO MTR,-7.7924694543790425,41.82591677466876
pt.ine.add.PTCONT.5288485,R DA ESTRADA MUNICIPAL,7,5470-321,NEGRÕES,-7.768184123649429,41.72096157483558
pt.ine.add.PTCONT.5288564,R PADRE MANUEL BAPTISTA,14,5470-543,VILA DA PONTE MTR,-7.895959052359246,41.71968467818303
pt.ine.add.PTCONT.5288565,R DO OUTEIRO DA COSTA,,5470-543,VILA DA PONTE MTR,-7.893271787281726,41.71844562185589
pt.ine.add.PTCONT.5289008,TV DA GRANJA,3,5470-013,CABRIL MTR,-8.035080080033403,41.71385521735374
pt.ine.add.PTCONT.5289009,TV DA GRANJA,3,5470-013,CABRIL MTR,-8.035080080033403,41.71385521735374
pt.ine.add.PTCONT.5289010,R DA PORTELA,3,5470-091,COVELÃES,-7.90021944696836,41.80441567593259
pt.ine.add.PTCONT.5289023,R DO CAMPO,4,5470-071,CHÃ,-7.785009903429208,41.78526228294656
pt.ine.add.PTCONT.5289024,R DE S PEDRO,19,5470-082,CONTIM,-7.888321104933246,41.79113797201828
pt.ine.add.PTCONT.5289025,R DO CARVALHO,14,5470-082,CONTIM,-7.887847109729665,41.79239743473769
pt.ine.add.PTCONT.5289026,R DA CARVALHEDA,,5470-101,COVELO DO GEREZ,-7.98820530789658,41.719000695791195
pt.ine.add.PTCONT.5289027,R DO OUTEIRO,41,5470-180,MEIXIDE,-7.5987409381374755,41.813294538859594
pt.ine.add.PTCONT.5289028,AV CENTRAL,41,5470-459,VILAR PERDIZES (S MIGUEL),-7.634374786286495,41.85063836859285
pt.ine.add.PTCONT.5289038,R DO BARREIRO,6,5470-023,CABRIL MTR,-8.023458122878047,41.70812748201148
pt.ine.add.PTCONT.5289039,R DO RIGUEIRO DE BAIXO,11,5470-091,COVELÃES,-7.898328320526861,41.801647793030824
pt.ine.add.PTCONT.5289040,R DE ENTRE AS SEBES,12,5470-141,FERVIDELAS,-7.900263448267015,41.7556803466761
pt.ine.add.PTCONT.5289041,TV DAS PEDREIRAS,14 A,5470-160,GRALHAS,-7.709216306049157,41.85213640201063
pt.ine.add.PTCONT.5289042,R DA IGREJA,13,5470-219,MONTALEGRE,-7.739750787341949,41.83511177986359
pt.ine.add.PTCONT.5289043,R DO MORGADO,,5470-502,VENDA NOVA,-7.977521722726164,41.67427515596788
pt.ine.add.PTCONT.5289067,R DA EIRA,13,5470-023,CABRIL MTR,-8.025044254937546,41.708047952755784
pt.ine.add.PTCONT.5289068,R DOS CAMPOS,4,5470-160,GRALHAS,-7.706186401395219,41.851431927867964
pt.ine.add.PTCONT.5289069,AV MARGINAL DO CÁVADO,13,5470-171,MEIXEDO MTR,-7.786157178474875,41.829040040144115
pt.ine.add.PTCONT.5289070,R GEN HUMBERTO DELGADO,541,5470-171,MEIXEDO MTR,-7.7910918575243855,41.82240138491179
pt.ine.add.PTCONT.5289071,R GEN HUMBERTO DELGADO,541,5470-171,MEIXEDO MTR,-7.7910918575243855,41.82240138491179
pt.ine.add.PTCONT.5289072,R GEN HUMBERTO DELGADO,541,5470-171,MEIXEDO MTR,-7.7910918575243855,41.82240138491179
pt.ine.add.PTCONT.5289073,R GEN HUMBERTO DELGADO,541,5470-171,MEIXEDO MTR,-7.7910918575243855,41.82240138491179
pt.ine.add.PTCONT.5289074,R GEN HUMBERTO DELGADO,541,5470-171,MEIXEDO MTR,-7.7910918575243855,41.82240138491179
pt.ine.add.PTCONT.5289075,R CENTRAL,8,5470-304,MORGADE,-7.747808819201026,41.75408179688262
pt.ine.add.PTCONT.5289076,R DA COSTA,1,5470-321,NEGRÕES,-7.770028026938523,41.715763400097416
pt.ine.add.PTCONT.5289077,R CENTRAL,27,5470-504,VENDA NOVA,-7.959809714705939,41.67388967182775
pt.ine.add.PTCONT.5289078,R DE FORA DA EIRA,,5470-504,VENDA NOVA,-7.9591196097828805,41.67151168542111
pt.ine.add.PTCONT.5289101,R CAMILO CASTELO BRANCO,,5470-171,MEIXEDO MTR,-7.774723320334806,41.835163198907104
pt.ine.add.PTCONT.5289102,AV CENTRAL,19,5470-526,VIADE DE BAIXO,-7.870276012549072,41.74084100137984
pt.ine.add.PTCONT.5289113,R PADRE DIOGO MARTINS PEREIRA,4,5470-020,CABRIL MTR,-8.052320665818423,41.70639570918269
pt.ine.add.PTCONT.5289114,R DA CALÇADA,8,5470-104,COVELO DO GEREZ,-7.98749348164922,41.73621446929688
pt.ine.add.PTCONT.5289115,R DO GODO,,5470-110,DONÕES,-7.815916435442811,41.83350168367326
pt.ine.add.PTCONT.5289116,R CENTRAL,21,5470-142,FERVIDELAS,-7.915809862482692,41.75229849455064
pt.ine.add.PTCONT.5289126,R PRINCIPAL,1,5470-151,FIÃES DO RIO,-7.926635977472493,41.776969846387246
pt.ine.add.PTCONT.5289127,R DA COSTA,258,5470-171,MEIXEDO MTR,-7.79254603100299,41.82736653624058
pt.ine.add.PTCONT.5289128,R DO FORNO,,5470-464,SARRAQUINHOS,-7.6394489157504815,41.80930815590917
pt.ine.add.PTCONT.5289129,R CENTRAL,62,5470-463,SARRAQUINHOS,-7.680226669815751,41.80153521259081
pt.ine.add.PTCONT.5289141,R DA ESCOLA,11,5470-067,CHÃ,-7.787168046275706,41.79778349220073
pt.ine.add.PTCONT.5289142,R DA CAPELA,36,5470-067,CHÃ,-7.7856857973603475,41.79598734929188
pt.ine.add.PTCONT.5289143,BC DO PIAL,2,5470-160,GRALHAS,-7.705098560545057,41.84842978922178
pt.ine.add.PTCONT.5289144,R PRINCIPAL,17,5470-219,MONTALEGRE,-7.744588390942471,41.819516499214515
pt.ine.add.PTCONT.5289145,R DO OUTEIRO,17,5470-301,MORGADE,-7.741943297892197,41.731958519961765
pt.ine.add.PTCONT.5289146,R DAS CHOUSINHAS,8,5470-331,OUTEIRO MTR,-7.973735099172493,41.7682394922309
pt.ine.add.PTCONT.5289147,R DA POÇA,3,5470-466,SARRAQUINHOS,-7.685659984122684,41.791931918910315
pt.ine.add.PTCONT.5289148,R DA FECHEIRA,7,5470-472,SEZELHE,-7.889531195599546,41.808345985862495
pt.ine.add.PTCONT.5289153,R G,97,5470-171,MEIXEDO MTR,-7.7767622454034,41.83437725158584
pt.ine.add.PTCONT.5289154,LG DA POÇA DA CEGA,,5470-480,SOLVEIRA,-7.66897390829746,41.841861151944364
pt.ine.add.PTCONT.5289166,R LEONOR DE ALVIM,3,5470-171,MEIXEDO MTR,-7.787294642514515,41.825703239146016
pt.ine.add.PTCONT.5289167,R DA CORREDOURA,1,5470-370,PITÕES DAS JUNIAS,-7.942778950476885,41.83747331094652
pt.ine.add.PTCONT.5289168,R DE CIMA,3,5470-384,PONDRAS,-7.933323054557431,41.69567129982985
pt.ine.add.PTCONT.5289177,EM 509,,5470-219,MONTALEGRE,-7.751824323962288,41.86171217189681
pt.ine.add.PTCONT.5289178,R DA ARGUELINHA,3,5470-382,PONDRAS,-7.910569838203082,41.70291334951138
pt.ine.add.PTCONT.5289179,R DO RIGUEIRO,3,5470-392,REIGOSO MTR,-7.917910226463127,41.721006378826445
pt.ine.add.PTCONT.5289180,R DAS BARREIRAS,1,5470-419,SALTO,-7.9917059593952855,41.6624807802198
pt.ine.add.PTCONT.5289181,R DA CHARCA,5,5470-419,SALTO,-7.993287853240283,41.66386026493894
pt.ine.add.PTCONT.5289182,R DA CAPELA,15,5470-419,SALTO,-7.9925864553978245,41.660636123233054
pt.ine.add.PTCONT.5289194,R VICTOR BRANCO,4,5470-171,MEIXEDO MTR,-7.790971021698886,41.82475089277885
pt.ine.add.PTCONT.5289195,R DA CARRACOVA,8,5470-311,MOURILHE,-7.842128046639099,41.838000703748044
pt.ine.add.PTCONT.5289196,R CENTRAL,10,5470-441,SALTO,-7.901751267649504,41.625816249090605
pt.ine.add.PTCONT.5289205,R DOS OUTÕES,6,5470-064,CHÃ,-7.7222101228782645,41.7918163686467
pt.ine.add.PTCONT.5289206,R DO MEIO,12,5470-065,CHÃ,-7.735473234913705,41.78707324765888
pt.ine.add.PTCONT.5289207,R DO BARREIRO,27,5470-219,MONTALEGRE,-7.755454530249679,41.86085985296882
pt.ine.add.PTCONT.5289208,R CENTRAL,71,5470-430,SALTO,-7.948051983837753,41.640738099624286
pt.ine.add.PTCONT.5289209,R DA RAPOSA,5,5470-450,SANTO ANDRÉ,-7.6666636047571055,41.86321653797962
pt.ine.add.PTCONT.5289213,R DA FIEIRA,14,5470-053,CERVOS,-7.703085070684997,41.773244429363196
pt.ine.add.PTCONT.5289214,R DOS MEROUÇOS,9,5470-065,CHÃ,-7.738648880380508,41.787111205426825
pt.ine.add.PTCONT.5289215,R DO VALADO,61,5470-461,VILAR PERDIZES (S MIGUEL),-7.635468762594812,41.8493196340544
pt.ine.add.PTCONT.5289225,R PRINCIPAL,25,5470-322,NEGRÕES,-7.784085164839056,41.73837866620543
pt.ine.add.PTCONT.5289226,R DA IGREJA,,5470-480,SOLVEIRA,-7.6681065260096934,41.8419296699112
pt.ine.add.PTCONT.5289234,LG DO VALE,1,5470-051,CERVOS,-7.675610273330723,41.76034447765948
pt.ine.add.PTCONT.5289235,R DA LAVANDEIRA,13,5470-461,VILAR PERDIZES (S MIGUEL),-7.634606944944558,41.85175578083852
pt.ine.add.PTCONT.5289236,R DO MORGADO,,5470-502,VENDA NOVA,-7.978122767669184,41.67402386795675
pt.ine.add.PTCONT.5289237,R DO PENEDO DA CARVALHA,101,5470-504,VENDA NOVA,-7.957465135151693,41.67052777905332
pt.ine.add.PTCONT.5289481,R DO POUSADOURO,11,5470-480,SOLVEIRA,-7.668695634292005,41.83871788128861
pt.ine.add.PTCONT.5289547,TV DE PORTUGAL,5,5470-172,CHÃ,-7.749834612074293,41.80360721727096
pt.ine.add.PTCONT.5289566,R PRINCIPAL,18,5470-041,CAMBESES DO RIO,-7.838794314230749,41.803572465463105
pt.ine.add.PTCONT.5290093,TV DA LAIJA,3,5470-072,CHÃ,-7.793694993883835,41.78758413293637
pt.ine.add.PTCONT.5290094,R DAS CRUZES,7,5470-071,CHÃ,-7.787433320705121,41.782001370874625
pt.ine.add.PTCONT.5290095,R PRINCIPAL,4,5470-063,CHÃ,-7.810493995003294,41.78414822541821
pt.ine.add.PTCONT.5290096,R DA CAPELA,,5470-102,COVELO DO GEREZ,-7.994543246636493,41.7335041360309
pt.ine.add.PTCONT.5290097,R DO CAMPINO,16,5470-160,GRALHAS,-7.70429662177614,41.84770653595073
pt.ine.add.PTCONT.5290105,R STO AMARO,3,5470-101,COVELO DO GEREZ,-7.980997259483719,41.72314199430299
pt.ine.add.PTCONT.5290111,R DA PORTELA,21,5470-023,CABRIL MTR,-8.023396179735,41.70922585250638
pt.ine.add.PTCONT.5290112,TV DO SANTO I,1,5470-051,CERVOS,-7.67384196647337,41.76043646035549
pt.ine.add.PTCONT.5290113,R DE S PEDRO,12,5470-082,CONTIM,-7.887298028890807,41.79126183492083
pt.ine.add.PTCONT.5290114,R DOS RAMOS,5,5470-091,COVELÃES,-7.89837566192157,41.80186397061567
pt.ine.add.PTCONT.5290122,R DA ESTRADA,22,5470-081,CONTIM,-7.890206058138451,41.78897215685274
pt.ine.add.PTCONT.5290123,R DO FUNDO DA RUA,,5470-123,FERRAL,-7.974004949792019,41.69791367641413
pt.ine.add.PTCONT.5290124,R DO FUNDO DA RUA,,5470-123,FERRAL,-7.974137050624808,41.69793186629254
pt.ine.add.PTCONT.5290125,R DA PORTELA,120,5470-171,MEIXEDO MTR,-7.7858000923084605,41.82829168578237
pt.ine.add.PTCONT.5290126,R DA IGREJA,87,5470-504,VENDA NOVA,-7.957905919209441,41.67182496693589
pt.ine.add.PTCONT.5290131,R DO PAÇO,6,5470-083,CONTIM,-7.9025044633849415,41.787989121776
pt.ine.add.PTCONT.5290132,R DO OUTEIRO,9,5470-142,FERVIDELAS,-7.917217945370608,41.75189599372893
pt.ine.add.PTCONT.5290133,BC DO FILIPE,2,5470-160,GRALHAS,-7.705071335317625,41.850707516008264
pt.ine.add.PTCONT.5290134,R DA PORTELA,49,5470-171,MEIXEDO MTR,-7.788028022206363,41.825867504454244
pt.ine.add.PTCONT.5290135,R DA CORUJEIRA,32,5470-171,MEIXEDO MTR,-7.792681865957745,41.81990318274624
pt.ine.add.PTCONT.5290136,R DA POUSADA,,5470-526,VIADE DE BAIXO,-7.866248679070038,41.7408947429712
pt.ine.add.PTCONT.5290152,R ANGOLA,8,5470-171,MEIXEDO MTR,-7.77780650735737,41.83493869145733
pt.ine.add.PTCONT.5290153,R DA AZENHA,73,5470-171,MEIXEDO MTR,-7.789031154141965,41.829606890553464
pt.ine.add.PTCONT.5290154,R DO FORNO,18,5470-464,SARRAQUINHOS,-7.6404582884712715,41.809501559062404
pt.ine.add.PTCONT.5290164,R DO OUTEIRO,19,5470-067,CHÃ,-7.784858748372272,41.79763246109461
pt.ine.add.PTCONT.5290165,TV DO EIRÃO,14,5470-219,MONTALEGRE,-7.744815654536408,41.81975135411996
pt.ine.add.PTCONT.5290166,TV DO EIRÃO,14,5470-219,MONTALEGRE,-7.744815654536408,41.81975135411996
pt.ine.add.PTCONT.5290167,R PRINCIPAL,5,5470-219,MONTALEGRE,-7.74492680329587,41.81928355684353
pt.ine.add.PTCONT.5290168,R H,101,5470-171,MEIXEDO MTR,-7.776196436182924,41.8343754948575
pt.ine.add.PTCONT.5290169,R DE TRÁS DA CORTINHA,2,5470-462,SARRAQUINHOS,-7.656806589209397,41.77942728196706
pt.ine.add.PTCONT.5290176,R DO OUTEIRO,13,5470-171,MEIXEDO MTR,-7.787201418846782,41.8273685725676
pt.ine.add.PTCONT.5290181,R DO BOI,10,5470-312,MOURILHE,-7.832906752720901,41.84296480278695
pt.ine.add.PTCONT.5290182,R DA ARGUELINHA,7,5470-382,PONDRAS,-7.91053550360475,41.70241808915264
pt.ine.add.PTCONT.5290183,R DA CROA DA QUELHA,20,5470-384,PONDRAS,-7.932567789315058,41.69517478983086
pt.ine.add.PTCONT.5290184,R DO CRUZEIRO,,5470-391,REIGOSO MTR,-7.941553660230634,41.707200826455015
pt.ine.add.PTCONT.5290196,R PRINCIPAL,55,5470-068,CHÃ,-7.759257174179982,41.797263891256875
pt.ine.add.PTCONT.5290197,R DO BARREIRO,,5470-219,MONTALEGRE,-7.752563360026781,41.86097635555705
pt.ine.add.PTCONT.5290198,QLHA DA VEIGA,20,5470-385,PONDRAS,-7.930589361063635,41.701662867754465
pt.ine.add.PTCONT.5290199,R DA LAMA DA CHÃ,6,5470-402,SALTO,-7.94266215859149,41.66133855518136
pt.ine.add.PTCONT.5290200,R 1 DE MAIO,,5470-407,SALTO,-7.978512637399052,41.65662946172278
pt.ine.add.PTCONT.5290215,R DOS VALADOS,3,5470-219,MONTALEGRE,-7.753150237907469,41.8615274975342
pt.ine.add.PTCONT.5290216,R DA INTEIRA,12,5470-219,MONTALEGRE,-7.755102884672578,41.86126384294098
pt.ine.add.PTCONT.5290217,R CARVALHINHAS,18,5470-402,SALTO,-7.942429150196828,41.66299482953865
pt.ine.add.PTCONT.5290218,R DAS CRUZES,16,5470-422,SALTO,-7.915952375782454,41.67070894399982
pt.ine.add.PTCONT.5290219,R DAS CORGAS,10,5470-409,SALTO,-7.981689511770294,41.648341367694535
pt.ine.add.PTCONT.5290224,R DOS OUTÕES,9,5470-064,CHÃ,-7.722197287428785,41.79194236986361
pt.ine.add.PTCONT.5290225,R DO CASAL DO MEIO,16,5470-417,SALTO,-7.955104176998292,41.62959373426346
pt.ine.add.PTCONT.5290226,R CENTRAL,21,5470-441,SALTO,-7.9065048304103955,41.62877891242058
pt.ine.add.PTCONT.5290227,R DAS CARGAS,10,5470-410,SALTO,-7.9485904370618625,41.6455288914862
pt.ine.add.PTCONT.5290228,R CENTRAL,2,5470-430,SALTO,-7.944380281232598,41.63624832332984
pt.ine.add.PTCONT.5290229,R DO FUNDO DAS CARGAS,4,5470-430,SALTO,-7.950721261311615,41.647585116530855
pt.ine.add.PTCONT.5290230,TV DA ENCRUZILHADA,26,5470-450,SANTO ANDRÉ,-7.666820508092237,41.864828756118165
pt.ine.add.PTCONT.5290231,R DA RAPOSA,3,5470-450,SANTO ANDRÉ,-7.666602535319279,41.86333333215079
pt.ine.add.PTCONT.5290237,R DO BARREIRO,6,5470-025,CABRIL MTR,-8.011582158719284,41.73629649118817
pt.ine.add.PTCONT.5290243,R PRINCIPAL,19,5470-065,CHÃ,-7.739676790446387,41.78623239931484
pt.ine.add.PTCONT.5290244,AV CENTRAL,88,5470-459,VILAR PERDIZES (S MIGUEL),-7.639513874264128,41.847860553616925
pt.ine.add.PTCONT.5290245,R DE BAIXO,3,5470-480,SOLVEIRA,-7.6682046519872005,41.84334358200515
pt.ine.add.PTCONT.5290246,LG DO OUTEIRO,22,5470-490,TOURÉM,-7.897805835479902,41.908173590962896
pt.ine.add.PTCONT.5290256,AV CENTRAL,2,5470-459,VILAR PERDIZES (S MIGUEL),-7.631150196684818,41.85646743499212
pt.ine.add.PTCONT.5290257,R DA PICOTA,24,5470-461,VILAR PERDIZES (S MIGUEL),-7.632504633351512,41.855744083008055
pt.ine.add.PTCONT.5290258,TV 3 DA R DA PEDREIRA,4,5470-460,VILAR PERDIZES (S MIGUEL),-7.636428056166864,41.85450966434543
pt.ine.add.PTCONT.5290259,AV CENTRAL,60,5470-459,VILAR PERDIZES (S MIGUEL),-7.634687161705451,41.85072975721083
pt.ine.add.PTCONT.5290260,R DO MOURANTE,4,5470-501,VENDA NOVA,-7.950236890640288,41.683022461913396
pt.ine.add.PTCONT.5290261,R DA PEDREIRA,58,5470-504,VENDA NOVA,-7.958214309695179,41.67323899792421
pt.ine.add.PTCONT.5290262,R DE SANGUINHEDO,,5470-504,VENDA NOVA,-7.966053439712479,41.669568195947896
pt.ine.add.PTCONT.5290504,R DO RIBEIRO,2,5470-490,TOURÉM,-7.8952947194766105,41.90605266537005
pt.ine.add.PTCONT.5290505,R DOS FIDALGOS,5,5470-490,TOURÉM,-7.896586352346255,41.90549713429199
pt.ine.add.PTCONT.5290510,R DO BARREIRO,29,5470-392,REIGOSO MTR,-7.918583533600021,41.72090859928139
pt.ine.add.PTCONT.5290573,R DO CRUZEIRO,2,5470-461,VILAR PERDIZES (S MIGUEL),-7.634484152358214,41.85206135865872
pt.ine.add.PTCONT.5290566,R ANGOLA,8,5470-171,MEIXEDO MTR,-7.77780650735737,41.83493869145733
pt.ine.add.PTCONT.5290574,R DO LODEIRO,,5470-543,VILA DA PONTE MTR,-7.897036579915254,41.72078532336896
pt.ine.add.PTCONT.5290592,EN 103,44,5470-071,CHÃ,-7.787655636196977,41.7809216327457
pt.ine.add.PTCONT.5290594,R CENTRAL,1,5470-463,SARRAQUINHOS,-7.678625257784645,41.80509421173992
pt.ine.add.PTCONT.5291136,R DA BALTEIRA,11,5470-013,CABRIL MTR,-8.033059041707139,41.71534805864382
pt.ine.add.PTCONT.5291137,R DA BALTEIRA,7,5470-013,CABRIL MTR,-8.033227091102527,41.71546525047348
pt.ine.add.PTCONT.5291138,EN 103,,5470-062,CHÃ,-7.770268273200604,41.77129742431077
pt.ine.add.PTCONT.5291139,R DO EIDO DE BAIXO,12,5470-122,FERRAL,-8.001041999970251,41.69436451744767
pt.ine.add.PTCONT.5291140,R DO CAMPINO,3,5470-160,GRALHAS,-7.704391205717167,41.8479679840479
pt.ine.add.PTCONT.5291141,R DIREITA,35,5470-171,MEIXEDO MTR,-7.79135993079984,41.824049791279435
pt.ine.add.PTCONT.5291142,R DIREITA,35,5470-171,MEIXEDO MTR,-7.79135993079984,41.824049791279435
pt.ine.add.PTCONT.5291151,R DO DOMINGUELHO,4,5470-051,CERVOS,-7.673197464309614,41.75975862660669
pt.ine.add.PTCONT.5291152,R DO VALE,,5470-051,CERVOS,-7.674072357080205,41.7601672787903
pt.ine.add.PTCONT.5291153,R PRINCIPAL,59,5470-063,CHÃ,-7.806767885276435,41.77881669678139
pt.ine.add.PTCONT.5291169,R PRINCIPAL,,5470-012,CABRIL MTR,-8.026798816823261,41.71512635357932
pt.ine.add.PTCONT.5291170,R DE BAIXO,5,5470-062,CHÃ,-7.758470876418967,41.777327851291545
pt.ine.add.PTCONT.5291171,R DE CIMA,,5470-062,CHÃ,-7.754673958084634,41.776658159501196
pt.ine.add.PTCONT.5291172,R DA EIRA DO CASTANHEIRO,9,5470-180,MEIXIDE,-7.598335442992431,41.812851489393424
pt.ine.add.PTCONT.5291173,R DO BORRAGEIRO,13,5470-501,VENDA NOVA,-7.9566816548240515,41.68040349596983
pt.ine.add.PTCONT.5291174,R DO MORGADO,,5470-502,VENDA NOVA,-7.98016355316617,41.67432371967966
pt.ine.add.PTCONT.5291187,R DA FONTE,2,5470-023,CABRIL MTR,-8.024959530510685,41.70841701746432
pt.ine.add.PTCONT.5291188,R CENTRAL,,5470-101,COVELO DO GEREZ,-7.985222309924072,41.71495432109528
pt.ine.add.PTCONT.5291189,BC DOS CARNEIROS,10,5470-160,GRALHAS,-7.705433298538723,41.850600825113816
pt.ine.add.PTCONT.5291190,R DOS CONDES,152,5470-504,VENDA NOVA,-7.955838258793348,41.668256379236404
pt.ine.add.PTCONT.5291191,R DO FORNO,2,5470-528,VIADE DE BAIXO,-7.863356892999457,41.76259529442551
pt.ine.add.PTCONT.5291192,LG DA SEARA,4,5470-527,VIADE DE BAIXO,-7.863749492532354,41.76073250577767
pt.ine.add.PTCONT.5291206,R DO CANTO DA DEVESA,1,5470-092,COVELÃES,-7.9191209056681595,41.794332647642065
pt.ine.add.PTCONT.5291207,R CENTRAL,1,5470-101,COVELO DO GEREZ,-7.985850141369496,41.71364961822965
pt.ine.add.PTCONT.5291208,R DA CALHELHA,14,5470-219,MONTALEGRE,-7.740898959876649,41.83437743542344
pt.ine.add.PTCONT.5291209,R DO CAMPO,40,5470-219,MONTALEGRE,-7.740551229557546,41.83217944145181
pt.ine.add.PTCONT.5291210,R CENTRAL,4,5470-304,MORGADE,-7.747321571553513,41.75111803318853
pt.ine.add.PTCONT.5291211,R DO BR NOVO,90,5470-521,VIADE DE BAIXO,-7.853640811121512,41.75697193830367
pt.ine.add.PTCONT.5291222,R DO CASAL,6,5470-160,GRALHAS,-7.710789942105229,41.84906307968709
pt.ine.add.PTCONT.5291223,R DO CAMPO,3,5470-219,MONTALEGRE,-7.739587541568289,41.834246903769206
pt.ine.add.PTCONT.5291224,R DE CIMA,9,5470-527,VIADE DE BAIXO,-7.852101173295804,41.71021315490854
pt.ine.add.PTCONT.5291225,R DA CASA NOVA,5,5470-527,VIADE DE BAIXO,-7.8513574379249205,41.7099322251072
pt.ine.add.PTCONT.5291231,R DA EIRA GALEGA,,5470-017,CABRIL MTR,-8.090963384050012,41.70172553816116
pt.ine.add.PTCONT.5291232,R DO EIRÃO,15,5470-121,FERRAL,-8.017589520499575,41.697614612785735
pt.ine.add.PTCONT.5291233,R DE BAIXO,19,5470-151,FIÃES DO RIO,-7.926357716280325,41.777473536873046
pt.ine.add.PTCONT.5291234,ESTR DA FRONTEIRA,2,5470-171,MEIXEDO MTR,-7.779110000329712,41.8343394946029
pt.ine.add.PTCONT.5291235,TV DO OUTEIRO,3,5470-171,MEIXEDO MTR,-7.787294615520922,41.82794506551863
pt.ine.add.PTCONT.5291264,R DO TEJEIRO,10,5470-042,CAMBESES DO RIO,-7.863376575156228,41.81816422369411
pt.ine.add.PTCONT.5291251,R DE S JOÃO,,5470-121,FERRAL,-8.01801548699983,41.694526825585335
pt.ine.add.PTCONT.5291252,R DO FORNO,3,5470-151,FIÃES DO RIO,-7.927141236027395,41.776943743067854
pt.ine.add.PTCONT.5291253,R DA ESTRADA,2,5470-151,FIÃES DO RIO,-7.924632798591409,41.775273587761994
pt.ine.add.PTCONT.5291254,R DO PIAL,13,5470-466,SARRAQUINHOS,-7.683440763467368,41.789285268525354
pt.ine.add.PTCONT.5291255,R DE CANLE,6,5470-472,SEZELHE,-7.890038484689145,41.807851875695114
pt.ine.add.PTCONT.5291265,R PRINCIPAL,20,5470-219,MONTALEGRE,-7.744454746527371,41.81972312360235
pt.ine.add.PTCONT.5291266,R G,58,5470-171,MEIXEDO MTR,-7.776824734658058,41.833963293335465
pt.ine.add.PTCONT.5291267,R DO CASTELO,,5470-219,MONTALEGRE,-7.763075760407828,41.89260306830154
pt.ine.add.PTCONT.5291268,R DO CASTELO,4,5470-219,MONTALEGRE,-7.762693768641431,41.89198061505948
pt.ine.add.PTCONT.5291288,R DA FORJA,5,5470-171,MEIXEDO MTR,-7.78666833633329,41.82577337847926
pt.ine.add.PTCONT.5291289,R DO BOI,1,5470-312,MOURILHE,-7.832892103227812,41.84352296896651
pt.ine.add.PTCONT.5291290,R DO BARREIRO,12,5470-392,REIGOSO MTR,-7.920131940511894,41.72146969623146
pt.ine.add.PTCONT.5291296,R DA ESTRADA NACIONAL,20,5470-219,MONTALEGRE,-7.750993224836995,41.80505161305472
pt.ine.add.PTCONT.5291297,R DA COSTA,165,5470-171,MEIXEDO MTR,-7.7928634315972225,41.826530168134624
pt.ine.add.PTCONT.5291298,R DA COSTA,178,5470-171,MEIXEDO MTR,-7.79293451003767,41.82674645833194
pt.ine.add.PTCONT.5291299,R DO CRUZEIRO,,5470-219,MONTALEGRE,-7.756290064736268,41.862141060424115
pt.ine.add.PTCONT.5291300,R CENTRAL,45,5470-422,SALTO,-7.915200905822858,41.66921292805101
pt.ine.add.PTCONT.5291301,R ALEGRIA,12,5470-407,SALTO,-7.978236014215821,41.656836172165875
pt.ine.add.PTCONT.5291308,R DA FELICIDADE,7,5470-407,SALTO,-7.977023713169954,41.656726489134805
pt.ine.add.PTCONT.5291309,R DE BORDA D ÁGUA,65,5470-430,SALTO,-7.944840330705181,41.643127847984445
pt.ine.add.PTCONT.5291314,EN 311,3,5470-425,SALTO,-7.932802303306193,41.6156553987024
pt.ine.add.PTCONT.5291315,R DE BORDA D ÁGUA,13,5470-430,SALTO,-7.940090334073875,41.64607315686777
pt.ine.add.PTCONT.5291316,R CENTRAL,61,5470-430,SALTO,-7.948674602148204,41.64127031410155
pt.ine.add.PTCONT.5291317,R DA RIBEIRA BRAVA,17,5470-450,SANTO ANDRÉ,-7.668674974260088,41.86321568596737
pt.ine.add.PTCONT.5291318,R DA RAPOSA,22,5470-450,SANTO ANDRÉ,-7.668026439175721,41.86296097064555
pt.ine.add.PTCONT.5291326,R DE MOREIRA,3,5470-041,CAMBESES DO RIO,-7.837884532838687,41.80254374781659
pt.ine.add.PTCONT.5291327,R DO CAMPO,21,5470-065,CHÃ,-7.731939288567599,41.78661979623163
pt.ine.add.PTCONT.5291328,LG DO EIRÃO,5,5470-311,MOURILHE,-7.842638010677629,41.83704764388414
pt.ine.add.PTCONT.5291329,R DA RIBEIRA BRAVA,10,5470-450,SANTO ANDRÉ,-7.667760629483019,41.85975473689473
pt.ine.add.PTCONT.5291330,R DO CAMPO,49,5470-461,VILAR PERDIZES (S MIGUEL),-7.630390185516264,41.85663517267157
pt.ine.add.PTCONT.5291331,R CARRINS,30,5470-459,VILAR PERDIZES (S MIGUEL),-7.629079468740472,41.85638634027899
pt.ine.add.PTCONT.5291332,R DO ALVAR,33,5470-461,VILAR PERDIZES (S MIGUEL),-7.6333331482984645,41.84986856347394
pt.ine.add.PTCONT.5291336,R DA ESCOLA,10,5470-322,NEGRÕES,-7.783190851182307,41.741473134722135
pt.ine.add.PTCONT.5291337,TV DO CANTO,7,5470-322,NEGRÕES,-7.784594698539398,41.739739734675915
pt.ine.add.PTCONT.5291338,TV DE COVELÃES,3,5470-490,TOURÉM,-7.898442671636486,41.9087060829807
pt.ine.add.PTCONT.5291350,TV DO RIGUEIRO,3,5470-013,CABRIL MTR,-8.034900357907018,41.71351293037544
pt.ine.add.PTCONT.5291351,R DA PORTELINHA,5,5470-051,CERVOS,-7.676210731834155,41.760454907955975
pt.ine.add.PTCONT.5291352,R DA COSTA,,5470-051,CERVOS,-7.674008448630705,41.760698224558055
pt.ine.add.PTCONT.5291353,BC DO CARDEAL,6,5470-490,TOURÉM,-7.89563444644333,41.90544115048752
pt.ine.add.PTCONT.5291354,R DO BORRAGEIRO,19,5470-501,VENDA NOVA,-7.956418717033522,41.6799349067656
pt.ine.add.PTCONT.5291355,R CENTRAL,35,5470-504,VENDA NOVA,-7.959356264669714,41.67281756192104
pt.ine.add.PTCONT.5291356,R DO BARREIRO,17,5470-521,VIADE DE BAIXO,-7.850004145148073,41.76092454518382
pt.ine.add.PTCONT.5291357,R DO CIMO DE VILA,3,5470-525,VIADE DE BAIXO,-7.837003251492039,41.75872194898867
pt.ine.add.PTCONT.5291358,R DO OUTEIRO,20,5470-525,VIADE DE BAIXO,-7.841228800136976,41.757634342380534
pt.ine.add.PTCONT.5291601,R DA PORTELA,,5470-527,VIADE DE BAIXO,-7.863419770900287,41.761938191815666
pt.ine.add.PTCONT.5291605,R ALEGRIA,27,5470-407,SALTO,-7.978236014215821,41.656836172165875
pt.ine.add.PTCONT.5291643,R DO PADELAR,12,5470-160,GRALHAS,-7.705052857167009,41.84806048459462
pt.ine.add.PTCONT.5291665,R DO VALE,3,5470-042,CAMBESES DO RIO,-7.861005646918508,41.818140625312125
pt.ine.add.PTCONT.5291720,AV 25 DE ABRIL,14,5470-543,VILA DA PONTE MTR,-7.889253766308714,41.719589613404416
pt.ine.add.PTCONT.5292164,R DA CERDEIRA,2,5470-072,CHÃ,-7.794508611653263,41.7884238482129
pt.ine.add.PTCONT.5292165,R PRINCIPAL,16,5470-126,FERRAL,-7.985184851386424,41.70508641744192
pt.ine.add.PTCONT.5292166,R DO CARREIRO,6,5470-152,FIÃES DO RIO,-7.937106078995277,41.77112696267557
pt.ine.add.PTCONT.5292172,R DO DOMINGUELHO,2,5470-051,CERVOS,-7.6730543934863515,41.75958698903646
pt.ine.add.PTCONT.5292173,R DO FUNDO DA RUA,3,5470-125,FERRAL,-7.960012481590537,41.705771541405944
pt.ine.add.PTCONT.5292174,ESTR DA PORTELA,26,5470-219,MONTALEGRE,-7.740891647132667,41.83163140269414
pt.ine.add.PTCONT.5292175,R DE S GERALDO,8,5470-180,MEIXIDE,-7.599800699521861,41.81320943072724
pt.ine.add.PTCONT.5292176,R DA LABORADA,3 A,5470-180,MEIXIDE,-7.599284049495921,41.8131079944648
pt.ine.add.PTCONT.5292177,R DA FONTE,7,5470-180,MEIXIDE,-7.598457282099272,41.8126719902344
pt.ine.add.PTCONT.5292178,R DE AVELAR,,5470-171,MEIXEDO MTR,-7.794554158272207,41.81634339611803
pt.ine.add.PTCONT.5292179,R PRINCIPAL,57,5470-362,PARADELA MTR,-7.948609682072406,41.764870624525265
pt.ine.add.PTCONT.5292195,TV DAS HORTAS,5,5470-023,CABRIL MTR,-8.023935833670688,41.709838605804535
pt.ine.add.PTCONT.5292196,R CENTRAL,26,5470-056,CERVOS,-7.689373270954844,41.757643411546184
pt.ine.add.PTCONT.5292197,R ENTRE AS SEBES,5,5470-141,FERVIDELAS,-7.899253930052752,41.75554324481626
pt.ine.add.PTCONT.5292215,R DE S GONÇALO,10,5470-141,FERVIDELAS,-7.899787904689455,41.754184810615435
pt.ine.add.PTCONT.5292216,R DO CASAL,15,5470-529,VIADE DE BAIXO,-7.8576115401923925,41.76757856145518
pt.ine.add.PTCONT.5292217,R DE CIMA DA EIRA,6,5470-529,VIADE DE BAIXO,-7.859205111743289,41.766141824339336
pt.ine.add.PTCONT.5292235,R DA CAPELA,21,5470-525,VIADE DE BAIXO,-7.835613367335146,41.75764695030848
pt.ine.add.PTCONT.5292236,R PRINCIPAL,24,5470-522,VIADE DE BAIXO,-7.889023517664305,41.76136519710197
pt.ine.add.PTCONT.5292242,TV DA LAMA DO MOINHO,49,5470-171,MEIXEDO MTR,-7.784265543666602,41.831573245260216
pt.ine.add.PTCONT.5292256,TV DA RESIDÊNCIA,1,5470-465,SARRAQUINHOS,-7.663229608306535,41.79921611098377
pt.ine.add.PTCONT.5292268,R DAS CHÃS DE TRÁS,12,5470-017,CABRIL MTR,-8.08548710869745,41.698896289066
pt.ine.add.PTCONT.5292269,R DO EIRÃO,,5470-128,FERRAL,-8.015666922930818,41.6978827703253
pt.ine.add.PTCONT.5292270,R DO PIAL,10,5470-160,GRALHAS,-7.705276596501318,41.84881759336182
pt.ine.add.PTCONT.5292271,R DIREITA,47,5470-462,SARRAQUINHOS,-7.656886950289216,41.778320199679655
pt.ine.add.PTCONT.5292272,TV DA VOLTA DO ADRO,4,5470-471,SEZELHE,-7.874139356124814,41.811472495693394
pt.ine.add.PTCONT.5292283,R DA FONTE,,5470-219,MONTALEGRE,-7.765870191180099,41.892792102785194
pt.ine.add.PTCONT.5292284,R DA FORJA,,5470-480,SOLVEIRA,-7.670504100138179,41.843379876109964
pt.ine.add.PTCONT.5292297,R DA SENHORINHA,11,5470-160,GRALHAS,-7.703932326270797,41.84816434237968
pt.ine.add.PTCONT.5292298,R JOAO RODRIGUES CABRILHO,21,5470-171,MEIXEDO MTR,-7.788006124066071,41.82546228922221
pt.ine.add.PTCONT.5292299,R JOAO RODRIGUES CABRILHO,21,5470-171,MEIXEDO MTR,-7.788006124066071,41.82546228922221
pt.ine.add.PTCONT.5292300,R DA TOUÇA,,5470-219,MONTALEGRE,-7.759572561585583,41.88791005419953
pt.ine.add.PTCONT.5292301,R DO RIGUEIRO,1,5470-370,PITÕES DAS JUNIAS,-7.948499410093625,41.84103895588853
pt.ine.add.PTCONT.5292302,R CENTRAL,26,5470-382,PONDRAS,-7.911161067132297,41.70217620380302
pt.ine.add.PTCONT.5292311,BC ZÉ DO VALE,1,5470-042,CAMBESES DO RIO,-7.862030187488169,41.817782914033565
pt.ine.add.PTCONT.5292312,R E,24,5470-171,MEIXEDO MTR,-7.777672554366555,41.83303857928803
pt.ine.add.PTCONT.5292313,R PRINCIPAL,16,5470-385,PONDRAS,-7.93296732524934,41.70191913241046
pt.ine.add.PTCONT.5292314,QLHA DA VEIGA,29,5470-385,PONDRAS,-7.932692375044891,41.70147748038307
pt.ine.add.PTCONT.5292315,R DO FUNDO DO LUGAR,,5470-384,PONDRAS,-7.933204711267283,41.69509486762147
pt.ine.add.PTCONT.5292316,R DE FUNDOVILAS,37,5470-392,REIGOSO MTR,-7.917985604260267,41.72002513874853
pt.ine.add.PTCONT.5292317,R 25 ABRIL,3,5470-407,SALTO,-7.9771215389171175,41.65598832659812
pt.ine.add.PTCONT.5292318,R DO CIMA DE VILA,1,5470-409,SALTO,-7.984722637073684,41.65003800246932
pt.ine.add.PTCONT.5292327,R DO OUTEIRO,3,5470-424,SALTO,-7.921731004634466,41.65887099859418
pt.ine.add.PTCONT.5292332,R PRINCIPAL,15,5470-041,CAMBESES DO RIO,-7.838755578585996,41.80414858126937
pt.ine.add.PTCONT.5292333,R DO BARREIRO,,5470-219,MONTALEGRE,-7.754023808086265,41.86044098951594
pt.ine.add.PTCONT.5292334,R DA CIDADE,,5470-219,MONTALEGRE,-7.757152390675693,41.86091043960038
pt.ine.add.PTCONT.5292335,R DO CASTANHEIRO,,5470-219,MONTALEGRE,-7.75535090831523,41.86004921853796
pt.ine.add.PTCONT.5292343,R DA CALÇADA,10,5470-322,NEGRÕES,-7.783084470020419,41.741139682963436
pt.ine.add.PTCONT.5292344,R DOS POÇOS,24,5470-450,SANTO ANDRÉ,-7.669504573454338,41.86508270965302
pt.ine.add.PTCONT.5292345,R DO CASAL,2,5470-472,SEZELHE,-7.8858745427081685,41.80479085044666
pt.ine.add.PTCONT.5292346,TV DO CASTELÃO,3,5470-480,SOLVEIRA,-7.675635491179196,41.84645253954532
pt.ine.add.PTCONT.5292353,TV DO CANTO,4,5470-322,NEGRÕES,-7.784331750849197,41.73945982972079
pt.ine.add.PTCONT.5292354,R DO TORRÃO DA VEIGA,3,5470-430,SALTO,-7.948222464435986,41.63988302955234
pt.ine.add.PTCONT.5292355,R DO MURO,23,5470-430,SALTO,-7.944769575328646,41.638571898240755
pt.ine.add.PTCONT.5292356,LG DO JAZIGO,31,5470-450,SANTO ANDRÉ,-7.667343237116736,41.86416463706151
pt.ine.add.PTCONT.5292357,R DO CANTO DA MOURA,10,5470-480,SOLVEIRA,-7.671167018370045,41.841608897981445
pt.ine.add.PTCONT.5292358,LG DO OUTÃO,4,5470-490,TOURÉM,-7.89721837943197,41.90732608473618
pt.ine.add.PTCONT.5292359,PTO DA DEOLINDA,1,5470-490,TOURÉM,-7.896031162070114,41.90571206635614
pt.ine.add.PTCONT.5292367,LG DO OUTEIRO,6,5470-490,TOURÉM,-7.898252470246144,41.90798543805749
pt.ine.add.PTCONT.5292368,R DAS LAGES,2,5470-490,TOURÉM,-7.89526110286143,41.905368352172154
pt.ine.add.PTCONT.5292369,R DA CAPELA,4,5470-501,VENDA NOVA,-7.955937878819952,41.680096230694225
pt.ine.add.PTCONT.5292370,R DA FLORESTA,,5470-502,VENDA NOVA,-7.978714811374121,41.67251206414836
pt.ine.add.PTCONT.5292371,R CENTRAL,3,5470-526,VIADE DE BAIXO,-7.870087251954364,41.74585549549587
pt.ine.add.PTCONT.5292577,R DO OUTEIRO,31,5470-461,VILAR PERDIZES (S MIGUEL),-7.62872546609159,41.85392689784036
pt.ine.add.PTCONT.5292597,R DE TRAS DO PAÇO,14,5470-110,DONÕES,-7.813866600692123,41.834162249865166
pt.ine.add.PTCONT.5292621,R DE TRÁS,3,5470-323,NEGRÕES,-7.801483105123367,41.73761988351303
pt.ine.add.PTCONT.5292623,R DA SAPATEIRA,28,5470-430,SALTO,-7.944554901238258,41.638103357653144
pt.ine.add.PTCONT.5292633,R 25 DE ABRIL,19,5470-013,CABRIL MTR,-8.035527266534366,41.71214493009013
pt.ine.add.PTCONT.5292634,R DA FECHA,43,5470-219,MONTALEGRE,-7.7430120410342775,41.83532097462263
pt.ine.add.PTCONT.5292646,TV DO EIRÓ DE CIMA,6,5470-072,CHÃ,-7.793457440069106,41.787007214432975
pt.ine.add.PTCONT.5292708,LG DO CARVALHO DA EIRA,,5470-017,CABRIL MTR,-8.091215828946094,41.701491538572164
pt.ine.add.PTCONT.5292709,R PRINCIPAL,,5470-041,CAMBESES DO RIO,-7.839175125588911,41.80450078654113
pt.ine.add.PTCONT.5292710,R DA PEDREIRA,9,5470-543,VILA DA PONTE MTR,-7.894679269430073,41.71804339328777
pt.ine.add.PTCONT.5292765,LG DO EIRÃO,,5470-057,CERVOS,-7.681317438593639,41.73871381965056
pt.ine.add.PTCONT.5292766,R DE PORTUGAL,6,5470-172,CHÃ,-7.751102965507017,41.80480888760434
pt.ine.add.PTCONT.5292767,R DE PORTUGAL,10,5470-172,CHÃ,-7.750767381822909,41.80458268743385
pt.ine.add.PTCONT.5292768,R DOS TOJOS,4,5470-067,CHÃ,-7.785133186720894,41.798056450829094
pt.ine.add.PTCONT.5292769,R DO CAMPO,35,5470-065,CHÃ,-7.732726583243732,41.78575821859491
pt.ine.add.PTCONT.5292770,R DA ESCOLA,1,5470-064,CHÃ,-7.724073651471183,41.79390279612351
pt.ine.add.PTCONT.5292827,R DO OUTEIRO,2,5470-069,CHÃ,-7.808868041424776,41.760662763493954
pt.ine.add.PTCONT.5292828,R DOS RAMOS,6,5470-091,COVELÃES,-7.898676541035427,41.80184657827539
pt.ine.add.PTCONT.5292889,R CENTRAL,,5470-101,COVELO DO GEREZ,-7.984174993761156,41.715772287887205
pt.ine.add.PTCONT.5292890,R DA ESTRADA,7,5470-123,FERRAL,-7.977690465818804,41.69897213325019
pt.ine.add.PTCONT.5292891,R DA MILHEIRA,15,5470-141,FERVIDELAS,-7.89947284149541,41.75485942859944
pt.ine.add.PTCONT.5292947,R PRINCIPAL,59,5470-142,FERVIDELAS,-7.916542950458485,41.75239891654127
pt.ine.add.PTCONT.5292948,R CENTRAL,2,5470-160,GRALHAS,-7.70242675487726,41.8554063390234
pt.ine.add.PTCONT.5292949,R CENTRAL,36,5470-160,GRALHAS,-7.705884822480558,41.85151183593013
pt.ine.add.PTCONT.5292950,R DA PENA,13,5470-219,MONTALEGRE,-7.739288843894587,41.833876744650794
pt.ine.add.PTCONT.5292996,CM 1352,11,5470-180,MEIXIDE,-7.594033917386016,41.81490214539484
pt.ine.add.PTCONT.5292997,R DO OUTEIRO,43,5470-180,MEIXIDE,-7.598885798063522,41.81324119275441
pt.ine.add.PTCONT.5292998,R F,49,5470-171,MEIXEDO MTR,-7.77730462590094,41.83426188997462
pt.ine.add.PTCONT.5293036,R DO OUTEIRO,29,5470-171,MEIXEDO MTR,-7.787373281921736,41.826747860991304
pt.ine.add.PTCONT.5293037,TV DA TULHA,3,5470-171,MEIXEDO MTR,-7.787452865330325,41.825379595814226
pt.ine.add.PTCONT.5293038,R MIGUEL TORGA,319,5470-171,MEIXEDO MTR,-7.788062295070946,41.8217260784081
pt.ine.add.PTCONT.5293039,R DA COSTA,342,5470-171,MEIXEDO MTR,-7.793133376964576,41.82783644869249
pt.ine.add.PTCONT.5293040,LG GATO,17,5470-171,MEIXEDO MTR,-7.7923587282171685,41.82409777511671
pt.ine.add.PTCONT.5293041,AV D AFONSO III,4 A 4H,5470-171,MEIXEDO MTR,-7.7923587282171685,41.82409777511671
pt.ine.add.PTCONT.5293042,LG GATO,17,5470-171,MEIXEDO MTR,-7.7923587282171685,41.82409777511671
pt.ine.add.PTCONT.5293043,LG GATO,17,5470-171,MEIXEDO MTR,-7.7923587282171685,41.82409777511671
pt.ine.add.PTCONT.5293044,LG GATO,17,5470-171,MEIXEDO MTR,-7.7923587282171685,41.82409777511671
pt.ine.add.PTCONT.5293045,LG GATO,17,5470-171,MEIXEDO MTR,-7.7923587282171685,41.82409777511671
pt.ine.add.PTCONT.5293046,LG GATO,17,5470-171,MEIXEDO MTR,-7.7923587282171685,41.82409777511671
pt.ine.add.PTCONT.5293047,LG GATO,17,5470-171,MEIXEDO MTR,-7.7923587282171685,41.82409777511671
pt.ine.add.PTCONT.5293048,LG GATO,17,5470-171,MEIXEDO MTR,-7.7923587282171685,41.82409777511671
pt.ine.add.PTCONT.5293049,LG GATO,17,5470-171,MEIXEDO MTR,-7.7923587282171685,41.82409777511671
pt.ine.add.PTCONT.5293094,LG GATO,17,5470-171,MEIXEDO MTR,-7.7923587282171685,41.82409777511671
pt.ine.add.PTCONT.5293095,LG GATO,17,5470-171,MEIXEDO MTR,-7.7923587282171685,41.82409777511671
pt.ine.add.PTCONT.5293096,LG GATO,17,5470-171,MEIXEDO MTR,-7.7923587282171685,41.82409777511671
pt.ine.add.PTCONT.5293097,LG GATO,17,5470-171,MEIXEDO MTR,-7.7923587282171685,41.82409777511671
pt.ine.add.PTCONT.5293098,LG GATO,17,5470-171,MEIXEDO MTR,-7.7923587282171685,41.82409777511671
pt.ine.add.PTCONT.5293099,R CENTRAL,48,5470-304,MORGADE,-7.747447518152673,41.75217185757546
pt.ine.add.PTCONT.5293100,R CENTRAL,116,5470-304,MORGADE,-7.748700398896391,41.74974512900738
pt.ine.add.PTCONT.5293101,R DAS MINAS DE BEÇA,,5470-301,MORGADE,-7.713887146897057,41.72125350285165
pt.ine.add.PTCONT.5293148,R DO PEREIRO,3,5470-332,OUTEIRO MTR,-7.945814565963572,41.78731160786411
pt.ine.add.PTCONT.5293201,R DA TOUÇA,,5470-219,MONTALEGRE,-7.7617140195122385,41.89054593944586
pt.ine.add.PTCONT.5293202,R DO SANTINHO,8,5470-370,PITÕES DAS JUNIAS,-7.946372795331552,41.8395049553702
pt.ine.add.PTCONT.5293203,EN 103,5,5470-385,PONDRAS,-7.9339003162558495,41.69935474750621
pt.ine.add.PTCONT.5293204,R DO CRUZEIRO,,5470-393,REIGOSO MTR,-7.934789807193927,41.7148333359881
pt.ine.add.PTCONT.5293257,R DO CASAL,36,5470-392,REIGOSO MTR,-7.919023363213708,41.71873957638209
pt.ine.add.PTCONT.5293258,R DA EIRA,3,5470-422,SALTO,-7.911622329185048,41.669278116426824
pt.ine.add.PTCONT.5293259,R CENTRAL,15,5470-419,SALTO,-7.992797252271952,41.66308535825009
pt.ine.add.PTCONT.5293312,R DE S TIAGO,5,5470-409,SALTO,-7.979169789891919,41.65291185514291
pt.ine.add.PTCONT.5293313,R DO CHAMADOURO,2,5470-403,SALTO,-7.956407855452611,41.60922046627106
pt.ine.add.PTCONT.5293364,R DA RAPOSA,,5470-450,SANTO ANDRÉ,-7.667025374538947,41.86315498394826
pt.ine.add.PTCONT.5293365,LG DO JAZIGO,46,5470-450,SANTO ANDRÉ,-7.668002390054391,41.864617470592854
pt.ine.add.PTCONT.5293366,LG DA LOMBA,7,5470-450,SANTO ANDRÉ,-7.6665745209623015,41.86387341314538
pt.ine.add.PTCONT.5293367,R DA POULA,10,5470-461,VILAR PERDIZES (S MIGUEL),-7.629612576061366,41.85290441889571
pt.ine.add.PTCONT.5293405,TV DO ALVAR,10,5470-461,VILAR PERDIZES (S MIGUEL),-7.633955719841539,41.85033043720894
pt.ine.add.PTCONT.5293406,R DA CRUZ DO MURO,5,5470-461,VILAR PERDIZES (S MIGUEL),-7.631851147945823,41.848439589523025
pt.ine.add.PTCONT.5293407,R DOS PENEDOS,5,5470-464,SARRAQUINHOS,-7.639830468035766,41.80976896464788
pt.ine.add.PTCONT.5293408,R PRINCIPAL,5,5470-466,SARRAQUINHOS,-7.6856802789479435,41.7907435541545
pt.ine.add.PTCONT.5293409,R PRINCIPAL,71,5470-466,SARRAQUINHOS,-7.683198018459637,41.78787078964999
pt.ine.add.PTCONT.5293410,R DIREITA,2,5470-462,SARRAQUINHOS,-7.661120468150148,41.77673506852208
pt.ine.add.PTCONT.5293463,COSTA VALE,52,5470-472,SEZELHE,-7.887394583149066,41.8100790832997
pt.ine.add.PTCONT.5293464,R DOS CARVALHOS,12,5470-472,SEZELHE,-7.876704532618777,41.81101007561669
pt.ine.add.PTCONT.5293465,R DE TRÁS DO OUTEIRO,,5470-480,SOLVEIRA,-7.6694176885190535,41.84209702965499
pt.ine.add.PTCONT.5293466,R DO BORRAGEIRO,15,5470-501,VENDA NOVA,-7.956621949573746,41.68027735442401
pt.ine.add.PTCONT.5293467,R DO MORGADO,,5470-502,VENDA NOVA,-7.97908426244771,41.673692028219094
pt.ine.add.PTCONT.5293509,R CENTRAL,37,5470-504,VENDA NOVA,-7.959284407319786,41.6727454246708
pt.ine.add.PTCONT.5293510,R DO PENEDO DA CARVALHA,107,5470-504,VENDA NOVA,-7.957178362681775,41.67000513289352
pt.ine.add.PTCONT.5293511,R DE CIMA DA EIRA,,5470-529,VIADE DE BAIXO,-7.859276615874289,41.76629505293891
pt.ine.add.PTCONT.5293512,LG DO BARREIRO,8,5470-521,VIADE DE BAIXO,-7.850412397053377,41.76106060181908
pt.ine.add.PTCONT.5293525,R OUTEIRO,,5470-069,CHÃ,-7.80843751041428,41.76019336959497
pt.ine.add.PTCONT.5293540,R DIREITA,34,5470-072,CHÃ,-7.794260202907262,41.78762181492508
pt.ine.add.PTCONT.5293561,R DA VARANDA,,5470-333,OUTEIRO MTR,-7.943865295971457,41.79563654699028
pt.ine.add.PTCONT.5293574,R GEN HUMBERTO DELGADO,340,5470-171,MEIXEDO MTR,-7.789197875778798,41.82319702603431
pt.ine.add.PTCONT.5293590,R DA SISENDA,4,5470-422,SALTO,-7.920527195770022,41.67079852856127
pt.ine.add.PTCONT.5293595,,,5470-171,MEIXEDO MTR,-7.744029518464292,41.8203789267937
pt.ine.add.PTCONT.5293623,R DA TARANHEIRA,292,5470-041,CAMBESES DO RIO,-7.835904480962274,41.817007026747206
pt.ine.add.PTCONT.5293664,AV 25 DE ABRIL,39,5470-543,VILA DA PONTE MTR,-7.893512628137292,41.718311071771744
pt.ine.add.PTCONT.5293678,AV DE NSA SRA DE FÁTIMA,6,5470-543,VILA DA PONTE MTR,-7.895928992762656,41.718054982943855
pt.ine.add.PTCONT.5294112,R DO VALE,2,5470-051,CERVOS,-7.675192488261038,41.75991064967656
pt.ine.add.PTCONT.5294113,EN 103,,5470-069,CHÃ,-7.809071782723824,41.76079838965258
pt.ine.add.PTCONT.5294114,R DA ESTRADA MUNICIPAL,,5470-122,FERRAL,-8.00079960856614,41.695408649548774
pt.ine.add.PTCONT.5294115,R DE S SEBASTIÃO,36,5470-160,GRALHAS,-7.7101264314232445,41.847422041785684
pt.ine.add.PTCONT.5294116,R DA AMOREIRA,1,5470-180,MEIXIDE,-7.597202606725551,41.81448481307457
pt.ine.add.PTCONT.5294117,R EÇA DE QUEIROZ,10,5470-171,MEIXEDO MTR,-7.783421819174977,41.82291849116699
pt.ine.add.PTCONT.5294118,R DO CRUZEIRO,6,5470-322,NEGRÕES,-7.784569346165307,41.73775889728182
pt.ine.add.PTCONT.5294124,TV DA LAIJA,,5470-070,CHÃ,-7.793743682691043,41.78747623619598
pt.ine.add.PTCONT.5294125,R DA CAPELA DO DIVINO SALVADOR,24,5470-073,CHÃ,-7.795390349121848,41.76711540330497
pt.ine.add.PTCONT.5294126,LG DO RIGUEIRO,3,5470-091,COVELÃES,-7.8984336236281205,41.80246731467578
pt.ine.add.PTCONT.5294127,R DE S SEBASTIÃO,24,5470-160,GRALHAS,-7.709387543745039,41.84808556083163
pt.ine.add.PTCONT.5294128,R DA PORTELA,187,5470-171,MEIXEDO MTR,-7.785706373152497,41.8278142265751
pt.ine.add.PTCONT.5294129,R DA ESTRADA,,5470-362,PARADELA MTR,-7.943094207120089,41.76340307963686
pt.ine.add.PTCONT.5294138,R DE S PEDRO,20,5470-082,CONTIM,-7.889029881264624,41.791409581582734
pt.ine.add.PTCONT.5294139,R DA CARVALHA,4,5470-082,CONTIM,-7.890081234319814,41.79016934332782
pt.ine.add.PTCONT.5294140,R DA CARVALHEDA,2,5470-101,COVELO DO GEREZ,-7.990239214435461,41.7176437132083
pt.ine.add.PTCONT.5294141,R CENTRAL,,5470-101,COVELO DO GEREZ,-7.982454927212462,41.71649932994108
pt.ine.add.PTCONT.5294142,R DO MORGADO,,5470-502,VENDA NOVA,-7.979913075980851,41.67360310016649
pt.ine.add.PTCONT.5294148,R DA FONTE,18,5470-023,CABRIL MTR,-8.025308286531878,41.708228271178086
pt.ine.add.PTCONT.5294149,R DO RÊGO,,5470-057,CERVOS,-7.680690415271456,41.738990459305725
pt.ine.add.PTCONT.5294150,LG DA EIRA VELHA,,5470-057,CERVOS,-7.682208024112258,41.738564259327134
pt.ine.add.PTCONT.5294151,ESTR DA PORTELA,1,5470-219,MONTALEGRE,-7.743050999481251,41.83485293526779
pt.ine.add.PTCONT.5294152,R DA FONTE,3,5470-219,MONTALEGRE,-7.739200214466612,41.83458770160074
pt.ine.add.PTCONT.5294153,R CENTRAL,12,5470-304,MORGADE,-7.747930453113845,41.753848115558064
pt.ine.add.PTCONT.5294154,R DO FERREIRO,,5470-504,VENDA NOVA,-7.9612896128514326,41.67282947192794
pt.ine.add.PTCONT.5294174,R DO COVILHÃO,9,5470-020,CABRIL MTR,-8.05197032319321,41.7079170580364
pt.ine.add.PTCONT.5294175,R CENTRAL,6,5470-054,CERVOS,-7.6899903153167966,41.72211820626047
pt.ine.add.PTCONT.5294176,R DA ALDEIA,18,5470-083,CONTIM,-7.903814701169885,41.78827985278671
pt.ine.add.PTCONT.5294177,R CENTRAL,114,5470-160,GRALHAS,-7.705283298770911,41.84961890973671
pt.ine.add.PTCONT.5294178,R DE S SEBASTIÃO,10,5470-160,GRALHAS,-7.706077841619334,41.84964887638042
pt.ine.add.PTCONT.5294179,R PADRE JOAQUIM DUARTE JÚNIOR,14,5470-171,MEIXEDO MTR,-7.787619622711664,41.82794604351705
pt.ine.add.PTCONT.5294180,R CENTRAL,72,5470-304,MORGADE,-7.747453230520876,41.751217512934254
pt.ine.add.PTCONT.5294181,EN 103,52,5470-529,VIADE DE BAIXO,-7.864625958445486,41.755287479370025
pt.ine.add.PTCONT.5294194,R DE PORTUGAL,14,5470-172,CHÃ,-7.75039634491712,41.80424832796621
pt.ine.add.PTCONT.5294195,R DA PEDROSA,3,5470-092,COVELÃES,-7.918825164898486,41.79281952810113
pt.ine.add.PTCONT.5294196,R DA CALHELHA,27,5470-219,MONTALEGRE,-7.742177993628481,41.83389561732774
pt.ine.add.PTCONT.5294197,R DA TRINDADE,11,5470-171,MEIXEDO MTR,-7.786560825623386,41.82785282087263
pt.ine.add.PTCONT.5294198,R DA CAPELA,,5470-523,VIADE DE BAIXO,-7.881361738030543,41.74028960229045
pt.ine.add.PTCONT.5294199,R DA ESCOLA,6,5470-527,VIADE DE BAIXO,-7.851886230445136,41.709906509824755
pt.ine.add.PTCONT.5294205,R DA SOBREIRA DO CHÃO,6,5470-017,CABRIL MTR,-8.090049909382614,41.702346443350876
pt.ine.add.PTCONT.5294206,R DO RELÓGIO,2,5470-464,SARRAQUINHOS,-7.641831153585665,41.80937238868818
pt.ine.add.PTCONT.5294226,R DA PORTELA,228,5470-171,MEIXEDO MTR,-7.786105450784815,41.82747330678033
pt.ine.add.PTCONT.5294227,R PRINCIPAL,4,5470-466,SARRAQUINHOS,-7.686229603347049,41.791330910861696
pt.ine.add.PTCONT.5294228,R DA CALÇADA,2,5470-462,SARRAQUINHOS,-7.656988141765737,41.779274977110134
pt.ine.add.PTCONT.5294229,R DOS CARVALHOS,19,5470-471,SEZELHE,-7.87546132696321,41.81192563585257
pt.ine.add.PTCONT.5294237,R DO TEJEIRO,1,5470-042,CAMBESES DO RIO,-7.863604193817834,41.81841685145805
pt.ine.add.PTCONT.5294238,LG DO ARRABALDE,,5470-480,SOLVEIRA,-7.671361854737734,41.844652789762385
pt.ine.add.PTCONT.5294239,R PRINCIPAL,32,5470-362,PARADELA MTR,-7.945667639931171,41.763407306756704
pt.ine.add.PTCONT.5294240,R DAS MARINHAS,11,5470-370,PITÕES DAS JUNIAS,-7.942588752547165,41.8366536938857
pt.ine.add.PTCONT.5294246,R DOS CRESPOS,5,5470-160,GRALHAS,-7.704782731316403,41.84884276251626
pt.ine.add.PTCONT.5294247,TV DO EIRÃO,40,5470-160,GRALHAS,-7.70469904428294,41.84875241764992
pt.ine.add.PTCONT.5294248,TV DO OUTEIRO,3,5470-362,PARADELA MTR,-7.944520689744826,41.76084845472385
pt.ine.add.PTCONT.5294249,R DA PALA MOLES,2,5470-363,PARADELA MTR,-7.964310453457372,41.74376367380785
pt.ine.add.PTCONT.5294250,R DO BRASILEIRO,,5470-370,PITÕES DAS JUNIAS,-7.950893692940771,41.84162799421716
pt.ine.add.PTCONT.5294256,R BENTO DA CRUZ,1108,5470-171,MEIXEDO MTR,-7.786051510060004,41.82408789527342
pt.ine.add.PTCONT.5294257,R DO AREAL,5,5470-219,MONTALEGRE,-7.753474455308288,41.861690628364066
pt.ine.add.PTCONT.5294258,R FUNDO,3,5470-384,PONDRAS,-7.933349503765071,41.69488803799952
pt.ine.add.PTCONT.5294259,R FUNDO DO LUGAR,7,5470-384,PONDRAS,-7.933349503765071,41.69488803799952
pt.ine.add.PTCONT.5294260,R DO FREIXO,7,5470-391,REIGOSO MTR,-7.9392485566061906,41.70661173228156
pt.ine.add.PTCONT.5294276,R PRINCIPAL,32,5470-392,REIGOSO MTR,-7.916368912933261,41.711189662536235
pt.ine.add.PTCONT.5294277,R DO CARVALHO DO TORRÃO,14,5470-424,SALTO,-7.921320237534016,41.65965355512202
pt.ine.add.PTCONT.5294278,R DOS MOINHOS,6,5470-407,SALTO,-7.969064622844564,41.65175441963057
pt.ine.add.PTCONT.5294279,R DO CALHOTO,3,5470-403,SALTO,-7.95622603553882,41.60990446589575
pt.ine.add.PTCONT.5294280,R DOS TALHOS,10,5470-430,SALTO,-7.8750203916117805,41.60656354565639
pt.ine.add.PTCONT.5294281,R ANÍBAL MAGALHÃES,10,5470-430,SALTO,-7.9443719467236615,41.64733176916811
pt.ine.add.PTCONT.5294290,R 25 DE ABRIL,6,5470-024,CABRIL MTR,-8.011234674438724,41.735710897092574
pt.ine.add.PTCONT.5294291,R DO MEIO,6,5470-065,CHÃ,-7.734475616122092,41.786934739742314
pt.ine.add.PTCONT.5294292,R DO MEIO,20,5470-065,CHÃ,-7.736399401943079,41.78709445632249
pt.ine.add.PTCONT.5294293,R CENTRAL,22,5470-407,SALTO,-7.971114998509117,41.652720713548945
pt.ine.add.PTCONT.5294294,R DO FUNDO DO POVO,29,5470-450,SANTO ANDRÉ,-7.665627515661391,41.863257341634196
pt.ine.add.PTCONT.5294297,R DE TRÁS,44,5470-430,SALTO,-7.945235854282793,41.64332657475449
pt.ine.add.PTCONT.5294298,R 21 DE JUNHO,5,5470-430,SALTO,-7.9455221078997695,41.639815629240324
pt.ine.add.PTCONT.5294299,R DO OUTEIRO,32,5470-450,SANTO ANDRÉ,-7.667963293069684,41.86668805825394
pt.ine.add.PTCONT.5294300,EN 308,60,5470-472,SEZELHE,-7.873841384788042,41.80777144500074
pt.ine.add.PTCONT.5294307,LG DO EIRÃO,3,5470-022,CABRIL MTR,-8.036491357085099,41.71828613958342
pt.ine.add.PTCONT.5294308,AV DA IGREJA,28,5470-460,VILAR PERDIZES (S MIGUEL),-7.634114734292758,41.85775881487392
pt.ine.add.PTCONT.5294309,TV DA CANCELA,4,5470-490,TOURÉM,-7.897419725600832,41.90828984075602
pt.ine.add.PTCONT.5294310,R DA CORREDOURA,2,5470-490,TOURÉM,-7.898382606614202,41.90865194101649
pt.ine.add.PTCONT.5294311,R CENTRAL,13,5470-501,VENDA NOVA,-7.950775961275276,41.68351851406874
pt.ine.add.PTCONT.5294317,R DA SAIBREIRA,8,5470-502,VENDA NOVA,-7.98024016489399,41.67239705653141
pt.ine.add.PTCONT.5294318,R DO PENEDO DA CARVALHA,111,5470-504,VENDA NOVA,-7.956002936220518,41.669508130837194
pt.ine.add.PTCONT.5294319,R DA CRUZ,4,5470-528,VIADE DE BAIXO,-7.862027063616018,41.76141271549932
pt.ine.add.PTCONT.5294320,R DO PORTAL,5,5470-527,VIADE DE BAIXO,-7.862139075811348,41.760512636764986
pt.ine.add.PTCONT.5294568,R DO CARVALHAL,,5470-102,COVELO DO GEREZ,-7.996263191988359,41.73298399524409
pt.ine.add.PTCONT.5294589,R DE BAIXO,7,5470-302,MORGADE,-7.745621042804203,41.7559921694773
pt.ine.add.PTCONT.5294591,R F,53,5470-171,MEIXEDO MTR,-7.777197277193427,41.83408149126921
pt.ine.add.PTCONT.5294594,R G,70,5470-171,MEIXEDO MTR,-7.776599751790236,41.83328734721869
pt.ine.add.PTCONT.5294624,R DA FONTE DA CARREIRA,8,5470-461,VILAR PERDIZES (S MIGUEL),-7.629100089852212,41.856827590113184
pt.ine.add.PTCONT.5294990,TV DE QUINTÃES,1,5470-219,MONTALEGRE,-7.740311443107552,41.83398828580351
pt.ine.add.PTCONT.5294991,R DE S GERALDO,10,5470-180,MEIXIDE,-7.599956995335743,41.81322816288099
pt.ine.add.PTCONT.5295084,R DO CASAL DO MARCO,186,5470-171,MEIXEDO MTR,-7.799818158624234,41.82242703560053
pt.ine.add.PTCONT.5295085,R DE AVELAR,384,5470-171,MEIXEDO MTR,-7.7953285604677385,41.82013607921843
pt.ine.add.PTCONT.5295086,R DO FORNO VELHO,74,5470-171,MEIXEDO MTR,-7.790267465129498,41.82576617042933
pt.ine.add.PTCONT.5295087,R DE CIMA,3,5470-302,MORGADE,-7.747457772937747,41.756484534051594
pt.ine.add.PTCONT.5295088,R DA FONTE DA BARRAGEM,9,5470-311,MOURILHE,-7.842736480203038,41.836570717485834
pt.ine.add.PTCONT.5295089,R DO TORNADOURO,4,5470-321,NEGRÕES,-7.769220952573878,41.716111983422074
pt.ine.add.PTCONT.5295090,LG DE S SALVADOR,12,5470-321,NEGRÕES,-7.768059234822805,41.71542403358436
pt.ine.add.PTCONT.5295091,R DO COUTO,9,5470-332,OUTEIRO MTR,-7.945786627355764,41.78864406450269
pt.ine.add.PTCONT.5295092,R DE TRÁS,9,5470-171,MEIXEDO MTR,-7.7810210673524605,41.85905939197171
pt.ine.add.PTCONT.5295093,TV DA POUPA,20,5470-171,MEIXEDO MTR,-7.7832222119023005,41.8595703015877
pt.ine.add.PTCONT.5295094,R DO RIGUEIRO,8,5470-370,PITÕES DAS JUNIAS,-7.948727238011881,41.84136344098365
pt.ine.add.PTCONT.5295095,R DO FORNO,14,5470-370,PITÕES DAS JUNIAS,-7.949940861979728,41.842211693770125
pt.ine.add.PTCONT.5295096,R DA FORJA,3,5470-393,REIGOSO MTR,-7.937081888342627,41.71583665794248
pt.ine.add.PTCONT.5295097,R DE FUNDOVILAS,38,5470-392,REIGOSO MTR,-7.9179747280693045,41.719682985448536
pt.ine.add.PTCONT.5295098,R DA TRIGUEIRA,7,5470-391,REIGOSO MTR,-7.93707253885794,41.70704921344482
pt.ine.add.PTCONT.5295099,AV CENTRAL,27,5470-407,SALTO,-7.9781995444578575,41.65702519863836
pt.ine.add.PTCONT.5295100,R DA EIRINHA,12,5470-411,SALTO,-7.922979199965245,41.61096496096497
pt.ine.add.PTCONT.5295101,R DA EIRINHA,12,5470-411,SALTO,-7.922979199965245,41.61096496096497
pt.ine.add.PTCONT.5295102,R DAS MINAS DA BORRALHA,6,5470-430,SALTO,-7.943239917189198,41.648581407076655
pt.ine.add.PTCONT.5295103,R 21 DE JUNHO,7,5470-430,SALTO,-7.945677591034818,41.64000495900442
pt.ine.add.PTCONT.5295104,AV PADRE MANUEL JOSÉ JORGE,1,5470-430,SALTO,-7.945439710735045,41.63925726991907
pt.ine.add.PTCONT.5295105,R DO VALZINHO,12,5470-450,SANTO ANDRÉ,-7.669063173881014,41.866161316280696
pt.ine.add.PTCONT.5295106,R DA PIPELA,7,5470-450,SANTO ANDRÉ,-7.6667416956465315,41.86407216351801
pt.ine.add.PTCONT.5295107,LG DO JAZIGO,23,5470-450,SANTO ANDRÉ,-7.667255792737202,41.864596438180705
pt.ine.add.PTCONT.5295108,R DA RAPOSA,23,5470-450,SANTO ANDRÉ,-7.667919416367113,41.862771469006205
pt.ine.add.PTCONT.5295109,R DO CAMPO,17,5470-461,VILAR PERDIZES (S MIGUEL),-7.630787299319982,41.85821247907854
pt.ine.add.PTCONT.5295110,R DO REGATO,5,5470-461,VILAR PERDIZES (S MIGUEL),-7.63543331691901,41.85699925971786
pt.ine.add.PTCONT.5295111,TV 3 DA R DA PEDREIRA,4,5470-460,VILAR PERDIZES (S MIGUEL),-7.636559195621816,41.8546812932457
pt.ine.add.PTCONT.5295112,AV CENTRAL,56,5470-459,VILAR PERDIZES (S MIGUEL),-7.634518233426719,41.850774040320104
pt.ine.add.PTCONT.5295113,ESTR DE CHAVES,7,5470-458,VILAR PERDIZES (S MIGUEL),-7.635498874210212,41.84698791861547
pt.ine.add.PTCONT.5295114,R DO PENEDO DA LINHAÇA,8,5470-461,VILAR PERDIZES (S MIGUEL),-7.633475268964949,41.84862673136854
pt.ine.add.PTCONT.5295115,R CENTRAL,20,5470-463,SARRAQUINHOS,-7.679761830946119,41.80261378044621
pt.ine.add.PTCONT.5295123,R DIREITA,23,5470-462,SARRAQUINHOS,-7.658685267117754,41.77749032560882
pt.ine.add.PTCONT.5295124,R DA FECHEIRA,1,5470-472,SEZELHE,-7.890146243276365,41.80799615738473
pt.ine.add.PTCONT.5295125,R DO OUTEIRO,,5470-480,SOLVEIRA,-7.6726248228510165,41.84315431269162
pt.ine.add.PTCONT.5295126,EN 103,,5470-501,VENDA NOVA,-7.947493906396316,41.68044304652213
pt.ine.add.PTCONT.5295127,R DA LAMPAÇA,12,5470-526,VIADE DE BAIXO,-7.8694323751985715,41.74430540029112
pt.ine.add.PTCONT.5295128,R DA CARVALHA,29,5470-526,VIADE DE BAIXO,-7.870093307791644,41.74142580830665
pt.ine.add.PTCONT.5295129,AV CENTRAL,24,5470-526,VIADE DE BAIXO,-7.872127811260031,41.74071017030258
pt.ine.add.PTCONT.5295130,R DA LOMBA DO PESO,32,5470-523,VIADE DE BAIXO,-7.877022895119885,41.73404061095943
pt.ine.add.PTCONT.5295131,R CENTRAL,43,5470-541,VILA DA PONTE MTR,-7.89909402988223,41.743289222940675
pt.ine.add.PTCONT.5295436,R DA PORTELA,33,5470-023,CABRIL MTR,-8.022842813087818,41.70961247425464
pt.ine.add.PTCONT.5295437,R DA FECHEIRA,5,5470-103,COVELO DO GEREZ,-7.9883304772459685,41.73818728798003
pt.ine.add.PTCONT.5295438,R DO EIRÃO,5,5470-128,FERRAL,-8.015786776888442,41.69803595288687
pt.ine.add.PTCONT.5295439,R DA ESTRADA,,5470-128,FERRAL,-8.017276499708315,41.69799244633008
pt.ine.add.PTCONT.5295440,R E,2,5470-171,MEIXEDO MTR,-7.778027730544687,41.8341200746975
pt.ine.add.PTCONT.5295441,R D,19,5470-171,MEIXEDO MTR,-7.778045043373262,41.83316577763068
pt.ine.add.PTCONT.5295442,R DO OUTEIRO,9,5470-171,MEIXEDO MTR,-7.7873213547711275,41.827449963541085
pt.ine.add.PTCONT.5295461,R DA ESCOLA,19,5470-067,CHÃ,-7.786786474744607,41.79714310360974
pt.ine.add.PTCONT.5295462,R DA FONTELA,53,5470-067,CHÃ,-7.782200546289895,41.79527449361576
pt.ine.add.PTCONT.5295463,R DA VILA NOVA,8,5470-064,CHÃ,-7.718436295174266,41.79309028992631
pt.ine.add.PTCONT.5295464,R PRINCIPAL,15,5470-065,CHÃ,-7.740108585439333,41.78644095489924
pt.ine.add.PTCONT.5295465,R DA TULHA,5,5470-071,CHÃ,-7.7851015575405,41.783885042704846
pt.ine.add.PTCONT.5295466,R PRINCIPAL,32,5470-142,FERVIDELAS,-7.917888839669241,41.752617528136625
pt.ine.add.PTCONT.5295467,R PRINCIPAL,33,5470-142,FERVIDELAS,-7.916363176253867,41.75222751206111
pt.ine.add.PTCONT.5295494,R DOS CHÃOS,18,5470-069,CHÃ,-7.810294992122448,41.76386299658724
pt.ine.add.PTCONT.5295495,R DO MEIO,1,5470-081,CONTIM,-7.892122900495618,41.78468157600007
pt.ine.add.PTCONT.5295496,R DO CASAL,3,5470-160,GRALHAS,-7.710045704100997,41.848709213031675
pt.ine.add.PTCONT.5295497,R DA SANTA,12,5470-160,GRALHAS,-7.70380523262671,41.8473625758144
pt.ine.add.PTCONT.5295498,R DO CAMPINO,6,5470-160,GRALHAS,-7.704535877240607,41.84794151413173
pt.ine.add.PTCONT.5295499,R DA FONTE,24,5470-219,MONTALEGRE,-7.736518334594766,41.83609102752148
pt.ine.add.PTCONT.5295500,R DA MOREIRA,2,5470-219,MONTALEGRE,-7.739608585392282,41.834742157453505
pt.ine.add.PTCONT.5295567,R DA CERDEIRA,,5470-104,COVELO DO GEREZ,-7.987423129744447,41.735431077597895
pt.ine.add.PTCONT.5295568,R DA IGREJA,,5470-480,SOLVEIRA,-7.668771769319483,41.843174813786064
pt.ine.add.PTCONT.5295593,AV CENTRAL,26,5470-407,SALTO,-7.9781995444578575,41.65702519863836
pt.ine.add.PTCONT.5295599,R DO CASTRO,102,5470-171,MEIXEDO MTR,-7.780638246669621,41.83446123732812
pt.ine.add.PTCONT.5295607,R PRINCIPAL,55,5470-068,CHÃ,-7.75911133025709,41.79751551068345
pt.ine.add.PTCONT.5295703,R PADRE MANUEL BAPTISTA,9,5470-543,VILA DA PONTE MTR,-7.895754362490024,41.7197922975465
pt.ine.add.PTCONT.5295704,R DAS CORTES NOVAS,9,5470-543,VILA DA PONTE MTR,-7.895502631118453,41.71962071088176
pt.ine.add.PTCONT.5296268,R D,17,5470-171,MEIXEDO MTR,-7.778080660659561,41.83325592080481
pt.ine.add.PTCONT.5296153,R DO CRUZEIRO,2,5470-083,CONTIM,-7.9036382643953225,41.787154076652904
pt.ine.add.PTCONT.5296154,R PRINCIPAL,6,5470-126,FERRAL,-7.986516297490315,41.70604249715188
pt.ine.add.PTCONT.5296155,R DO CARRIL,3,5470-125,FERRAL,-7.9587972751768215,41.70640895472402
pt.ine.add.PTCONT.5296162,R DA PONTE VELHA,2,5470-013,CABRIL MTR,-8.036643046932104,41.71328031507291
pt.ine.add.PTCONT.5296163,R PRINCIPAL,67,5470-063,CHÃ,-7.804705293147559,41.777586357440846
pt.ine.add.PTCONT.5296164,R DA CAPELA DO DIVINO SALVADOR,16,5470-073,CHÃ,-7.795571823565501,41.766908858074686
pt.ine.add.PTCONT.5296165,R DAS EIRAS,1,5470-323,NEGRÕES,-7.802302389342257,41.73725310319889
pt.ine.add.PTCONT.5296166,R PRINCIPAL,6,5470-323,NEGRÕES,-7.800606913423491,41.73736525454208
pt.ine.add.PTCONT.5296167,R DO VALADO,28,5470-461,VILAR PERDIZES (S MIGUEL),-7.634490079853174,41.84974754616644
pt.ine.add.PTCONT.5296179,R DA TULHA,28,5470-056,CERVOS,-7.690177951452653,41.75778156767514
pt.ine.add.PTCONT.5296180,R DE LANOS,1,5470-062,CHÃ,-7.7612019667718855,41.77720167369991
pt.ine.add.PTCONT.5296181,R CENTRAL,5,5470-160,GRALHAS,-7.7051880699665265,41.853066807748235
pt.ine.add.PTCONT.5296182,TV DAS PEDREIRAS,14 B,5470-160,GRALHAS,-7.708751201220584,41.851450435951065
pt.ine.add.PTCONT.5296183,R BENTO DA CRUZ,,5470-171,MEIXEDO MTR,-7.781366942537397,41.82889942499215
pt.ine.add.PTCONT.5296184,R DOS FIDALGOS,7,5470-490,TOURÉM,-7.89671869161031,41.90556042923032
pt.ine.add.PTCONT.5296193,R DA PORTELA,3,5470-219,MONTALEGRE,-7.741969394938134,41.834543144955575
pt.ine.add.PTCONT.5296194,R DA IGREJA,86,5470-504,VENDA NOVA,-7.958397701063472,41.6720327977781
pt.ine.add.PTCONT.5296200,R DA CRUZ DA ESTRADA,6,5470-101,COVELO DO GEREZ,-7.976763682828756,41.709613044300454
pt.ine.add.PTCONT.5296201,R CENTRAL,73,5470-304,MORGADE,-7.747541431574223,41.75054255143048
pt.ine.add.PTCONT.5296202,R DE S DOMINGOS,24,5470-304,MORGADE,-7.749222145909642,41.74894556755491
pt.ine.add.PTCONT.5296203,R DA CORGA,5,5470-525,VIADE DE BAIXO,-7.841383524826153,41.75798586920497
pt.ine.add.PTCONT.5296209,R PRINCIPAL,3,5470-151,FIÃES DO RIO,-7.926387757076815,41.775609885072015
pt.ine.add.PTCONT.5296210,R CENTRAL,3,5470-523,VIADE DE BAIXO,-7.8812184005469454,41.74005519810467
pt.ine.add.PTCONT.5296211,R DA LOMBA DO PESO,24,5470-523,VIADE DE BAIXO,-7.8779357982215465,41.734195700877414
pt.ine.add.PTCONT.5296218,R DO OUTEIRO,8,5470-067,CHÃ,-7.786909760677435,41.79882710432082
pt.ine.add.PTCONT.5296219,R DO FOLGAR,3,5470-461,VILAR PERDIZES (S MIGUEL),-7.635728250385057,41.848465447887946
pt.ine.add.PTCONT.5296220,R DO FORNO,10,5470-463,SARRAQUINHOS,-7.680451416502447,41.80208530244119
pt.ine.add.PTCONT.5296221,TV DA RESIDÊNCIA,2,5470-465,SARRAQUINHOS,-7.6632310551999305,41.79901804327333
pt.ine.add.PTCONT.5296227,R DO FORNO,2,5470-151,FIÃES DO RIO,-7.927092548144438,41.777123723957025
pt.ine.add.PTCONT.5296228,R DA PONTE DA PEDRA,5,5470-171,MEIXEDO MTR,-7.785946680921,41.827895982966446
pt.ine.add.PTCONT.5296229,R DOS FERRADORES,6,5470-171,MEIXEDO MTR,-7.791896270918165,41.82505075458192
pt.ine.add.PTCONT.5296230,R PRINCIPAL,58,5470-466,SARRAQUINHOS,-7.684058561727715,41.78867545616702
pt.ine.add.PTCONT.5296231,R DA FONTE DE BAIXO,22,5470-471,SEZELHE,-7.874140371492353,41.811220404140464
pt.ine.add.PTCONT.5296238,R DA FORJA,8,5470-480,SOLVEIRA,-7.670684570821871,41.843398609388785
pt.ine.add.PTCONT.5296239,R DA IGREJA,,5470-480,SOLVEIRA,-7.668249243555395,41.84217333617817
pt.ine.add.PTCONT.5296240,R DE FERVENÇA,4,5470-362,PARADELA MTR,-7.949232479671391,41.75733574733782
pt.ine.add.PTCONT.5296267,R DO VIVEIRO,1,5470-219,MONTALEGRE,-7.7517952698820425,41.805756539313144
pt.ine.add.PTCONT.5296248,R SEARA,20,5470-219,MONTALEGRE,-7.743249188013031,41.81806242627048
pt.ine.add.PTCONT.5296249,R G,62,5470-171,MEIXEDO MTR,-7.776765940826314,41.833711018359075
pt.ine.add.PTCONT.5296250,TV DA TULHA,4,5470-171,MEIXEDO MTR,-7.787355214448236,41.825631394917494
pt.ine.add.PTCONT.5296251,R DO CÔTO,40,5470-370,PITÕES DAS JUNIAS,-7.9514390083909054,41.84038640119948
pt.ine.add.PTCONT.5296252,R CENTRAL,35,5470-382,PONDRAS,-7.911125644594889,41.7019960648707
pt.ine.add.PTCONT.5296253,R DIREITA,6,5470-383,PONDRAS,-7.915840877152216,41.68958019627908
pt.ine.add.PTCONT.5296254,R DA TRIGUEIRA,5,5470-391,REIGOSO MTR,-7.937083541816247,41.70738236243492
pt.ine.add.PTCONT.5296266,R DA ESTRADA NACIONAL,37,5470-219,MONTALEGRE,-7.748378817539618,41.80357534088804
pt.ine.add.PTCONT.5296269,R DO CRUZEIRO,27,5470-391,REIGOSO MTR,-7.940402568407337,41.706415595730014
pt.ine.add.PTCONT.5296278,R DA AZENHA,81,5470-171,MEIXEDO MTR,-7.789442262962673,41.82926599530522
pt.ine.add.PTCONT.5296279,R ANTERO DE QUENTAL,15,5470-171,MEIXEDO MTR,-7.795612890515257,41.825583927292065
pt.ine.add.PTCONT.5296280,R CENTRAL,6,5470-430,SALTO,-7.943193487679328,41.6480411136333
pt.ine.add.PTCONT.5296281,R DE BORDA D ÁGUA,73,5470-430,SALTO,-7.945393174163058,41.642885654355545
pt.ine.add.PTCONT.5296282,R DE BORDA D ÁGUA,73 C,5470-430,SALTO,-7.945188940841055,41.642948346004175
pt.ine.add.PTCONT.5296294,R NSA SRA CARMO,3,5470-011,CABRIL MTR,-8.000026463373842,41.738282460444964
pt.ine.add.PTCONT.5296295,R DOS QUARTOS NOVOS,18,5470-407,SALTO,-7.979392573107127,41.65514504742899
pt.ine.add.PTCONT.5296296,R DA LAVARIA NOVA,4,5470-407,SALTO,-7.974902678018883,41.650204978563345
pt.ine.add.PTCONT.5296297,R DA SUCHIA,5,5470-430,SALTO,-7.941978771432885,41.64070115121136
pt.ine.add.PTCONT.5296298,R DO MURO,39,5470-430,SALTO,-7.944074292426835,41.638282640882046
pt.ine.add.PTCONT.5296299,R DO FUNDO DO POVO,11,5470-450,SANTO ANDRÉ,-7.6655077342069315,41.863166821548866
pt.ine.add.PTCONT.5296308,BC DA PAULA,2,5470-041,CAMBESES DO RIO,-7.838075856845741,41.80280533683781
pt.ine.add.PTCONT.5296309,R DA CURVA DOS MEROUÇOS,10,5470-065,CHÃ,-7.738948572489621,41.787283298181286
pt.ine.add.PTCONT.5296310,BR DO OUTEIRO,9,5470-450,SANTO ANDRÉ,-7.667768428351383,41.86698437584518
pt.ine.add.PTCONT.5296311,LG DO ANANEIRO,2,5470-450,SANTO ANDRÉ,-7.666770166638794,41.86346906162739
pt.ine.add.PTCONT.5296312,EN 308,62,5470-472,SEZELHE,-7.873756205311646,41.808005340003945
pt.ine.add.PTCONT.5296328,R DA ESTRADA PRINCIPAL,6,5470-322,NEGRÕES,-7.781212792531165,41.73827086751287
pt.ine.add.PTCONT.5296329,R DAS ESCADINHAS,24,5470-430,SALTO,-7.944566063573584,41.63839149206618
pt.ine.add.PTCONT.5296330,R DOS BARREIROS,5,5470-430,SALTO,-7.950427421402645,41.63687033930903
pt.ine.add.PTCONT.5296331,R DO VALZINHO,3,5470-450,SANTO ANDRÉ,-7.667880122567726,41.86486906623783
pt.ine.add.PTCONT.5296332,AV CENTRAL,86,5470-459,VILAR PERDIZES (S MIGUEL),-7.6394036380254295,41.84810316803039
pt.ine.add.PTCONT.5296354,TV 1 DA R DA PEDREIRA,28,5470-460,VILAR PERDIZES (S MIGUEL),-7.635146680113511,41.853585783733735
pt.ine.add.PTCONT.5296355,EN 103,44,5470-502,VENDA NOVA,-7.974835434379519,41.67276789123478
pt.ine.add.PTCONT.5296356,R DE SANGUINHEDO,,5470-504,VENDA NOVA,-7.965824683177055,41.66980195631988
pt.ine.add.PTCONT.5296357,TV DO CIMO DE VILA,3,5470-525,VIADE DE BAIXO,-7.837798431532611,41.75838186513813
pt.ine.add.PTCONT.5296358,LG DA EIRA,6,5470-522,VIADE DE BAIXO,-7.889450453836847,41.75976349232058
pt.ine.add.PTCONT.5296359,EN 103,4,5470-526,VIADE DE BAIXO,-7.871591215454132,41.74852395011778
pt.ine.add.PTCONT.5296360,R DE RIDANTE,2,5470-526,VIADE DE BAIXO,-7.868374127510095,41.74438399810163
pt.ine.add.PTCONT.5296361,R DE STO ANTÓNIO,40,5470-526,VIADE DE BAIXO,-7.867278559505785,41.74185149702455
pt.ine.add.PTCONT.5296546,ALBUFEIRA DE PENEDONES,,5470-069,CHÃ,-7.8092471625644,41.757008441014605
pt.ine.add.PTCONT.5296575,R DA ESTRADA MUNICIPAL,28,5470-067,CHÃ,-7.786794326735296,41.79568458187593
pt.ine.add.PTCONT.5296605,R DA LAVARIA NOVA,4,5470-407,SALTO,-7.974902678018883,41.650204978563345
pt.ine.add.PTCONT.5296608,R DAS LEIRAS,2,5470-541,VILA DA PONTE MTR,-7.90058110247638,41.74429162590688
pt.ine.add.PTCONT.5297208,R DA BALTEIRA,3,5470-013,CABRIL MTR,-8.03298642587718,41.71568112530709
pt.ine.add.PTCONT.5297209,R DA ESCOLA,2,5470-062,CHÃ,-7.755582844148932,41.7754997117551
pt.ine.add.PTCONT.5297210,R DA ESTRADA MUNICIPAL,19,5470-122,FERRAL,-7.9970886947862185,41.694918126199106
pt.ine.add.PTCONT.5297211,R DO CASAL DO MARCO,144,5470-171,MEIXEDO MTR,-7.799599309691892,41.82284955677174
pt.ine.add.PTCONT.5297212,R ÁSPERA,43,5470-171,MEIXEDO MTR,-7.780866741683325,41.856456973767415
pt.ine.add.PTCONT.5297223,R DO RÊGO,9,5470-091,COVELÃES,-7.900985098579404,41.802319441279174
pt.ine.add.PTCONT.5297224,R DA CRUZ ESTRADA,3,5470-125,FERRAL,-7.976935384609949,41.708172714709754
pt.ine.add.PTCONT.5297235,R DE STO ISIDRO,6,5470-062,CHÃ,-7.757888031939181,41.77827130544538
pt.ine.add.PTCONT.5297236,R DO OUTÃO,19,5470-141,FERVIDELAS,-7.899532405352865,41.75501260821501
pt.ine.add.PTCONT.5297237,R DE AVELAR,88,5470-171,MEIXEDO MTR,-7.7946135280444695,41.81649662779481
pt.ine.add.PTCONT.5297243,R DO CANTO DE CIMA,1,5470-092,COVELÃES,-7.920514287477722,41.79501048818874
pt.ine.add.PTCONT.5297244,R DE S ROSENDO,5,5470-171,MEIXEDO MTR,-7.7882324138494035,41.828154961298885
pt.ine.add.PTCONT.5297245,R DO FERREIRO,3,5470-504,VENDA NOVA,-7.960598636162384,41.67525940161275
pt.ine.add.PTCONT.5297253,R DA CASCATA,9,5470-020,CABRIL MTR,-8.053893213592739,41.70753124805213
pt.ine.add.PTCONT.5297254,R DA CALHELHA,5,5470-219,MONTALEGRE,-7.740513674621141,41.834385122492456
pt.ine.add.PTCONT.5297264,R DA MISARELA,7,5470-127,FERRAL,-8.020065273047237,41.697022841075224
pt.ine.add.PTCONT.5297265,R DAS CRUZES,20,5470-160,GRALHAS,-7.709851978512443,41.8488705582601
pt.ine.add.PTCONT.5297266,R DAS COLMEIAS,356,5470-171,MEIXEDO MTR,-7.786470097109478,41.83128281001461
pt.ine.add.PTCONT.5297267,R DE S DOMINGOS,1,5470-304,MORGADE,-7.748415027086634,41.749212971207044
pt.ine.add.PTCONT.5297268,R DO ALVELO,3,5470-332,OUTEIRO MTR,-7.9460990698917655,41.78876161761909
pt.ine.add.PTCONT.5297269,R DA QUELHA,6,5470-526,VIADE DE BAIXO,-7.866815189844527,41.7376187963543
pt.ine.add.PTCONT.5297270,R COUTO,3,5470-527,VIADE DE BAIXO,-7.853261863179596,41.711323418671704
pt.ine.add.PTCONT.5297277,R CENTRAL,3,5470-070,CHÃ,-7.699870793387656,41.805851551787484
pt.ine.add.PTCONT.5297278,R DO EIRÃO,,5470-128,FERRAL,-8.015197897811827,41.69816139974757
pt.ine.add.PTCONT.5297279,TV DO EIRÃO,4,5470-160,GRALHAS,-7.7040463591583395,41.84911911557055
pt.ine.add.PTCONT.5297285,R DE S JOÃO,3,5470-121,FERRAL,-8.01819530726205,41.694734087021274
pt.ine.add.PTCONT.5297286,R DA LAMARELHA,7,5470-301,MORGADE,-7.742617960296242,41.731699714217314
pt.ine.add.PTCONT.5297295,R DO PEREIRO,19,5470-067,CHÃ,-7.7831327581143945,41.79642076494878
pt.ine.add.PTCONT.5297296,R DO CAPITÃO,6,5470-067,CHÃ,-7.7823162923938325,41.796112160271484
pt.ine.add.PTCONT.5297297,R DO CARVALHO,17,5470-219,MONTALEGRE,-7.744393751292819,41.8198579670914
pt.ine.add.PTCONT.5297298,R DA LAGELA,7,5470-219,MONTALEGRE,-7.745794182022208,41.8191514348234
pt.ine.add.PTCONT.5297299,R DO CASTELO,,5470-219,MONTALEGRE,-7.763256449521352,41.89261265358911
pt.ine.add.PTCONT.5297300,R DA POÇA DA CEGA,,5470-480,SOLVEIRA,-7.668671417547635,41.84206700466559
pt.ine.add.PTCONT.5297301,LG DO TOLEIRO,4,5470-370,PITÕES DAS JUNIAS,-7.950912281810572,41.84356373484921
pt.ine.add.PTCONT.5297302,LG DO TOLEIRO,4,5470-370,PITÕES DAS JUNIAS,-7.950912281810572,41.84356373484921
pt.ine.add.PTCONT.5297303,LG SALGUEIRO,3,5470-370,PITÕES DAS JUNIAS,-7.947727556337348,41.84148787822868
pt.ine.add.PTCONT.5297304,R DAS MARINHAS,4,5470-370,PITÕES DAS JUNIAS,-7.942259631408792,41.83802165145735
pt.ine.add.PTCONT.5297309,R DA BARREIRA,2,5470-068,CHÃ,-7.75976115250398,41.79957039053734
pt.ine.add.PTCONT.5297310,R DE ENTRE AS PORTAS,5,5470-363,PARADELA MTR,-7.963651743689897,41.742817340495655
pt.ine.add.PTCONT.5297311,R DE INFESTA,7,5470-382,PONDRAS,-7.911677790432165,41.70214118647275
pt.ine.add.PTCONT.5297312,R DO BARREIRO,11,5470-392,REIGOSO MTR,-7.920670891611422,41.72202891056168
pt.ine.add.PTCONT.5297318,LG DA COSTA,11,5470-180,MEIXIDE,-7.594769032808497,41.81334801979055
pt.ine.add.PTCONT.5297319,R DA COSTA,113,5470-171,MEIXEDO MTR,-7.79276932862982,41.826115736614874
pt.ine.add.PTCONT.5297320,R DA LEIRINHA,64,5470-422,SALTO,-7.914188893661317,41.67020139840148
pt.ine.add.PTCONT.5297321,R DE S TIAGO,1,5470-409,SALTO,-7.980916382753817,41.65041117760611
pt.ine.add.PTCONT.5297335,R DO COVILHÃO,2,5470-041,CAMBESES DO RIO,-7.839320714024417,41.80424006153879
pt.ine.add.PTCONT.5297336,R DO CRUZEIRO,45,5470-219,MONTALEGRE,-7.756112847096615,41.86155526690134
pt.ine.add.PTCONT.5297337,R DO BARREIRO,41,5470-219,MONTALEGRE,-7.756309931084938,41.86080864292054
pt.ine.add.PTCONT.5297338,R DE TRÁS,34,5470-430,SALTO,-7.943746950801796,41.64350420406548
pt.ine.add.PTCONT.5297348,R DO CARVALHAL,29,5470-430,SALTO,-7.94670759376795,41.64077194196208
pt.ine.add.PTCONT.5297349,R DO CARVALHAL,22,5470-430,SALTO,-7.946838766338808,41.64106927419123
pt.ine.add.PTCONT.5297354,R 25 DE ABRIL,,5470-025,CABRIL MTR,-8.010945949400577,41.73583663919999
pt.ine.add.PTCONT.5297355,LG DA EIRA,,5470-024,CABRIL MTR,-8.028240729858332,41.72255557057386
pt.ine.add.PTCONT.5297356,R DO CHÃO,11,5470-053,CERVOS,-7.702549457416332,41.772405107766794
pt.ine.add.PTCONT.5297357,R DE TRÁS,46,5470-430,SALTO,-7.9454041058138225,41.64325482065677
pt.ine.add.PTCONT.5297358,R CENTRAL,76,5470-430,SALTO,-7.948053091451193,41.64035094553833
pt.ine.add.PTCONT.5297359,R DO EIRÃO,13,5470-461,VILAR PERDIZES (S MIGUEL),-7.629549048460309,41.853327293482906
pt.ine.add.PTCONT.5297367,R DO CORREIO VELHO,1,5470-490,TOURÉM,-7.8972462287329845,41.90630877996358
pt.ine.add.PTCONT.5297373,R DO SENHOR DOS AFLITOS,4 A,5470-461,VILAR PERDIZES (S MIGUEL),-7.635208984168623,41.853315956111715
pt.ine.add.PTCONT.5297374,R DA ESTALAGEM,,5470-502,VENDA NOVA,-7.980723932530129,41.676035142739394
pt.ine.add.PTCONT.5297375,R DO CALVÁRIO,65,5470-504,VENDA NOVA,-7.959018958647837,41.673213208790415
pt.ine.add.PTCONT.5297376,R DO PENEDO DA CARVALHA,103,5470-504,VENDA NOVA,-7.957393723164561,41.67029357686047
pt.ine.add.PTCONT.5297377,TV DO CIMO DE VILA,7,5470-525,VIADE DE BAIXO,-7.837882684541232,41.758364074792254
pt.ine.add.PTCONT.5297642,R DA SENHORINHA,9,5470-160,GRALHAS,-7.703847919081806,41.848182033502894
pt.ine.add.PTCONT.5297646,R DO CANTO,14,5470-073,CHÃ,-7.796510549532575,41.76677656084698
pt.ine.add.PTCONT.5297651,R 25 ABRIL,14,5470-407,SALTO,-7.977636797020746,41.6563941867705
pt.ine.add.PTCONT.5297659,EN 103,39,5470-521,VIADE DE BAIXO,-7.850132817619257,41.75627008769624
pt.ine.add.PTCONT.5297684,AV CENTRAL,21,5470-526,VIADE DE BAIXO,-7.871188775854828,41.74105016521522
pt.ine.add.PTCONT.5297711,R CENTRAL,9,5470-501,VENDA NOVA,-7.951402255358108,41.6828982604376
pt.ine.add.PTCONT.5297737,R DO BISPO,14,5470-042,CAMBESES DO RIO,-7.864825914904628,41.81695216674794
pt.ine.add.PTCONT.5297765,R DO MEIO,32,5470-065,CHÃ,-7.73764071827514,41.78672959763755
pt.ine.add.PTCONT.5297766,R DO CAMPO,38,5470-065,CHÃ,-7.732920284313695,41.78556081919721
pt.ine.add.PTCONT.5297767,R DE CASTELAR,4,5470-072,CHÃ,-7.795153573658952,41.78702121984878
pt.ine.add.PTCONT.5297768,EN 103,3,5470-071,CHÃ,-7.784282262921695,41.77968697857384
pt.ine.add.PTCONT.5297769,EN 103,3,5470-071,CHÃ,-7.784282262921695,41.77968697857384
pt.ine.add.PTCONT.5297770,R PRINCIPAL,48,5470-063,CHÃ,-7.8078305639317485,41.78036829440227
pt.ine.add.PTCONT.5297771,R DAS CRUZES,22,5470-160,GRALHAS,-7.709732042259448,41.84879809001884
pt.ine.add.PTCONT.5297772,R DAS PEDREIRAS,8,5470-160,GRALHAS,-7.708783852459511,41.85015408537979
pt.ine.add.PTCONT.5297773,R DA CALHELHA,2,5470-219,MONTALEGRE,-7.740440453418586,41.834546931636076
pt.ine.add.PTCONT.5297774,R DE QUINTÃES,1,5470-219,MONTALEGRE,-7.739719026967376,41.83440041029483
pt.ine.add.PTCONT.5297775,R PRINCIPAL,,5470-219,MONTALEGRE,-7.744697473603232,41.81939082154826
pt.ine.add.PTCONT.5297776,R DA PORTELA,,5470-171,MEIXEDO MTR,-7.7850976341590155,41.829081851492084
pt.ine.add.PTCONT.5297777,AV MARGINAL DO CÁVADO,5,5470-171,MEIXEDO MTR,-7.78583172787073,41.829120086501696
pt.ine.add.PTCONT.5297778,R DE S ROSENDO,25,5470-171,MEIXEDO MTR,-7.78755262775828,41.82697348363647
pt.ine.add.PTCONT.5297779,R FR JOAQUIM DA BOA MORTE,9,5470-171,MEIXEDO MTR,-7.7938200148811125,41.825461602415864
pt.ine.add.PTCONT.5297780,R DE AVELAR,383,5470-171,MEIXEDO MTR,-7.794390523302148,41.819989263761464
pt.ine.add.PTCONT.5297781,TV DE AVELAR,106,5470-171,MEIXEDO MTR,-7.793663795707522,41.81629575187073
pt.ine.add.PTCONT.5297782,R DE TRÁS,8,5470-171,MEIXEDO MTR,-7.781247419124125,41.85951024901957
pt.ine.add.PTCONT.5297783,R PRINCIPAL,58,5470-362,PARADELA MTR,-7.947996606159093,41.764788607543316
pt.ine.add.PTCONT.5297784,R DA ESTRADA,15,5470-362,PARADELA MTR,-7.943456108718872,41.763016530005764
pt.ine.add.PTCONT.5297785,R DA FONTE,4,5470-370,PITÕES DAS JUNIAS,-7.95135131584547,41.84159270603522
pt.ine.add.PTCONT.5297786,R DA CILHA,9,5470-430,SALTO,-7.9448782805347165,41.64658529940664
pt.ine.add.PTCONT.5297787,R DE BORDA D ÁGUA,73 F,5470-430,SALTO,-7.945501305207718,41.64284981640041
pt.ine.add.PTCONT.5297788,R DO CARVALHAL,24,5470-430,SALTO,-7.9470659355964255,41.641375765285794
pt.ine.add.PTCONT.5297789,R DAS PENELADAS,10,5470-461,VILAR PERDIZES (S MIGUEL),-7.639631308837543,41.849814766863524
pt.ine.add.PTCONT.5297790,R DA FRAGA,15,5470-464,SARRAQUINHOS,-7.641250028390131,41.80982907160284
pt.ine.add.PTCONT.5297791,R DO SANTO,7,5470-464,SARRAQUINHOS,-7.639871748748043,41.809093892368765
pt.ine.add.PTCONT.5297792,R DOS FIDALGOS,1,5470-490,TOURÉM,-7.896442027879113,41.905415808089494
pt.ine.add.PTCONT.5297793,R DA SEARA VELHA,9,5470-501,VENDA NOVA,-7.948343605411685,41.673097504146746
pt.ine.add.PTCONT.5297794,R DO CALVÁRIO,66,5470-504,VENDA NOVA,-7.958864206664188,41.67270877411211
pt.ine.add.PTCONT.5297795,R DA IGREJA,90,5470-504,VENDA NOVA,-7.958146573538938,41.67164526199315
pt.ine.add.PTCONT.5297796,R DO CASAL,,5470-529,VIADE DE BAIXO,-7.856372349781913,41.76769262782134
pt.ine.add.PTCONT.5297797,R DA QUELHA,1,5470-527,VIADE DE BAIXO,-7.8636610251041725,41.76175868927897
pt.ine.add.PTCONT.5298135,R DE BAIXO,7,5470-081,CONTIM,-7.892044563210404,41.78311482075221
pt.ine.add.PTCONT.5298136,R DO CASAL AO BARREIRO,1,5470-091,COVELÃES,-7.89570380720261,41.802029544098474
pt.ine.add.PTCONT.5298137,R DA IGREJA,15,5470-092,COVELÃES,-7.919251961369698,41.79472003707396
pt.ine.add.PTCONT.5298138,R DO CANTO DE CIMA,46,5470-092,COVELÃES,-7.922248384777499,41.79452750155804
pt.ine.add.PTCONT.5298139,R DO CANTO DE BAIXO,10,5470-092,COVELÃES,-7.919241486511036,41.794251841747254
pt.ine.add.PTCONT.5298187,R G,66,5470-171,MEIXEDO MTR,-7.77667068283083,41.833521653347084
pt.ine.add.PTCONT.5298140,R DA FECHEIRA,14,5470-110,DONÕES,-7.81721604926858,41.833613304880615
pt.ine.add.PTCONT.5298176,R JOÃO RODRIGUES CABRILHO,11,5470-019,CABRIL MTR,-7.993693788740522,41.74834982987022
pt.ine.add.PTCONT.5298177,R DE NSA SRA DAS DORES,9,5470-016,CABRIL MTR,-8.019217166813698,41.72152058258148
pt.ine.add.PTCONT.5298178,R DA FONTE,7,5470-020,CABRIL MTR,-8.05376252068253,41.7063336890544
pt.ine.add.PTCONT.5298179,R ELIAS FERNANDES,2,5470-052,CERVOS,-7.709796010474146,41.76596759504717
pt.ine.add.PTCONT.5298180,QLHA DO RIO,,5470-123,FERRAL,-7.974547069638347,41.697293181618555
pt.ine.add.PTCONT.5298181,R DA SENHORA DOS CAMINHOS,,5470-121,FERRAL,-8.017976173752228,41.69636350878156
pt.ine.add.PTCONT.5298182,R DA ESTRADA MUNICIPAL,,5470-122,FERRAL,-7.996470039132355,41.69208127590506
pt.ine.add.PTCONT.5298183,R PRINCIPAL,22,5470-219,MONTALEGRE,-7.744490527042124,41.81977726460967
pt.ine.add.PTCONT.5298184,R BENTO GONÇALVES,253,5470-171,MEIXEDO MTR,-7.77609132228987,41.83595974983753
pt.ine.add.PTCONT.5298185,ESTR DA FONTEIRA,11,5470-171,MEIXEDO MTR,-7.77904702921435,41.83484348565241
pt.ine.add.PTCONT.5298186,R PINTO DE DONÕES,1,5470-171,MEIXEDO MTR,-7.771901115942649,41.83607269563445
pt.ine.add.PTCONT.5298188,R DE AVELAR,983,5470-171,MEIXEDO MTR,-7.793131213957092,41.8145925460635
pt.ine.add.PTCONT.5298189,R DA COSTA,48,5470-171,MEIXEDO MTR,-7.79243510953639,41.825583549925156
pt.ine.add.PTCONT.5298190,TV DA PEDRA,6,5470-304,MORGADE,-7.746873648506648,41.75162972403132
pt.ine.add.PTCONT.5298191,TV DA FONTE,29,5470-312,MOURILHE,-7.8326383728621565,41.84371137473926
pt.ine.add.PTCONT.5298192,R DA ESCOLA,2,5470-311,MOURILHE,-7.842098216963373,41.839270094315786
pt.ine.add.PTCONT.5298193,R DAS LAGES,7,5470-370,PITÕES DAS JUNIAS,-7.94911063436847,41.84202129734377
pt.ine.add.PTCONT.5298194,R DE S ROQUE,3,5470-370,PITÕES DAS JUNIAS,-7.948764675806487,41.84090433227335
pt.ine.add.PTCONT.5298195,LG DO CRUZEIRO,8,5470-382,PONDRAS,-7.9117741489602595,41.7020693438872
pt.ine.add.PTCONT.5298196,QLHA DA VEIGA,26,5470-385,PONDRAS,-7.93138247327855,41.70160123795573
pt.ine.add.PTCONT.5298197,R DA SENHORA DA LIVRAÇÃO,2,5470-383,PONDRAS,-7.914780476673334,41.690577580229785
pt.ine.add.PTCONT.5298198,R DA CHÃ DE AMIAR,13,5470-415,SALTO,-7.939767333851771,41.657750291677274
pt.ine.add.PTCONT.5298199,R DA VEIGA,16,5470-426,SALTO,-7.935461281255843,41.62894038861188
pt.ine.add.PTCONT.5298200,R DA FONTE DO PAÇO,8,5470-426,SALTO,-7.929101376360131,41.628839241519856
pt.ine.add.PTCONT.5298201,R DAS CRUZES,,5470-411,SALTO,-7.92219420280126,41.612557172788215
pt.ine.add.PTCONT.5298202,R DO TREGÃO,5,5470-411,SALTO,-7.922640210580026,41.6119097261042
pt.ine.add.PTCONT.5298203,R DE S BENTO,2,5470-420,SALTO,-7.943433454231682,41.598944599040564
pt.ine.add.PTCONT.5298204,R DE BORDA D ÁGUA,2,5470-430,SALTO,-7.941482158032988,41.64627356509617
pt.ine.add.PTCONT.5298205,R DO OUTEIRO,30,5470-450,SANTO ANDRÉ,-7.667770452261436,41.86670528355654
pt.ine.add.PTCONT.5298206,R DOS CARRINS,12,5470-459,VILAR PERDIZES (S MIGUEL),-7.628840157226091,41.854656665141675
pt.ine.add.PTCONT.5298207,R DE BAIXO,3,5470-472,SEZELHE,-7.890291905327525,41.8076633411113
pt.ine.add.PTCONT.5298208,R DO MARIANO,18,5470-525,VIADE DE BAIXO,-7.835865003419217,41.75783667365194
pt.ine.add.PTCONT.5298209,R DO CIMO DE VILA,32,5470-525,VIADE DE BAIXO,-7.83727213030483,41.75777728129241
pt.ine.add.PTCONT.5298210,R DA ESCOLA,8,5470-527,VIADE DE BAIXO,-7.852487897629686,41.709700899904405
pt.ine.add.PTCONT.5298216,R DO PRADO,1,5470-311,MOURILHE,-7.840605170367901,41.836655342887134
pt.ine.add.PTCONT.5298217,R DA FONTE DA BARRAGEM,11,5470-311,MOURILHE,-7.842688975515966,41.836426544435255
pt.ine.add.PTCONT.5298218,R DO TORNADOURO,10,5470-321,NEGRÕES,-7.770229468436929,41.71626823186673
pt.ine.add.PTCONT.5298219,LG DE S SALVADOR,6,5470-321,NEGRÕES,-7.767699104005504,41.71535986456425
pt.ine.add.PTCONT.5298220,R DA CARVALHA,,5470-333,OUTEIRO MTR,-7.940974047197676,41.79687421430543
pt.ine.add.PTCONT.5298221,R DA FECHA,,5470-333,OUTEIRO MTR,-7.941355320553829,41.79409280657387
pt.ine.add.PTCONT.5298222,R DO COUTO,9,5470-332,OUTEIRO MTR,-7.945762331231158,41.788725055413295
pt.ine.add.PTCONT.5298223,R DO OUTEIRO,38,5470-171,MEIXEDO MTR,-7.784353835059952,41.85965477278375
pt.ine.add.PTCONT.5298224,R CENTRAL,17,5470-541,VILA DA PONTE MTR,-7.899550132813689,41.743488227058805
pt.ine.add.PTCONT.5298225,R DO VALE DA PRESA,12,5470-543,VILA DA PONTE MTR,-7.8935522230853055,41.71735678334113
pt.ine.add.PTCONT.5298659,R DA EIRA,1,5470-056,CERVOS,-7.689402032055348,41.75695926301527
pt.ine.add.PTCONT.5298695,R DO CAMPO,15,5470-065,CHÃ,-7.73081908237597,41.78684996682134
pt.ine.add.PTCONT.5298707,R DE BAIXO,8,5470-142,FERVIDELAS,-7.916399548919872,41.75213754619257
pt.ine.add.PTCONT.5298708,R DA FONTE,68,5470-180,MEIXIDE,-7.597011233944643,41.81289933689703
pt.ine.add.PTCONT.5298709,R DA LAMA,4,5470-528,VIADE DE BAIXO,-7.862119323629502,41.7623492896624
pt.ine.add.PTCONT.5298810,R DA ESTRADA MUNICIPAL,12,5470-101,COVELO DO GEREZ,-7.98636529928026,41.71432554057624
pt.ine.add.PTCONT.5298811,R DO AQUEIRO,5,5470-122,FERRAL,-7.964230143434087,41.70557973918568
pt.ine.add.PTCONT.5298812,R DO AQUEIRO,10,5470-122,FERRAL,-7.96477108311405,41.705472490543656
pt.ine.add.PTCONT.5298813,R DA ESTRADA,,5470-128,FERRAL,-8.016927629788588,41.69826220031105
pt.ine.add.PTCONT.5298814,R DO EIDO DE BAIXO,,5470-122,FERRAL,-8.00152198823683,41.694617167217665
pt.ine.add.PTCONT.5298870,R CENTRAL,,5470-122,FERRAL,-7.9964833086598555,41.69148705758464
pt.ine.add.PTCONT.5298871,R DE ENTRE AS SEBES,16,5470-141,FERVIDELAS,-7.90004669215739,41.75576994161862
pt.ine.add.PTCONT.5298872,R PRINCIPAL,36,5470-142,FERVIDELAS,-7.918285130032397,41.752762324894114
pt.ine.add.PTCONT.5298873,R DO CASAL,10 A,5470-160,GRALHAS,-7.711404987006259,41.84892128710417
pt.ine.add.PTCONT.5298874,BC DO NEGO DA VILA,3,5470-160,GRALHAS,-7.704368644873354,41.84954347293682
pt.ine.add.PTCONT.5298932,R DO PIAL,28,5470-160,GRALHAS,-7.704930166296021,41.848402151756716
pt.ine.add.PTCONT.5298933,R DO CARVALHO,11,5470-219,MONTALEGRE,-7.744310590358077,41.81967761914216
pt.ine.add.PTCONT.5298934,CM 1352,22,5470-180,MEIXIDE,-7.595559067964445,41.81529643504322
pt.ine.add.PTCONT.5298983,R DA PORTELA,460,5470-171,MEIXEDO MTR,-7.787786316319691,41.826046844485504
pt.ine.add.PTCONT.5298984,TV DA TRINDADE,2,5470-171,MEIXEDO MTR,-7.786753131017071,41.827907420793885
pt.ine.add.PTCONT.5298985,R DA TRINDADE,23,5470-171,MEIXEDO MTR,-7.786779389187112,41.82750235067228
pt.ine.add.PTCONT.5299050,TV MIGUEL TORGA,5,5470-171,MEIXEDO MTR,-7.789459161306287,41.82160421926609
pt.ine.add.PTCONT.5299051,R DOS FERRADORES,15,5470-171,MEIXEDO MTR,-7.792293866206035,41.82497990836292
pt.ine.add.PTCONT.5299052,R PRINCIPAL,47,5470-304,MORGADE,-7.748196097423402,41.753659933768354
pt.ine.add.PTCONT.5299053,R DO OUTEIRO,5,5470-301,MORGADE,-7.741269286692509,41.732109282404814
pt.ine.add.PTCONT.5299103,R DA ESTRADA PRINCIPAL,3,5470-322,NEGRÕES,-7.777728476264904,41.73796302997654
pt.ine.add.PTCONT.5299104,R CARVALHO DUQUE,12,5470-334,OUTEIRO MTR,-7.96487552952714,41.77136905575263
pt.ine.add.PTCONT.5299105,R DA TOUÇA,5,5470-219,MONTALEGRE,-7.760666487481484,41.89041650188491
pt.ine.add.PTCONT.5299106,R PRINCIPAL,25,5470-362,PARADELA MTR,-7.944506503048477,41.76158671311844
pt.ine.add.PTCONT.5299161,R PRINCIPAL,23,5470-362,PARADELA MTR,-7.944458903895164,41.76141556971576
pt.ine.add.PTCONT.5299162,LG DO EIRÓ,6,5470-370,PITÕES DAS JUNIAS,-7.950882291516091,41.84140289339592
pt.ine.add.PTCONT.5299163,R DAS MARINHAS,6,5470-370,PITÕES DAS JUNIAS,-7.942429171071838,41.837688810387434
pt.ine.add.PTCONT.5299164,R DA ARGUELINHA,2,5470-382,PONDRAS,-7.910496356269901,41.703318365782444
pt.ine.add.PTCONT.5299165,TV DO VARANDÃO,4,5470-382,PONDRAS,-7.909610363923285,41.70243430074325
pt.ine.add.PTCONT.5299166,R DO FUNDO DO LUGAR,11,5470-384,PONDRAS,-7.933662332239586,41.69472651761885
pt.ine.add.PTCONT.5299227,R DO BARREIRO,22,5470-392,REIGOSO MTR,-7.919375133398036,41.72137825614829
pt.ine.add.PTCONT.5299228,R DA TRIGUEIRA,17,5470-391,REIGOSO MTR,-7.936211561012372,41.70570621693944
pt.ine.add.PTCONT.5299229,R CENTRAL,9,5470-419,SALTO,-7.993481694390396,41.6630591809522
pt.ine.add.PTCONT.5299230,R DAS CORGAS,25,5470-409,SALTO,-7.98132049472338,41.64701734952432
pt.ine.add.PTCONT.5299285,R DO MACHADO,4,5470-425,SALTO,-7.933486072278739,41.615692602694104
pt.ine.add.PTCONT.5299286,TV DAS CARVALHINHAS,10,5470-430,SALTO,-7.943889477307523,41.648123293947044
pt.ine.add.PTCONT.5299287,R CENTRAL,60,5470-430,SALTO,-7.949394812671688,41.6412534601473
pt.ine.add.PTCONT.5299288,R DAS CASAS DE ALÉM,12,5470-430,SALTO,-7.9428576319313855,41.63979324301328
