id,street,house,postcode,city,lon,lat
pt.ine.add.PTCONT.5286871,R DE STA TERESA,,5090-011,CANDEDO MUR,-7.382273769530122,41.36298300341721
pt.ine.add.PTCONT.5286872,EN 314,,5090-017,CANDEDO MUR,-7.342539171033102,41.345906480024816
pt.ine.add.PTCONT.5286873,R DA VIDOSA,,5090-052,FIOLHOSO,-7.5016664548794445,41.41005243257367
pt.ine.add.PTCONT.5286874,R DA ROSEIRA,1,5090-052,FIOLHOSO,-7.503616016683532,41.406326486017015
pt.ine.add.PTCONT.5286875,R CENTRAL,,5090-052,FIOLHOSO,-7.503641671957986,41.406146547787635
pt.ine.add.PTCONT.5286876,EN 15,,5090-053,FIOLHOSO,-7.490279729914983,41.39678961482058
pt.ine.add.PTCONT.5286877,R DAS LAJES,,5090-051,FIOLHOSO,-7.48352867241572,41.39629249922887
pt.ine.add.PTCONT.5286878,BR HERÓI MILHÕES,4,5090-109,MURÇA,-7.447312708611402,41.40850775772466
pt.ine.add.PTCONT.5286879,R DO ANTIGO MATADOURO,12,5090-127,MURÇA,-7.453541160808911,41.40645580544722
pt.ine.add.PTCONT.5286880,R DO CRUZEIRO,,5090-200,NOURA,-7.428402764856811,41.39649031114904
pt.ine.add.PTCONT.5286881,QTA DO REBENTÃO,,5090-200,NOURA,-7.411977060639292,41.378830861699214
pt.ine.add.PTCONT.5286882,R DAS FLORES,2,5090-210,PALHEIROS,-7.402398214140365,41.41757731954703
pt.ine.add.PTCONT.5286914,R CENTRAL,24,5090-012,CANDEDO MUR,-7.404245416196561,41.3668068851777
pt.ine.add.PTCONT.5286915,R DO MARMELEIRO,,5090-016,CANDEDO MUR,-7.374354655775172,41.34200580998967
pt.ine.add.PTCONT.5286916,R DO VALE DE CABEDA,,5090-031,CARVA,-7.554788489606909,41.413221970100615
pt.ine.add.PTCONT.5286917,R CENTRAL,26,5090-081,JOU,-7.423829973714615,41.46400027036103
pt.ine.add.PTCONT.5286918,SIT DE TOUBRES,2,5090-081,JOU,-7.423840275825124,41.461956466053216
pt.ine.add.PTCONT.5286919,BR DO CASTELO,,5090-073,JOU,-7.397077895622133,41.48511718334749
pt.ine.add.PTCONT.5286920,LG DO TOURAL,,5090-076,JOU,-7.433332833847007,41.48748637537737
pt.ine.add.PTCONT.5286921,BR TOURAL,9,5090-108,MURÇA,-7.452985568276701,41.41156674549366
pt.ine.add.PTCONT.5286922,R MQ DE VALFLOR,23,5090-138,MURÇA,-7.457806789065703,41.401051555131104
pt.ine.add.PTCONT.5286923,BR DA CALÇADA ROMANA,,5090-105,MURÇA,-7.4604690787201795,41.40031982358422
pt.ine.add.PTCONT.5286924,R DA EIRA,183,5090-200,NOURA,-7.433060763741549,41.39142251960904
pt.ine.add.PTCONT.5287424,R DA MIMOSA,16,5090-016,CANDEDO MUR,-7.376279156852033,41.34295489744659
pt.ine.add.PTCONT.5287425,R DO TOURAL,2,5090-076,JOU,-7.434396606908264,41.488780384026214
pt.ine.add.PTCONT.5287476,R CENTRAL,,5090-015,CANDEDO MUR,-7.37532252624859,41.344056093966
pt.ine.add.PTCONT.5287550,SIT ABOLEIRA,1,5090-071,JOU,-7.429415279553107,41.47660389728872
pt.ine.add.PTCONT.5287551,R DE S FRANCISCO,,5090-232,VILARES MUR,-7.514062508581214,41.432143356049956
pt.ine.add.PTCONT.5287560,BR NOVO,,5090-081,JOU,-7.428421962980355,41.46109324645837
pt.ine.add.PTCONT.5287572,R DO SOUTO,,5090-052,FIOLHOSO,-7.504238539357804,41.407500400907814
pt.ine.add.PTCONT.5287586,R DOS SANTINHOS,7,5090-132,MURÇA,-7.454163677897436,41.40869245173916
pt.ine.add.PTCONT.5287587,R DA INDEPENDÊNCIA,87,5090-121,MURÇA,-7.454225628490468,41.408485727257975
pt.ine.add.PTCONT.5287595,R DA ALDEIA,7,5090-052,FIOLHOSO,-7.503162022578731,41.40627898163847
pt.ine.add.PTCONT.5287596,R 25 DE ABRIL,3,5090-114,MURÇA,-7.453610657015271,41.4089683083792
pt.ine.add.PTCONT.5287597,R DA VEIGA,,5090-210,PALHEIROS,-7.3660991355729335,41.40507775490803
pt.ine.add.PTCONT.5287608,R DA MIMOSA,,5090-016,CANDEDO MUR,-7.376766576829829,41.34316519365479
pt.ine.add.PTCONT.5287609,R DO CAMPO DA BOLA,,5090-076,JOU,-7.43261989820224,41.49030922412522
pt.ine.add.PTCONT.5287616,BR NOVO,,5090-052,FIOLHOSO,-7.501942110143844,41.40381422298703
pt.ine.add.PTCONT.5287631,AV DA PORTELA,18,5090-014,CANDEDO MUR,-7.370889062625092,41.3441258605461
pt.ine.add.PTCONT.5287632,R DA CUMIEIRA,828,5090-200,NOURA,-7.417152344554655,41.39416987549055
pt.ine.add.PTCONT.5287645,BR DE S DOMINGOS,,5090-051,FIOLHOSO,-7.486412305750977,41.39730817981396
pt.ine.add.PTCONT.5287646,R DA CUMIEIRA,1092,5090-200,NOURA,-7.417976502152056,41.39206808116961
pt.ine.add.PTCONT.5287654,BR DE S DOMINGOS,,5090-051,FIOLHOSO,-7.485875850236211,41.39714309256206
pt.ine.add.PTCONT.5287687,BR DA COSTEIRINHA,,5090-032,CARVA,-7.54665560921968,41.435789621692436
pt.ine.add.PTCONT.5287688,R DA ESCOLA,,5090-220,VALONGO DE MILHAIS,-7.434539196564191,41.43088662006403
pt.ine.add.PTCONT.5287695,R MQ DE VALFLOR,97,5090-138,MURÇA,-7.454888903658843,41.40335740524792
pt.ine.add.PTCONT.5287705,BR DAS ÁRVORES,,5090-105,MURÇA,-7.46067984283568,41.401914750694495
pt.ine.add.PTCONT.5287718,SIT DE PENABEICE,1,5090-079,JOU,-7.465015251870324,41.48527975983322
pt.ine.add.PTCONT.5287719,R DA CAPELA,,5090-210,PALHEIROS,-7.408551118199742,41.43436344340207
pt.ine.add.PTCONT.5287720,TV DOS BARREIROS,,5090-232,VILARES MUR,-7.519154178757694,41.4339444075419
pt.ine.add.PTCONT.5287721,R DO CAPITÃO,,5090-232,VILARES MUR,-7.516817628438392,41.433049533244215
pt.ine.add.PTCONT.5287730,R CENTRAL,,5090-232,VILARES MUR,-7.514984545925128,41.4320582748004
pt.ine.add.PTCONT.5290663,R CENTRAL,,5090-012,CANDEDO MUR,-7.404260080257186,41.36656387094674
pt.ine.add.PTCONT.5288479,BR DAS ÁRVORES,,5090-105,MURÇA,-7.460751496507013,41.401924173354715
pt.ine.add.PTCONT.5288487,R DA INDEPENDÊNCIA,56,5090-121,MURÇA,-7.454372883959928,41.40812643943592
pt.ine.add.PTCONT.5288546,BR DO PINHEIRINHO,9,5090-106,MURÇA,-7.443919611722281,41.4081813500291
pt.ine.add.PTCONT.5288547,ESTR DE RATIÇO,,5090-143,NOURA,-7.421943613972123,41.408749919437824
pt.ine.add.PTCONT.5288548,R DIREITA,,5090-210,PALHEIROS,-7.401044729896609,41.4166773304244
pt.ine.add.PTCONT.5288549,EN 212,,5090-231,VILARES MUR,-7.505808424268369,41.42084377264554
pt.ine.add.PTCONT.5288566,R DO SOUTO,12,5090-052,FIOLHOSO,-7.504847834804844,41.407566757010386
pt.ine.add.PTCONT.5288577,R CENTRAL,18,5090-210,PALHEIROS,-7.366265278368319,41.40518690912884
pt.ine.add.PTCONT.5288607,R DE NSA SRA DE FÁTIMA,293,5090-200,NOURA,-7.429990127225343,41.38899974579844
pt.ine.add.PTCONT.5288608,R DAS CERDEIRAS,33,5090-220,VALONGO DE MILHAIS,-7.423589642611154,41.455301090230364
pt.ine.add.PTCONT.5288609,R DIREITA,,5090-220,VALONGO DE MILHAIS,-7.424473776110547,41.456540065405
pt.ine.add.PTCONT.5288626,R DO FERREIRO,,5090-013,CANDEDO MUR,-7.371244739287831,41.384321902427374
pt.ine.add.PTCONT.5288627,BR DO BANHO,5,5090-072,JOU,-7.437704728058936,41.48624335690829
pt.ine.add.PTCONT.5288661,R DO CHÃO DO OUTEIRO,,5090-051,FIOLHOSO,-7.481900570459419,41.39528385894355
pt.ine.add.PTCONT.5288674,R CENTRAL,3,5090-032,CARVA,-7.553532713687152,41.4374271659183
pt.ine.add.PTCONT.5288675,R DO PINOCO,97,5090-200,NOURA,-7.419415527285502,41.38621545342374
pt.ine.add.PTCONT.5288693,R DAS FONTELAS,,5090-051,FIOLHOSO,-7.486028995507304,41.39375847163448
pt.ine.add.PTCONT.5288694,BR DO PEREIRO,,5090-051,FIOLHOSO,-7.489569695788367,41.39240072493453
pt.ine.add.PTCONT.5288695,R S SEBASTIAO,,5090-125,MURÇA,-7.45835005381315,41.40517853950479
pt.ine.add.PTCONT.5288712,BR HERÓI MILHÕES,,5090-109,MURÇA,-7.44740544525184,41.408787431742816
pt.ine.add.PTCONT.5288713,R DO OLMO,1,5090-220,VALONGO DE MILHAIS,-7.4339505947969355,41.43110814136315
pt.ine.add.PTCONT.5288727,R DO LOMBO DA EIRA,,5090-210,PALHEIROS,-7.405385494479676,41.43606319981118
pt.ine.add.PTCONT.5288756,R DE S BRÁS,,5090-017,CANDEDO MUR,-7.343726102428658,41.34359159939824
pt.ine.add.PTCONT.5288757,R DA PALHEIRA,,5090-031,CARVA,-7.557160155880457,41.41282868984027
pt.ine.add.PTCONT.5289472,R DAS FONTELAS,7,5090-051,FIOLHOSO,-7.48676751692085,41.39283521603282
pt.ine.add.PTCONT.5289499,R HERÓI MILHÕES,34,5090-220,VALONGO DE MILHAIS,-7.442579238668864,41.44439594007579
pt.ine.add.PTCONT.5289561,EN 314,2,5090-076,JOU,-7.4339613649512994,41.474686797688456
pt.ine.add.PTCONT.5289710,BR NOVAINHO,,5090-078,JOU,-7.436851513840778,41.479818489238745
pt.ine.add.PTCONT.5289585,R DOS MELÕES,5,5090-012,CANDEDO MUR,-7.401839859285352,41.36816022655938
pt.ine.add.PTCONT.5289586,R DA VIDOSA,,5090-052,FIOLHOSO,-7.502227585536073,41.41015455390634
pt.ine.add.PTCONT.5289587,R CENTRAL,2,5090-081,JOU,-7.426401780249915,41.45974828639296
pt.ine.add.PTCONT.5289588,BR DO TOURAL,9,5090-108,MURÇA,-7.45289054975435,41.411503156404805
pt.ine.add.PTCONT.5289589,ESTR DE RATIÇO,5,5090-143,NOURA,-7.42450252635884,41.408792719455576
pt.ine.add.PTCONT.5289590,R DIREITA,64,5090-210,PALHEIROS,-7.400287366914008,41.41595219774496
pt.ine.add.PTCONT.5289606,R DA ALEGRIA,34,5090-012,CANDEDO MUR,-7.404654768745078,41.36653935816955
pt.ine.add.PTCONT.5289626,SIT MASCANHO,102,5090-077,JOU,-7.46802705587409,41.45888901242798
pt.ine.add.PTCONT.5289627,R CENTRAL,19,5090-210,PALHEIROS,-7.3662761779019075,41.40527702074811
pt.ine.add.PTCONT.5289652,R DO RIBEIRO,11,5090-052,FIOLHOSO,-7.503081052033312,41.40475687405393
pt.ine.add.PTCONT.5289689,AV DE STA MARIA MADALENA,,5090-011,CANDEDO MUR,-7.3793700258007835,41.361910556913216
pt.ine.add.PTCONT.5289690,AV DOS BOMBEIROS VOLUNTÁRIOS,1,5090-118,MURÇA,-7.449892406760024,41.4054257580598
pt.ine.add.PTCONT.5289691,AV DOS BOMBEIROS VOLUNTÁRIOS,1,5090-118,MURÇA,-7.449892406760024,41.4054257580598
pt.ine.add.PTCONT.5289692,AV DOS BOMBEIROS VOLUNTÁRIOS,1,5090-118,MURÇA,-7.449892406760024,41.4054257580598
pt.ine.add.PTCONT.5289693,AV DOS BOMBEIROS VOLUNTÁRIOS,1,5090-118,MURÇA,-7.449892406760024,41.4054257580598
pt.ine.add.PTCONT.5289694,AV DOS BOMBEIROS VOLUNTÁRIOS,1,5090-118,MURÇA,-7.449892406760024,41.4054257580598
pt.ine.add.PTCONT.5289711,AV DOS BOMBEIROS VOLUNTÁRIOS,1,5090-118,MURÇA,-7.449892406760024,41.4054257580598
pt.ine.add.PTCONT.5289712,AV DOS BOMBEIROS VOLUNTÁRIOS,1,5090-118,MURÇA,-7.449892406760024,41.4054257580598
pt.ine.add.PTCONT.5289730,R DE S LOURENÇO,,5090-051,FIOLHOSO,-7.4829610279385435,41.3956590173796
pt.ine.add.PTCONT.5289731,R CORTINHA CADAVAL,1,5090-051,FIOLHOSO,-7.4841231520083715,41.395431475437206
pt.ine.add.PTCONT.5289741,R FONTES E MELO,19,5090-011,CANDEDO MUR,-7.382468597495721,41.36266913557031
pt.ine.add.PTCONT.5289742,LG DA CAPELA,,5090-051,FIOLHOSO,-7.482801531984186,41.39486576918389
pt.ine.add.PTCONT.5289743,TV DO PINOCO,17,5090-200,NOURA,-7.420030977727384,41.38678651730226
pt.ine.add.PTCONT.5289744,R DO CASTELO,34,5090-200,NOURA,-7.420016465110854,41.38702052979838
pt.ine.add.PTCONT.5289760,BR DO PEREIRO,,5090-051,FIOLHOSO,-7.4905243196652025,41.39259514293023
pt.ine.add.PTCONT.5289761,BR DO PEREIRO,,5090-051,FIOLHOSO,-7.491776171629752,41.392962285044284
pt.ine.add.PTCONT.5289762,R MQ DE VALFLOR,75,5090-138,MURÇA,-7.454962055759823,41.40322277757939
pt.ine.add.PTCONT.5289771,BR DA SERRA,,5090-017,CANDEDO MUR,-7.346261466166461,41.345373742766434
pt.ine.add.PTCONT.5289772,,,5090-082,JOU,-7.421731722105571,41.515768057320145
pt.ine.add.PTCONT.5289788,BR DAS MACIEIRINHAS,,5090-123,MURÇA,-7.451488109691419,41.41523147765154
pt.ine.add.PTCONT.5289789,R DO CAPITÃO,78,5090-232,VILARES MUR,-7.516794978692186,41.432914353547105
pt.ine.add.PTCONT.5289803,BR DA BARROCA,33,5090-103,MURÇA,-7.4572327787336015,41.411438707114286
pt.ine.add.PTCONT.5290499,R DO TERREIRO,,5090-081,JOU,-7.425554818143171,41.46499230948527
pt.ine.add.PTCONT.5290560,R DA MÁQUINA,3,5090-011,CANDEDO MUR,-7.386993260579822,41.363094735066575
pt.ine.add.PTCONT.5290581,BR DO CASTELO,,5090-073,JOU,-7.3972357839883305,41.48492011039482
pt.ine.add.PTCONT.5290609,AV DOS BOMBEIROS VOLUNTÁRIOS,1,5090-118,MURÇA,-7.449892406760024,41.4054257580598
pt.ine.add.PTCONT.5290637,AV DA TAPADA DO CAVALO,1,5090-012,CANDEDO MUR,-7.401363921319392,41.36796811789344
pt.ine.add.PTCONT.5290638,R DO SOUTO,,5090-052,FIOLHOSO,-7.505399676630297,41.40863223233993
pt.ine.add.PTCONT.5290645,R DE S JOSÉ,2,5090-012,CANDEDO MUR,-7.402220669995208,41.36617276943975
pt.ine.add.PTCONT.5290646,R DO SOUTO,,5090-052,FIOLHOSO,-7.504334731182599,41.40744690305671
pt.ine.add.PTCONT.5290647,BR TOURAL,21,5090-108,MURÇA,-7.4525177383458745,41.41169903770408
pt.ine.add.PTCONT.5290688,R DA TORRE DO LOBO,2,5090-200,NOURA,-7.431815225256832,41.38938904918141
pt.ine.add.PTCONT.5290700,R DO FORNO,13,5090-016,CANDEDO MUR,-7.374547438593204,41.34392493190732
pt.ine.add.PTCONT.5290701,LG DO TOURAL,7,5090-076,JOU,-7.433149841201429,41.48780039444049
pt.ine.add.PTCONT.5290702,R MELITÃO BESSA RIBEIRO,2,5090-139,MURÇA,-7.451489848848061,41.40705593776384
pt.ine.add.PTCONT.5290703,R DA CUMIEIRA,15,5090-200,NOURA,-7.416324619556871,41.39223788133554
pt.ine.add.PTCONT.5290719,BR DE S JOÃO,2,5090-011,CANDEDO MUR,-7.379383433334757,41.362820045410125
pt.ine.add.PTCONT.5290720,AV DA PORTELA,,5090-014,CANDEDO MUR,-7.370568071025057,41.34398867428089
pt.ine.add.PTCONT.5290721,EN 15,,5090-053,FIOLHOSO,-7.487028370217995,41.39909442044986
pt.ine.add.PTCONT.5290722,R DA LARANJEIRA,21,5090-122,MURÇA,-7.456440364950892,41.40596867313606
pt.ine.add.PTCONT.5290723,TV DA R DIREITA,9,5090-220,VALONGO DE MILHAIS,-7.444046232434041,41.444854929293115
pt.ine.add.PTCONT.5290731,BR DO BARREIRO,,5090-051,FIOLHOSO,-7.4823781414886765,41.397753640282026
pt.ine.add.PTCONT.5290732,R DA EIRA,6,5090-119,MURÇA,-7.455316717632689,41.407069541254295
pt.ine.add.PTCONT.5290746,R DIREITA,,5090-051,FIOLHOSO,-7.483111082479401,41.39620010159173
pt.ine.add.PTCONT.5290754,R FR DIOGO,,5090-135,MURÇA,-7.4540306590671594,41.405387229233796
pt.ine.add.PTCONT.5290755,R DA ESCOLA,,5090-220,VALONGO DE MILHAIS,-7.4864313191194976,41.441211329422245
pt.ine.add.PTCONT.5290756,R COMEND CARDOSO COSTA,,5090-220,VALONGO DE MILHAIS,-7.4862499078227245,41.438995356745345
pt.ine.add.PTCONT.5290771,R CENTRAL,,5090-220,VALONGO DE MILHAIS,-7.434243383135466,41.432811652441686
pt.ine.add.PTCONT.5290772,R CENTRAL,,5090-220,VALONGO DE MILHAIS,-7.433916235025011,41.432080350940986
pt.ine.add.PTCONT.5290779,R DO SOL,,5090-051,FIOLHOSO,-7.483675791018324,41.39472664384494
pt.ine.add.PTCONT.5290780,TV DO CASTELO,6,5090-200,NOURA,-7.420635565140994,41.387258467258526
pt.ine.add.PTCONT.5290781,R DA PEDRICE,45,5090-232,VILARES MUR,-7.516327013845218,41.43558600058942
pt.ine.add.PTCONT.5290798,BR DO SEIXO,27,5090-107,MURÇA,-7.450859724431773,41.40098356046059
pt.ine.add.PTCONT.5290806,R CENTRAL,,5090-031,CARVA,-7.55776908146506,41.412948787495274
pt.ine.add.PTCONT.5290807,,,5090-079,JOU,-7.468357478512794,41.483957558522526
pt.ine.add.PTCONT.5290818,LG FERREIRA TORRES,,5090-031,CARVA,-7.556739806154909,41.41302467134257
pt.ine.add.PTCONT.5290819,BR DO PINHEIRINHO,,5090-106,MURÇA,-7.443569627315086,41.40961087501385
pt.ine.add.PTCONT.5291630,R CAPELA,723,5090-200,NOURA,-7.412086928308179,41.37862445931489
pt.ine.add.PTCONT.5291670,BR DO SEIXO,,5090-107,MURÇA,-7.450947570077423,41.400587908572405
pt.ine.add.PTCONT.5291695,AV DA TAPADA DO CAVALO,,5090-012,CANDEDO MUR,-7.401707332334407,41.367186956118374
pt.ine.add.PTCONT.5291696,,,5090-071,JOU,-7.425596312190426,41.47658947378016
pt.ine.add.PTCONT.5291697,BR DA BARROCA,12,5090-103,MURÇA,-7.457275484288246,41.411934173048195
pt.ine.add.PTCONT.5291698,BR DAS ÁRVORES,,5090-105,MURÇA,-7.4590936928217495,41.400338786696274
pt.ine.add.PTCONT.5291721,BR DO PINHEIRINHO,10,5090-106,MURÇA,-7.445347742900524,41.40884718129683
pt.ine.add.PTCONT.5291722,AV DE STA LUZIA,,5090-210,PALHEIROS,-7.367616789077629,41.407212781697176
pt.ine.add.PTCONT.5291748,,,5090-077,JOU,-7.46995847940561,41.45962947415469
pt.ine.add.PTCONT.5291749,BR DA CORTINHA NOVA,55,5090-101,MURÇA,-7.4520201406336835,41.41124589768147
pt.ine.add.PTCONT.5291750,BR DA CORTINHA NOVA,69,5090-101,MURÇA,-7.452823771134449,41.41102555435077
pt.ine.add.PTCONT.5291779,R DA VEIGA,18,5090-013,CANDEDO MUR,-7.371689864416492,41.38510819072401
pt.ine.add.PTCONT.5291780,LG DO TOURAL,12,5090-076,JOU,-7.4337213717960315,41.4881009961335
pt.ine.add.PTCONT.5291781,R FRANCISCO BARROS CARNEIRO LOPES,5,5090-134,MURÇA,-7.44936693571938,41.407637600069485
pt.ine.add.PTCONT.5291803,R DA FONTE,,5090-220,VALONGO DE MILHAIS,-7.44337234587521,41.44521104506404
pt.ine.add.PTCONT.5291808,R DO SOL,9,5090-011,CANDEDO MUR,-7.37906275018171,41.361611412968344
pt.ine.add.PTCONT.5291809,AV DA PORTELA,,5090-014,CANDEDO MUR,-7.369397740816309,41.34291844274255
pt.ine.add.PTCONT.5291810,BR DO BANHO,19,5090-072,JOU,-7.437673419050069,41.48245257062545
pt.ine.add.PTCONT.5291811,R DA CUMIEIRA,17,5090-200,NOURA,-7.419969139884836,41.389163173719545
pt.ine.add.PTCONT.5291822,R DA CAPELA VELHA,16,5090-015,CANDEDO MUR,-7.3751226651261765,41.343775653987585
pt.ine.add.PTCONT.5291832,R CENTRAL,,5090-032,CARVA,-7.554246297626291,41.43656638499374
pt.ine.add.PTCONT.5291833,R ALFREDO PINTO,40,5090-115,MURÇA,-7.455510037393076,41.405673692294016
pt.ine.add.PTCONT.5291834,R MANUEL MORAIS DA FONSECA,24,5090-137,MURÇA,-7.455016252266906,41.4059328449991
pt.ine.add.PTCONT.5291849,R DO CALVÁRIO,,5090-051,FIOLHOSO,-7.48398307658204,41.395088535494054
pt.ine.add.PTCONT.5291850,BR DO PINHEIRINHO,30,5090-106,MURÇA,-7.4434697649000094,41.41000644852858
pt.ine.add.PTCONT.5291851,R DA LARANJEIRA,10,5090-122,MURÇA,-7.456564742469525,41.405800184889735
pt.ine.add.PTCONT.5291867,QTA DAS VOLTAS,,5090-052,FIOLHOSO,-7.471739123950908,41.40803849241604
pt.ine.add.PTCONT.5291868,R DOS CARREIRÕES,,5090-200,NOURA,-7.41156534769438,41.386877806623545
pt.ine.add.PTCONT.5291880,R DAS OLIVEIRAS,2,5090-017,CANDEDO MUR,-7.342831455441852,41.34544928434612
pt.ine.add.PTCONT.5291881,BR SEIXO,53,5090-107,MURÇA,-7.450565024990961,41.40057663600469
pt.ine.add.PTCONT.5291882,R MQ DE VALFLOR,25,5090-138,MURÇA,-7.457771382389327,41.40100632768438
pt.ine.add.PTCONT.5291883,,,5090-105,MURÇA,-7.463310980278792,41.40421709441709
pt.ine.add.PTCONT.5291898,R DE TRÁS DAS CASAS,18,5090-017,CANDEDO MUR,-7.343414834066901,41.34364348789904
pt.ine.add.PTCONT.5291899,LG FERREIRA TORRES,,5090-031,CARVA,-7.556750413201543,41.41317779128656
pt.ine.add.PTCONT.5291900,,,5090-079,JOU,-7.468449304889296,41.48434525262406
pt.ine.add.PTCONT.5291901,BR DE S JOSÉ,,5090-110,MURÇA,-7.459247139867403,41.41210780806769
pt.ine.add.PTCONT.5291902,R DA PORTELA,,5090-232,VILARES MUR,-7.517927692282283,41.43332559115511
pt.ine.add.PTCONT.5291911,BR S PEDRO,,5090-210,PALHEIROS,-7.4138130120291335,41.420494479444386
pt.ine.add.PTCONT.5291912,R CENTRAL,28,5090-232,VILARES MUR,-7.513504057996265,41.43299571936174
pt.ine.add.PTCONT.5292589,R DO CORREIO,16,5090-129,MURÇA,-7.454104766873133,41.40745856769903
pt.ine.add.PTCONT.5292617,R DA ESCOLA,,5090-016,CANDEDO MUR,-7.374119963696703,41.34369701368763
pt.ine.add.PTCONT.5292711,R DA EIRA NOVA,,5090-013,CANDEDO MUR,-7.372145392586783,41.3850031569813
pt.ine.add.PTCONT.5292712,LG DA CAPELA,13,5090-013,CANDEDO MUR,-7.371540633136796,41.385602419261005
pt.ine.add.PTCONT.5292713,R 25 DE ABRIL,,5090-011,CANDEDO MUR,-7.383889554182516,41.36277743917669
pt.ine.add.PTCONT.5292714,R FRANCISCO TEIXEIRA MAGALHÃES,11,5090-011,CANDEDO MUR,-7.384452357195752,41.36268205830309
pt.ine.add.PTCONT.5292715,LG DA IGREJA,2,5090-011,CANDEDO MUR,-7.384107964721988,41.36249073396404
pt.ine.add.PTCONT.5292716,BR DA SERRA,,5090-017,CANDEDO MUR,-7.346374408742845,41.344924315669616
pt.ine.add.PTCONT.5292892,R ALEGRIA,,5090-051,FIOLHOSO,-7.483028705630667,41.394867052881075
pt.ine.add.PTCONT.5292771,AV DA PORTELA,,5090-014,CANDEDO MUR,-7.37175636460383,41.34454578507846
pt.ine.add.PTCONT.5292772,R CENTRAL,,5090-032,CARVA,-7.554224253143035,41.4377007644713
pt.ine.add.PTCONT.5292773,R DA CAPELA,,5090-032,CARVA,-7.552120503673319,41.43612348223425
pt.ine.add.PTCONT.5292829,R CENTRAL,,5090-032,CARVA,-7.54953655310837,41.436074388372276
pt.ine.add.PTCONT.5292830,BR S BARBARA,98,5090-031,CARVA,-7.555709491338332,41.41186700225751
pt.ine.add.PTCONT.5292831,R DO VALE DE CABEDA,,5090-031,CARVA,-7.554708582795325,41.41413996914468
pt.ine.add.PTCONT.5292832,BR DE STA BÁRBARA,,5090-031,CARVA,-7.5554037960843266,41.41262179795139
pt.ine.add.PTCONT.5292833,R DE S JOÃO,,5090-031,CARVA,-7.559656694634114,41.41047312565724
pt.ine.add.PTCONT.5292834,R DO SOUTO,,5090-052,FIOLHOSO,-7.504774606806639,41.40771942390035
pt.ine.add.PTCONT.5292835,EN 212,12,5090-052,FIOLHOSO,-7.502959421523489,41.406205840780686
pt.ine.add.PTCONT.5292836,BR NOVO,,5090-052,FIOLHOSO,-7.502913159591229,41.403567435516564
pt.ine.add.PTCONT.5292951,BR DA CRUZ,,5090-102,MURÇA,-7.442666915427717,41.39433480974615
pt.ine.add.PTCONT.5292952,BR DAS MACIEIRINHAS,,5090-123,MURÇA,-7.451504863644948,41.41362888184988
pt.ine.add.PTCONT.5292999,BR DO SEIXO,,5090-107,MURÇA,-7.453802502128784,41.40088392098873
pt.ine.add.PTCONT.5293000,R DA LAMEIRA,,5090-200,NOURA,-7.418611711747844,41.39083848856648
pt.ine.add.PTCONT.5293001,R CASTELO,,5090-200,NOURA,-7.4198485043587015,41.389261469292364
pt.ine.add.PTCONT.5293002,R 25 DE ABRIL,,5090-210,PALHEIROS,-7.415073681200836,41.42007016771243
pt.ine.add.PTCONT.5293050,R DA ESTRADA VELHA,,5090-210,PALHEIROS,-7.400208943026832,41.41760841369364
pt.ine.add.PTCONT.5293051,R CENTRAL,,5090-210,PALHEIROS,-7.366087806100063,41.40604109635642
pt.ine.add.PTCONT.5293052,EN 212,,5090-232,VILARES MUR,-7.518399455793191,41.43277887549646
pt.ine.add.PTCONT.5293547,BR JOAQUIM FERREIRA TORRES,9,5090-110,MURÇA,-7.451464759629504,41.41632081154372
pt.ine.add.PTCONT.5293597,R DE STA MARIA MADALENA,,5090-011,CANDEDO MUR,-7.378192678285763,41.3614076212748
pt.ine.add.PTCONT.5293634,R DE S JOÃO,,5090-031,CARVA,-7.5589046707292775,41.410307304239176
pt.ine.add.PTCONT.5293635,R DA VIDOSA,,5090-052,FIOLHOSO,-7.504235564997156,41.40904905999053
pt.ine.add.PTCONT.5293636,SIT ABOLEIRA,36,5090-071,JOU,-7.425137364766122,41.47585734181621
pt.ine.add.PTCONT.5293637,R CENTRAL,5,5090-231,VILARES MUR,-7.503453000750204,41.420731862942574
pt.ine.add.PTCONT.5293650,BR JOAQUIM FERREIRA TORRES,1,5090-110,MURÇA,-7.451339409566148,41.41572581126985
pt.ine.add.PTCONT.5293665,R DA ROSEIRA,15,5090-052,FIOLHOSO,-7.503496480830074,41.4075593701419
pt.ine.add.PTCONT.5293666,BR DO PINHEIRINHO,,5090-106,MURÇA,-7.444981289755674,41.40843981414826
pt.ine.add.PTCONT.5293667,BR DO TOURAL,23,5090-108,MURÇA,-7.452433363813749,41.41176156593178
pt.ine.add.PTCONT.5293668,BR DA CORTINHA NOVA,38,5090-101,MURÇA,-7.451612861177692,41.41130651336644
pt.ine.add.PTCONT.5293679,R INDEPENDENCIA,77,5090-121,MURÇA,-7.454514048239816,41.40835236997588
pt.ine.add.PTCONT.5293680,R INDEPENDENCIA,2,5090-121,MURÇA,-7.454514048239816,41.40835236997588
pt.ine.add.PTCONT.5293681,R CENTRAL,,5090-210,PALHEIROS,-7.365864518177049,41.405706463424885
pt.ine.add.PTCONT.5293693,R DO CALVÁRIO,2,5090-014,CANDEDO MUR,-7.376687462941989,41.34483941672377
pt.ine.add.PTCONT.5293694,R CENTRAL,,5090-200,NOURA,-7.431788314946569,41.3896680072634
pt.ine.add.PTCONT.5293695,R DA EIRA,96,5090-200,NOURA,-7.432112234700709,41.39067842210871
pt.ine.add.PTCONT.5293710,R CIMO EIRAS,7,5090-076,JOU,-7.431650857236962,41.489114818815416
pt.ine.add.PTCONT.5293720,BR NOVO,,5090-052,FIOLHOSO,-7.501357902882959,41.40363093813894
pt.ine.add.PTCONT.5293721,BR DO BANHO,,5090-072,JOU,-7.438069504194535,41.485723341906464
pt.ine.add.PTCONT.5293735,BR DA RASA,,5090-011,CANDEDO MUR,-7.389249342349028,41.36543236385514
pt.ine.add.PTCONT.5293736,R DA CUMIEIRA,5,5090-200,NOURA,-7.417202444286907,41.39505257207224
pt.ine.add.PTCONT.5293746,R DE STA MARIA MADALENA,,5090-011,CANDEDO MUR,-7.3786342085642325,41.36146454068022
pt.ine.add.PTCONT.5293747,AV DA PORTELA,,5090-014,CANDEDO MUR,-7.370339924037858,41.34408620632823
pt.ine.add.PTCONT.5293748,R DA CUMIEIRA,,5090-200,NOURA,-7.417353619451319,41.39326173092634
pt.ine.add.PTCONT.5293764,BR FREIRIA,22,5090-074,JOU,-7.4311861642046075,41.481134625395356
pt.ine.add.PTCONT.5293765,R DA INDEPENDÊNCIA,,5090-121,MURÇA,-7.454594607133131,41.407506477010244
pt.ine.add.PTCONT.5293766,R DE STO AMARO,7,5090-200,NOURA,-7.420431405865239,41.38843671888209
pt.ine.add.PTCONT.5293779,R DO CASTELO,39,5090-200,NOURA,-7.420159235588882,41.38708444206643
pt.ine.add.PTCONT.5293784,R DIREITA,6,5090-032,CARVA,-7.551912131956972,41.436680671092155
pt.ine.add.PTCONT.5293785,BR HERÓI MILHÕES,10,5090-109,MURÇA,-7.443179782172395,41.40802384954968
pt.ine.add.PTCONT.5293798,EN 15,,5090-053,FIOLHOSO,-7.494700023291753,41.39108771508503
pt.ine.add.PTCONT.5293799,EN 2 A,2A,5090-082,JOU,-7.424291695353944,41.51719745123614
pt.ine.add.PTCONT.5293809,BR DE STA BÁRBARA,,5090-031,CARVA,-7.555596111817874,41.412514716257014
pt.ine.add.PTCONT.5293810,SIT DE VALE DE ÉGUA,8,5090-082,JOU,-7.421454045126346,41.51596442165909
pt.ine.add.PTCONT.5293811,BR DA CRUZ,,5090-102,MURÇA,-7.444854055954722,41.39556344399046
pt.ine.add.PTCONT.5293830,R D MARIA AUGUSTA PINTO,,5090-017,CANDEDO MUR,-7.344006955098,41.34407974067568
pt.ine.add.PTCONT.5293831,R DOS EIRÓS,,5090-232,VILARES MUR,-7.512583291747784,41.43294573721615
pt.ine.add.PTCONT.5293847,R DO JARDIM,,5090-017,CANDEDO MUR,-7.347572159327599,41.342690504529465
pt.ine.add.PTCONT.5293848,R DA EIRA DO MEIO,,5090-232,VILARES MUR,-7.514987968347229,41.43295868230033
pt.ine.add.PTCONT.5294604,R DO JARDIM,,5090-017,CANDEDO MUR,-7.345617393641076,41.34428885921897
pt.ine.add.PTCONT.5294649,URB SOL NASCENTE,8,5090-137,MURÇA,-7.448362492876978,41.405344631879835
pt.ine.add.PTCONT.5294650,R FR DIOGO,41,5090-135,MURÇA,-7.4547133447393135,41.404139711498985
pt.ine.add.PTCONT.5315646,,,5090-081,JOU,-7.428214255145959,41.45927320048934
pt.ine.add.PTCONT.5295132,R DO CIMO DO POVO,1,5090-013,CANDEDO MUR,-7.373018800273097,41.38597235020527
pt.ine.add.PTCONT.5295133,R 25 DE ABRIL,,5090-011,CANDEDO MUR,-7.383707716086971,41.36300135435632
pt.ine.add.PTCONT.5295134,R FONTES E MELO,,5090-011,CANDEDO MUR,-7.382788981820968,41.36286931223703
pt.ine.add.PTCONT.5295135,R DE STA MARIA MADALENA,,5090-011,CANDEDO MUR,-7.378311035034576,41.36150744128598
pt.ine.add.PTCONT.5295136,AV DA TAPADA DO CAVALO,13,5090-012,CANDEDO MUR,-7.40020641246433,41.36993261946089
pt.ine.add.PTCONT.5295137,R DA ALEGRIA,,5090-012,CANDEDO MUR,-7.404155735821846,41.36627508306727
pt.ine.add.PTCONT.5295138,LG DO SENHOR DO BOM CAMINHO,1,5090-012,CANDEDO MUR,-7.401519239141962,41.36690663754309
pt.ine.add.PTCONT.5295139,EN 212,,5090-032,CARVA,-7.55258656775525,41.438872021777286
pt.ine.add.PTCONT.5295140,R DA CAPELA,,5090-032,CARVA,-7.552565185970722,41.43590062973876
pt.ine.add.PTCONT.5295141,R DA CAPELA,,5090-032,CARVA,-7.551578506923056,41.435184338847904
pt.ine.add.PTCONT.5295142,R DA VIDOSA,,5090-052,FIOLHOSO,-7.504797732184063,41.409043127360285
pt.ine.add.PTCONT.5295143,R CENTRAL,,5090-052,FIOLHOSO,-7.504230725453236,41.408310711626015
pt.ine.add.PTCONT.5295144,R DE S LOURENÇO,,5090-051,FIOLHOSO,-7.483330787518213,41.39575114546913
pt.ine.add.PTCONT.5295145,EN 15,,5090-053,FIOLHOSO,-7.494644271479143,41.39189776127564
pt.ine.add.PTCONT.5295146,R DA ROSEIRA,,5090-051,FIOLHOSO,-7.483772428539711,41.39462814586573
pt.ine.add.PTCONT.5295147,,,5090-081,JOU,-7.423166384851598,41.463383916812944
pt.ine.add.PTCONT.5295148,EN 314,6,5090-076,JOU,-7.43254780883083,41.476992174958774
pt.ine.add.PTCONT.5295149,VALE PORCO,6,5090-144,MURÇA,-7.441587017352751,41.410481359079704
pt.ine.add.PTCONT.5295150,BR DO PINHEIRINHO,,5090-106,MURÇA,-7.443949179058814,41.40991027811279
pt.ine.add.PTCONT.5295151,BR DO PINHEIRINHO,5,5090-106,MURÇA,-7.444908301166132,41.40855642845739
pt.ine.add.PTCONT.5295152,BR DA BARROCA,32,5090-103,MURÇA,-7.456923606088135,41.41126581619772
pt.ine.add.PTCONT.5295153,R DA FONTE,,5090-210,PALHEIROS,-7.405255661787657,41.41769447500237
pt.ine.add.PTCONT.5295154,R DIREITA,,5090-220,VALONGO DE MILHAIS,-7.4250426220292685,41.45595831906941
pt.ine.add.PTCONT.5295155,R DIREITA,41,5090-220,VALONGO DE MILHAIS,-7.422714545163381,41.455430746854205
pt.ine.add.PTCONT.5295156,R DAS HORTAS,14,5090-220,VALONGO DE MILHAIS,-7.421020481912402,41.45493406551273
pt.ine.add.PTCONT.5295157,R DE STO ANTÓNIO,,5090-220,VALONGO DE MILHAIS,-7.4226749277422375,41.45467418004565
pt.ine.add.PTCONT.5295159,R VALE MEDA SN,SN,5090-220,VALONGO DE MILHAIS,-7.484555769892178,41.44090364339111
pt.ine.add.PTCONT.5295443,BR DA BARROCA,30,5090-151,MURÇA,-7.4577798379023195,41.41173904849484
pt.ine.add.PTCONT.5295444,R COMEND AMERICO BREIA,2 4,5090-118,MURÇA,-7.452512927184537,41.40299222244815
pt.ine.add.PTCONT.5295569,R FRANCISCO TEIXEIRA MAGALHÃES,,5090-011,CANDEDO MUR,-7.384369323879465,41.362627494279906
pt.ine.add.PTCONT.5295602,R DA ESPERANÇA,754,5090-200,NOURA,-7.430464555000726,41.39268525376908
pt.ine.add.PTCONT.5295672,R DA FONTE,66,5090-220,VALONGO DE MILHAIS,-7.444601762165343,41.44550653308983
pt.ine.add.PTCONT.5295684,BR DO PINHEIRINHO,5,5090-106,MURÇA,-7.443654768965409,41.40947632658615
pt.ine.add.PTCONT.5295692,R DA VIDOSA,,5090-052,FIOLHOSO,-7.503210166143629,41.40996185111625
pt.ine.add.PTCONT.5295693,R DA VIDOSA,24 A,5090-052,FIOLHOSO,-7.502489994814663,41.41022802384316
pt.ine.add.PTCONT.5295717,BR DA CORTINHA NOVA,23,5090-101,MURÇA,-7.451533379899405,41.41090086660524
pt.ine.add.PTCONT.5295725,LG DA MOREIRINHA,36,5090-113,MURÇA,-7.4534369957441005,41.408418043877006
pt.ine.add.PTCONT.5295752,R 1 DE MAIO,,5090-014,CANDEDO MUR,-7.375780423946672,41.34475241559062
pt.ine.add.PTCONT.5295753,R DO CALVÁRIO,10,5090-014,CANDEDO MUR,-7.374875098613192,41.34554780987209
pt.ine.add.PTCONT.5295754,R DE STA ISABEL,3,5090-072,JOU,-7.438316464402444,41.48726448209724
pt.ine.add.PTCONT.5295755,BR DO BANHO,11,5090-072,JOU,-7.438040416657462,41.48508389691615
pt.ine.add.PTCONT.5295791,R DO SOL,,5090-011,CANDEDO MUR,-7.37908415618263,41.361827648461535
pt.ine.add.PTCONT.5295792,AV PRINCIPAL,,5090-011,CANDEDO MUR,-7.378505565412594,41.36122059005251
pt.ine.add.PTCONT.5295793,AV DA PORTELA,,5090-014,CANDEDO MUR,-7.367777522630781,41.339459148984325
pt.ine.add.PTCONT.5295805,R DIREITA,1,5090-053,FIOLHOSO,-7.484582443311361,41.39734290040974
pt.ine.add.PTCONT.5295815,R COMEND CARDOSO COSTA,14,5090-220,VALONGO DE MILHAIS,-7.4863212485319774,41.43904077723195
pt.ine.add.PTCONT.5295832,R DA RICHA,,5090-017,CANDEDO MUR,-7.345119979767081,41.34590617173282
pt.ine.add.PTCONT.5295845,BR DO SEIXO,,5090-107,MURÇA,-7.451131927172386,41.40239879030358
pt.ine.add.PTCONT.5295846,BR NOVO DA REDE,,5090-210,PALHEIROS,-7.401038667236761,41.4363867713954
pt.ine.add.PTCONT.5295856,R CENTRAL,,5090-031,CARVA,-7.557625084797237,41.41300209092765
pt.ine.add.PTCONT.5295872,R DO SUIDRO,,5090-144,MURÇA,-7.4360721113683335,41.40836817746191
pt.ine.add.PTCONT.5296660,R MELITÃO BESSA RIBEIRO,2,5090-139,MURÇA,-7.451857369825045,41.407364247583395
pt.ine.add.PTCONT.5296661,R MELITÃO BESSA RIBEIRO,2,5090-139,MURÇA,-7.451857369825045,41.407364247583395
pt.ine.add.PTCONT.5296662,R MELITÃO BESSA RIBEIRO,2,5090-139,MURÇA,-7.451857369825045,41.407364247583395
pt.ine.add.PTCONT.5296663,R MELITÃO BESSA RIBEIRO,2,5090-139,MURÇA,-7.451857369825045,41.407364247583395
pt.ine.add.PTCONT.5296704,R DE S JOÃO,,5090-031,CARVA,-7.5588291077014595,41.41073911595828
pt.ine.add.PTCONT.5296705,BR DO SEIXO,9,5090-107,MURÇA,-7.4511138452157395,41.400696941365084
pt.ine.add.PTCONT.5296706,R CENTRAL,2,5090-232,VILARES MUR,-7.516312366852044,41.43081386018824
pt.ine.add.PTCONT.5296707,R CENTRAL,,5090-231,VILARES MUR,-7.502012395735183,41.420030668885694
pt.ine.add.PTCONT.5296721,R DE STA BÁRBARA,,5090-012,CANDEDO MUR,-7.402140962429766,41.36795504840165
pt.ine.add.PTCONT.5296722,,,5090-071,JOU,-7.425581109603694,41.47688650573918
pt.ine.add.PTCONT.5296723,BR DA BARROCA,24,5090-151,MURÇA,-7.457588671812789,41.4117199184423
pt.ine.add.PTCONT.5296750,R DE S JOSÉ,,5090-012,CANDEDO MUR,-7.401764761735191,41.365260472166256
pt.ine.add.PTCONT.5296751,R CENTRAL,,5090-052,FIOLHOSO,-7.503985258595193,41.40648157237252
pt.ine.add.PTCONT.5296752,R CENTRAL,,5090-210,PALHEIROS,-7.36579001496125,41.405940067890214
pt.ine.add.PTCONT.5296764,R DOS FORNOS,44,5090-131,MURÇA,-7.456383282567248,41.40916472780611
pt.ine.add.PTCONT.5296771,BR NOVO,,5090-052,FIOLHOSO,-7.503139755720217,41.403631703921796
pt.ine.add.PTCONT.5296788,R DA ESCOLA,,5090-016,CANDEDO MUR,-7.374069562375617,41.34392178114374
pt.ine.add.PTCONT.5296789,R MELITÃO BESSA RIBEIRO,,5090-139,MURÇA,-7.452345891835666,41.40753821348165
pt.ine.add.PTCONT.5296790,R MELITÃO BESSA RIBEIRO,,5090-139,MURÇA,-7.452345891835666,41.40753821348165
pt.ine.add.PTCONT.5296791,R DA CUMIEIRA,1181,5090-200,NOURA,-7.418163040954096,41.391411953352204
pt.ine.add.PTCONT.5296804,R DA ESCOLA,,5090-013,CANDEDO MUR,-7.371481956514791,41.38345909535398
pt.ine.add.PTCONT.5296805,EN 15,1,5090-053,FIOLHOSO,-7.488271394851445,41.399155417043076
pt.ine.add.PTCONT.5296806,R MELITÃO BESSA RIBEIRO,,5090-139,MURÇA,-7.451197195024302,41.408737935736944
pt.ine.add.PTCONT.5296807,R MELITÃO BESSA RIBEIRO,,5090-139,MURÇA,-7.451197195024302,41.408737935736944
pt.ine.add.PTCONT.5296820,R DOS FORNOS,9,5090-131,MURÇA,-7.4547892905001,41.40833598517473
pt.ine.add.PTCONT.5296832,R DA INDEPENDÊNCIA,24,5090-121,MURÇA,-7.454764839191967,41.40723736328181
pt.ine.add.PTCONT.5296833,R DE NSA SRA DA ANUNCIAÇÃO,,5090-200,NOURA,-7.420036739746163,41.38954175797236
pt.ine.add.PTCONT.5296844,R DE STA TERESA,,5090-011,CANDEDO MUR,-7.382501655082981,41.36291245831373
pt.ine.add.PTCONT.5296845,R DO VALE,,5090-032,CARVA,-7.5509815462319745,41.437720417450166
pt.ine.add.PTCONT.5296846,BR DE FREIRIA,19,5090-074,JOU,-7.431055558466223,41.4821422534329
pt.ine.add.PTCONT.5296856,R ALFREDO PINTO,,5090-115,MURÇA,-7.455495379582403,41.40483762171429
pt.ine.add.PTCONT.5296867,BR DE S JOSÉ,,5090-011,CANDEDO MUR,-7.380273676044282,41.36231264666643
pt.ine.add.PTCONT.5296868,R DA ESCOLA,,5090-017,CANDEDO MUR,-7.344352757155184,41.34512657343523
pt.ine.add.PTCONT.5296880,EN 314,,5090-017,CANDEDO MUR,-7.345815285255931,41.34472240444765
pt.ine.add.PTCONT.5296881,,,5090-082,JOU,-7.421596506656384,41.516082351762705
pt.ine.add.PTCONT.5296882,BR DA CRUZ,6,5090-102,MURÇA,-7.447895400056622,41.39857990474536
pt.ine.add.PTCONT.5296883,BR NOVO DA REDE,,5090-210,PALHEIROS,-7.4036839352741755,41.43522406850402
pt.ine.add.PTCONT.5296884,ANTA SN,SN,5090-232,VILARES MUR,-7.52164019117608,41.434218760469356
pt.ine.add.PTCONT.5296892,R CENTRAL,,5090-031,CARVA,-7.557678687087498,41.41370466554017
pt.ine.add.PTCONT.5296893,R HERÓI MILHÕES,61,5090-136,MURÇA,-7.451629373087467,41.41544840814833
pt.ine.add.PTCONT.5296894,R HERÓI MILHÕES,61,5090-136,MURÇA,-7.451629373087467,41.41544840814833
pt.ine.add.PTCONT.5296915,SIT DO GUEIRINHO,,5090-100,MURÇA,-7.436782587471821,41.4079132800317
pt.ine.add.PTCONT.5296916,R DA PORTELA,,5090-210,PALHEIROS,-7.403722421336741,41.42109723755034
pt.ine.add.PTCONT.5297660,R CENTRAL,21,5090-117,MURÇA,-7.45448894576097,41.40731677161095
pt.ine.add.PTCONT.5297687,SEM DESIGNACAO,118,5090-077,JOU,-7.472219854990261,41.46088501834105
pt.ine.add.PTCONT.5297704,R DA EIRA NOVA,3,5090-013,CANDEDO MUR,-7.3727836964217754,41.38460219958201
pt.ine.add.PTCONT.5297735,R BENTO JOSÉ GOMES CARVALHO,7,5090-072,JOU,-7.437280629244767,41.48559251907578
pt.ine.add.PTCONT.5297736,R BENTO JOSÉ GOMES CARVALHO,4,5090-072,JOU,-7.438339118305988,41.48178130888448
pt.ine.add.PTCONT.5297740,VAR EN 15,,5090-104,MURÇA,-7.4541932589946285,41.40125538829429
pt.ine.add.PTCONT.5297798,AV DA PORTELA,,5090-014,CANDEDO MUR,-7.371993941889082,41.344664408419284
pt.ine.add.PTCONT.5297799,AV DA PORTELA,,5090-014,CANDEDO MUR,-7.3706988568857446,41.34404356472224
pt.ine.add.PTCONT.5297800,EN 212,,5090-032,CARVA,-7.551739876216886,41.439894189384574
pt.ine.add.PTCONT.5297801,R DO VALE DE CABEDA,,5090-031,CARVA,-7.555776469024962,41.41375816369674
pt.ine.add.PTCONT.5297802,R CENTRAL,,5090-031,CARVA,-7.558451515121681,41.412871162624505
pt.ine.add.PTCONT.5297803,R DE S JOÃO,,5090-031,CARVA,-7.55955682117712,41.410949836350596
pt.ine.add.PTCONT.5297804,R DA ROSEIRA,9,5090-052,FIOLHOSO,-7.5035611423514545,41.40705550400715
pt.ine.add.PTCONT.5297805,R MANUEL MORAIS FONSECA,81,5090-137,MURÇA,-7.454219424871606,41.406783950533224
pt.ine.add.PTCONT.5297806,R DA LARANJEIRA,43,5090-122,MURÇA,-7.4556233539356676,41.406333025958
pt.ine.add.PTCONT.5297807,ESTR DE RATIÇO,,5090-143,NOURA,-7.4236105055089014,41.40833702685876
pt.ine.add.PTCONT.5297808,ESTR DE RATIÇO,,5090-143,NOURA,-7.4236105055089014,41.40833702685876
pt.ine.add.PTCONT.5297809,ESTR DE RATIÇO,,5090-143,NOURA,-7.4236105055089014,41.40833702685876
pt.ine.add.PTCONT.5298211,,,5090-079,JOU,-7.468577511224876,41.48468813782142
pt.ine.add.PTCONT.5298212,R CENTRAL,30,5090-081,JOU,-7.422972017755458,41.46474229403884
pt.ine.add.PTCONT.5298213,R CENTRAL,24,5090-081,JOU,-7.423560672743185,41.463449376378804
pt.ine.add.PTCONT.5298214,TV DA CUMIEIRA,62,5090-200,NOURA,-7.416134201493836,41.39324513510902
pt.ine.add.PTCONT.5298215,R DA CUMIEIRA,819,5090-200,NOURA,-7.416276870157009,41.39440753073115
pt.ine.add.PTCONT.5298226,LG DE S BENTO,,5090-011,CANDEDO MUR,-7.38291299086858,41.3635184063316
pt.ine.add.PTCONT.5298227,R DA ESCOLA,,5090-017,CANDEDO MUR,-7.344392183638138,41.34482971215757
pt.ine.add.PTCONT.5298228,R ALÉM DO RIBEIRO,5,5090-220,VALONGO DE MILHAIS,-7.433089001530793,41.43335387022669
pt.ine.add.PTCONT.5298229,R DA PORTELA,79,5090-232,VILARES MUR,-7.5168558183590735,41.432806632765654
pt.ine.add.PTCONT.5298665,AV DA TAPADA DO CAVALO,14,5090-012,CANDEDO MUR,-7.400006366331965,41.36965222241377
pt.ine.add.PTCONT.5298666,BR DO PINHEIRINHO,9,5090-106,MURÇA,-7.443203371630805,41.40918549562881
pt.ine.add.PTCONT.5298702,R DOS CARREIRÕES,78,5090-200,NOURA,-7.4118252700864655,41.38715855827929
pt.ine.add.PTCONT.5298703,AV DA PORTELA,,5090-014,CANDEDO MUR,-7.371072655754167,41.34477536379713
pt.ine.add.PTCONT.5298744,R MELITÃO BESSA RIBEIRO,4,5090-139,MURÇA,-7.451461038093778,41.40752397070497
pt.ine.add.PTCONT.5298745,R MELITÃO BESSA RIBEIRO,4,5090-139,MURÇA,-7.451461038093778,41.40752397070497
pt.ine.add.PTCONT.5298746,R MELITÃO BESSA RIBEIRO,4,5090-139,MURÇA,-7.451461038093778,41.40752397070497
pt.ine.add.PTCONT.5298747,R MELITÃO BESSA RIBEIRO,4,5090-139,MURÇA,-7.451461038093778,41.40752397070497
pt.ine.add.PTCONT.5298748,R MELITÃO BESSA RIBEIRO,4,5090-139,MURÇA,-7.451461038093778,41.40752397070497
pt.ine.add.PTCONT.5298749,R MELITÃO BESSA RIBEIRO,4,5090-139,MURÇA,-7.451461038093778,41.40752397070497
pt.ine.add.PTCONT.5298815,R DO LOUREIRO,,5090-052,FIOLHOSO,-7.503771249268614,41.40511180461722
pt.ine.add.PTCONT.5298816,BR NOVO,,5090-052,FIOLHOSO,-7.503765402567209,41.40323895464616
pt.ine.add.PTCONT.5298817,BR DE S DOMINGOS,,5090-051,FIOLHOSO,-7.485375089383716,41.396996211633024
pt.ine.add.PTCONT.5298818,SIT DE VALE DE ÉGUA,17,5090-082,JOU,-7.422127761417474,41.51679693279065
pt.ine.add.PTCONT.5298875,LG DO TOURAL,1,5090-076,JOU,-7.434054334732903,41.4872026415699
pt.ine.add.PTCONT.5298876,,,5090-144,MURÇA,-7.441947036015137,41.41036647153893
pt.ine.add.PTCONT.5298877,BR JOAQUIM FERREIRA TORRES,,5090-110,MURÇA,-7.45137793025088,41.4166174258327
pt.ine.add.PTCONT.5298935,BR DA CORTINHA NOVA,2 A,5090-101,MURÇA,-7.4517090902751875,41.410109563198475
pt.ine.add.PTCONT.5298936,R COMEND AMÉRICO BREIA,4,5090-118,MURÇA,-7.4544943834852955,41.40334607513382
pt.ine.add.PTCONT.5298937,BR DO SEIXO,19,5090-107,MURÇA,-7.451293772340454,41.4006439841474
pt.ine.add.PTCONT.5298938,ESTR DE RATIÇO,,5090-143,NOURA,-7.419641555472618,41.40818642899157
pt.ine.add.PTCONT.5298986,R DO FUNDO,,5090-210,PALHEIROS,-7.398866029456993,41.416834520768354
pt.ine.add.PTCONT.5298987,R DIREITA,40,5090-210,PALHEIROS,-7.401331271821611,41.41672417275651
pt.ine.add.PTCONT.5298988,R DO TERREIRO,,5090-232,VILARES MUR,-7.517034210241781,41.434185183375185
pt.ine.add.PTCONT.5298989,R DO CIMO DA PORTELA,,5090-232,VILARES MUR,-7.520638731087363,41.43511382220248
pt.ine.add.PTCONT.5298990,R DA GRICHA,,5090-232,VILARES MUR,-7.513674990987866,41.43137593939547
pt.ine.add.PTCONT.5299588,R DIREITA,6,5090-013,CANDEDO MUR,-7.372782540326463,41.38572768321908
pt.ine.add.PTCONT.5299589,AV DE STA MARIA MADALENA,,5090-011,CANDEDO MUR,-7.3795266249446,41.361803534882725
pt.ine.add.PTCONT.5299590,R CENTRAL,,5090-012,CANDEDO MUR,-7.403911487089327,41.366741741905564
pt.ine.add.PTCONT.5299630,R DA CAPELA,20,5090-032,CARVA,-7.550799555718605,41.435324461064894
pt.ine.add.PTCONT.5299631,BR DA CAPELA,30,5090-032,CARVA,-7.549783092546518,41.43526528829047
pt.ine.add.PTCONT.5299632,R DO VALE DE CABEDA,,5090-031,CARVA,-7.554012252213807,41.41443359608425
pt.ine.add.PTCONT.5299633,R CENTRAL,,5090-031,CARVA,-7.557337885805309,41.41301866192328
pt.ine.add.PTCONT.5299634,R CENTRAL,30 A,5090-052,FIOLHOSO,-7.504072765134468,41.40732842009109
pt.ine.add.PTCONT.5299635,R DO PÁTIO,8,5090-052,FIOLHOSO,-7.503134757317871,41.40786352368868
pt.ine.add.PTCONT.5299697,R S BRAZ,25,5090-017,CANDEDO MUR,-7.34364138766816,41.34368105816944
pt.ine.add.PTCONT.5299740,SIT ABOLEIRA,35,5090-071,JOU,-7.425025312078026,41.47625281941
pt.ine.add.PTCONT.5299741,SIT ABOLEIRA,18,5090-071,JOU,-7.428510524941166,41.47613016078761
pt.ine.add.PTCONT.5299753,R CENTRAL,,5090-081,JOU,-7.4232095470774375,41.46381636664823
pt.ine.add.PTCONT.5299754,BR DO PINHEIRINHO,7,5090-106,MURÇA,-7.443800499018532,41.4081356169178
pt.ine.add.PTCONT.5299765,R DA ALEGRIA,32,5090-012,CANDEDO MUR,-7.405073760654256,41.36647898192688
pt.ine.add.PTCONT.5299766,BR DO PINHEIRINHO,9,5090-106,MURÇA,-7.443820419879081,41.40851390058501
pt.ine.add.PTCONT.5299797,R DA SOALHEIRA,,5090-014,CANDEDO MUR,-7.376116714369879,41.34460156016652
pt.ine.add.PTCONT.5299798,R DA VEIGA,,5090-210,PALHEIROS,-7.365705142002747,41.40603854469277
pt.ine.add.PTCONT.5299807,R DA EIRA NOVA,,5090-013,CANDEDO MUR,-7.372103243684001,41.38451666597756
pt.ine.add.PTCONT.5299825,R DA ESCOLA,,5090-013,CANDEDO MUR,-7.3713010683179965,41.383592956905
pt.ine.add.PTCONT.5299826,EN 212,,5090-052,FIOLHOSO,-7.499852782985746,41.40099351529304
pt.ine.add.PTCONT.5299833,R DE STA TERESA,,5090-011,CANDEDO MUR,-7.381912875649432,41.36318773940254
pt.ine.add.PTCONT.5299846,R DIREITA,15,5090-220,VALONGO DE MILHAIS,-7.443560504850045,41.444392822168936
pt.ine.add.PTCONT.5299861,R AMILCAR MOREIRA,,5090-011,CANDEDO MUR,-7.38436888956415,41.36370796752095
pt.ine.add.PTCONT.5299862,BR NOVAINHO,12,5090-078,JOU,-7.434947204140966,41.47876250528651
pt.ine.add.PTCONT.5299863,R MANUEL MORAIS FONSECA,99,5090-137,MURÇA,-7.453713504858399,41.40713211702675
pt.ine.add.PTCONT.5299896,BR DO PEREIRO,,5090-051,FIOLHOSO,-7.490111090500379,41.39206160156188
pt.ine.add.PTCONT.5299913,URB SOL NASCENTE,20,5090-137,MURÇA,-7.4472014921486425,41.40543675963233
pt.ine.add.PTCONT.5299933,R DA PORTELA,,5090-232,VILARES MUR,-7.518561330712237,41.434643545542734
pt.ine.add.PTCONT.5299953,BR DAS ÁRVORES,,5090-105,MURÇA,-7.461838539871631,41.402038567526056
pt.ine.add.PTCONT.5299954,R DO CAPITÃO,,5090-232,VILARES MUR,-7.5173625082109155,41.43362869982375
pt.ine.add.PTCONT.5299967,R DA EIRA DO MEIO,30,5090-232,VILARES MUR,-7.514306215984783,41.43293700955077
pt.ine.add.PTCONT.5300731,R DO RIBEIRO,,5090-052,FIOLHOSO,-7.503406883444714,41.40445252405964
pt.ine.add.PTCONT.5300763,R ROSEIRA CADAVAL,2,5090-051,FIOLHOSO,-7.483676597577448,41.39464561291136
pt.ine.add.PTCONT.5300769,BR DO SEIXO,47,5090-107,MURÇA,-7.450670758439154,41.40075734169098
pt.ine.add.PTCONT.5300783,R DA CAPELA,,5090-012,CANDEDO MUR,-7.402677730038432,41.36591455640732
pt.ine.add.PTCONT.5300787,R DO PÁTIO,,5090-052,FIOLHOSO,-7.502597736782651,41.407743531040886
pt.ine.add.PTCONT.5300851,,,5090-071,JOU,-7.4253859204755965,41.47611998171262
pt.ine.add.PTCONT.5300852,SIT ABOLEIRA,23,5090-071,JOU,-7.42831713105409,41.47630004821877
pt.ine.add.PTCONT.5300885,R DO SOUTO,,5090-052,FIOLHOSO,-7.50613411476412,41.40812301299772
pt.ine.add.PTCONT.5300886,BR DA CORTINHA NOVA,58,5090-101,MURÇA,-7.45219436123879,41.41174214390294
pt.ine.add.PTCONT.5300899,R DO SUIDRO,,5090-144,MURÇA,-7.44171810611487,41.407141695848246
pt.ine.add.PTCONT.5300923,BR DE S TIAGO,,5090-126,MURÇA,-7.447613006619272,41.40838349248212
pt.ine.add.PTCONT.5300928,R NOVA,20,5090-076,JOU,-7.430735191018115,41.48741651906622
pt.ine.add.PTCONT.5300940,R DO SEIXO,,5090-076,JOU,-7.432393587708705,41.48575192969809
pt.ine.add.PTCONT.5300941,R DA CUMIEIRA,10,5090-200,NOURA,-7.417316462256792,41.39228907534533
pt.ine.add.PTCONT.5300958,TV DA R CENTRAL,7,5090-140,MURÇA,-7.454717847256882,41.40715605097007
pt.ine.add.PTCONT.5300959,R DA CUMIEIRA,,5090-200,NOURA,-7.418689585256245,41.39137020413937
pt.ine.add.PTCONT.5300971,R DA FRAGA,9,5090-011,CANDEDO MUR,-7.383068450919812,41.363510415711325
pt.ine.add.PTCONT.5300972,R DA LARANJEIRA,40,5090-122,MURÇA,-7.4553045977039645,41.406334723161514
pt.ine.add.PTCONT.5300992,R DE STA TERESA,,5090-011,CANDEDO MUR,-7.3823814267253764,41.36297470181842
pt.ine.add.PTCONT.5300993,R DO SUIDRO,4,5090-144,MURÇA,-7.439212009772872,41.41000786062563
pt.ine.add.PTCONT.5301006,R COMEND CARDOSO COSTA,10,5090-220,VALONGO DE MILHAIS,-7.485306136173674,41.43884598423369
pt.ine.add.PTCONT.5301016,R MQ DE VALFLOR,43,5090-138,MURÇA,-7.457327180034459,41.40117479422404
pt.ine.add.PTCONT.5301034,BR NOVO DA REDE,,5090-210,PALHEIROS,-7.403946532353618,41.435279756362156
pt.ine.add.PTCONT.5301047,LG FERREIRA TORRES,,5090-031,CARVA,-7.55762436961388,41.41308312272217
pt.ine.add.PTCONT.5301048,BR DE S JOSÉ,,5090-110,MURÇA,-7.457997029058626,41.4138652456135
pt.ine.add.PTCONT.5301049,R DA PORTELA,,5090-232,VILARES MUR,-7.517675265203514,41.433450295540155
pt.ine.add.PTCONT.5301059,R DE S JOSÉ,,5090-017,CANDEDO MUR,-7.345035463861218,41.34300630973158
pt.ine.add.PTCONT.5301060,R DA RAPOSEIRA,17,5090-071,JOU,-7.423889602315474,41.47829868896608
pt.ine.add.PTCONT.5301061,R PRINCIPAL,,5090-210,PALHEIROS,-7.415185692724892,41.41967469567636
pt.ine.add.PTCONT.5301854,R CENTRAL,5,5090-200,NOURA,-7.43134654502683,41.389611290209615
pt.ine.add.PTCONT.5301855,BR DE S JOSÉ,,5090-110,MURÇA,-7.4576781928494675,41.41231470207168
pt.ine.add.PTCONT.5301872,R COMEND CARDOSO COSTA,,5090-220,VALONGO DE MILHAIS,-7.485497569483591,41.43884706203677
pt.ine.add.PTCONT.5301917,BR HERÓI MILHÕES,34,5090-109,MURÇA,-7.443306431570767,41.409618301267756
pt.ine.add.PTCONT.5301918,LUGAR DAS MACIEIRINHAS,16,5090-123,MURÇA,-7.452385266145725,41.41293178944413
pt.ine.add.PTCONT.5301919,R MACIEIRINHAS,46,5090-123,MURÇA,-7.452385266145725,41.41293178944413
pt.ine.add.PTCONT.5301930,BR DO PINHEIRINHO,21,5090-106,MURÇA,-7.44514273925102,41.407873533110504
pt.ine.add.PTCONT.5301931,BR DA BARROCA,6,5090-103,MURÇA,-7.457417972913414,41.41203405294987
pt.ine.add.PTCONT.5301932,BR DA BARROCA,8,5090-103,MURÇA,-7.457382467344463,41.41199782878835
pt.ine.add.PTCONT.5301959,R DE S GONÇALO,6,5090-200,NOURA,-7.43190821527114,41.390749210498115
pt.ine.add.PTCONT.5301969,TV DA ALDEIA,22,5090-013,CANDEDO MUR,-7.3707112837481015,41.384957648219476
pt.ine.add.PTCONT.5301970,R DA ALDEIA,,5090-052,FIOLHOSO,-7.503204813555741,41.4068014437858
pt.ine.add.PTCONT.5301971,BR NOVO,8,5090-076,JOU,-7.433162848374199,41.49104183597579
pt.ine.add.PTCONT.5301972,R DA INDEPENDÊNCIA,,5090-121,MURÇA,-7.454308591310065,41.4085582480618
pt.ine.add.PTCONT.5301987,R CENTRAL,51,5090-200,NOURA,-7.431443930907017,41.38944981321352
pt.ine.add.PTCONT.5301988,R DAS CERDEIRAS,33,5090-220,VALONGO DE MILHAIS,-7.423638493525788,41.455211353181056
pt.ine.add.PTCONT.5301997,BR NOVO,,5090-052,FIOLHOSO,-7.502711263349009,41.40342226659358
pt.ine.add.PTCONT.5302014,R DA MÁQUINA,2,5090-011,CANDEDO MUR,-7.386162495148169,41.36258512352013
pt.ine.add.PTCONT.5302015,R DA LARANJEIRA,33,5090-122,MURÇA,-7.45608770638981,41.40608059988661
pt.ine.add.PTCONT.5302052,BR DO PINHEIRINHO,,5090-106,MURÇA,-7.442792856824602,41.409552193675964
pt.ine.add.PTCONT.5302053,R DO CASTELO,,5090-200,NOURA,-7.419609693208576,41.389232976908616
pt.ine.add.PTCONT.5302062,R DA CAPELA,,5090-032,CARVA,-7.550470325769598,41.4360160939728
pt.ine.add.PTCONT.5302063,R DOS CARREIRÕES,,5090-200,NOURA,-7.411623927629325,41.38698622119486
pt.ine.add.PTCONT.5302082,BR DA SERRA,,5090-017,CANDEDO MUR,-7.3462151953630705,41.34524737062035
pt.ine.add.PTCONT.5302096,R CENTRAL,,5090-031,CARVA,-7.557958932361511,41.4131208113684
pt.ine.add.PTCONT.5302097,BR DE S DOMINGOS,,5090-110,MURÇA,-7.455471559743967,41.417487976125095
pt.ine.add.PTCONT.5302104,SIT ABOLEIRA,21,5090-071,JOU,-7.422975018108692,41.47982369170448
pt.ine.add.PTCONT.5302105,BR DA BARROCA,3,5090-103,MURÇA,-7.4572124199996725,41.412248939433134
pt.ine.add.PTCONT.5302802,R DO RIO TUA,,5090-017,CANDEDO MUR,-7.344105915020514,41.34182041831423
pt.ine.add.PTCONT.5302814,R DO TERREIRO,41,5090-232,VILARES MUR,-7.515779376467215,41.43403439457042
pt.ine.add.PTCONT.5302875,R DO POÇO DA BARREIRA,11,5090-012,CANDEDO MUR,-7.400526584177167,41.370159757186975
pt.ine.add.PTCONT.5302876,BR DE STA BÁRBARA,,5090-031,CARVA,-7.555979380162129,41.41110302210874
pt.ine.add.PTCONT.5302877,BR DAS CHOUSINHAS,,5090-210,PALHEIROS,-7.398710631547148,41.418949442253464
pt.ine.add.PTCONT.5302898,AV DA TAPADA DO CAVALO,7,5090-012,CANDEDO MUR,-7.40044127350814,41.36924080999822
pt.ine.add.PTCONT.5302899,R DA VIDOSA,24,5090-052,FIOLHOSO,-7.5024522881419795,41.410416899547705
pt.ine.add.PTCONT.5302900,,,5090-071,JOU,-7.425244734115817,41.47699248175437
pt.ine.add.PTCONT.5302901,BR NOVO,5,5090-081,JOU,-7.42832496919405,41.460102231164335
pt.ine.add.PTCONT.5302913,AV DE STA LUZIA,,5090-210,PALHEIROS,-7.367018313332518,41.40420149674601
pt.ine.add.PTCONT.5302941,R HERÓI MILHÕES,,5090-136,MURÇA,-7.4534766164888895,41.4103541192366
pt.ine.add.PTCONT.5302946,R DO ALTO,,5090-220,VALONGO DE MILHAIS,-7.423308199442223,41.45696506315405
pt.ine.add.PTCONT.5302962,R 1 DE MAIO,,5090-014,CANDEDO MUR,-7.3758048396651885,41.34470755628862
pt.ine.add.PTCONT.5302963,R DO CARRIÇO,,5090-052,FIOLHOSO,-7.500423700714553,41.400078254383416
pt.ine.add.PTCONT.5302981,R DA ESCOLA,15,5090-016,CANDEDO MUR,-7.374011187175383,41.3438043441995
pt.ine.add.PTCONT.5302982,R FRANCISCO BARROS CARNEIRO LOPES,8,5090-134,MURÇA,-7.447611423318194,41.406258559133626
pt.ine.add.PTCONT.5302983,R FRANCISCO BARROS CARNEIRO LOPES,8,5090-134,MURÇA,-7.447611423318194,41.406258559133626
pt.ine.add.PTCONT.5302984,R FRANCISCO BARROS CARNEIRO LOPES,8,5090-134,MURÇA,-7.447611423318194,41.406258559133626
pt.ine.add.PTCONT.5302985,R DA CUMIEIRA,,5090-200,NOURA,-7.419547849213432,41.3894216760621
pt.ine.add.PTCONT.5303001,R MANUEL MORAIS FONSECA,99,5090-137,MURÇA,-7.45375013121848,41.407060301960506
pt.ine.add.PTCONT.5303002,R DA INDEPENDÊNCIA,7,5090-121,MURÇA,-7.455115198504329,41.40689727951881
pt.ine.add.PTCONT.5303003,R MANUEL MORAIS DA FONSECA,51,5090-137,MURÇA,-7.45474981849446,41.40638190257147
pt.ine.add.PTCONT.5303004,R MANUEL MORAIS DA FONSECA,51,5090-137,MURÇA,-7.45474981849446,41.40638190257147
pt.ine.add.PTCONT.5303019,EN 314,,5090-074,JOU,-7.430749024892596,41.48059172906459
pt.ine.add.PTCONT.5303020,R DA LARANJEIRA,,5090-122,MURÇA,-7.455727370682966,41.40611416066852
pt.ine.add.PTCONT.5303031,R FERNÃO DE MAGALHÃES,,5090-133,MURÇA,-7.4527945336011285,41.40580311110112
pt.ine.add.PTCONT.5303032,R DA ESTRADA,23,5090-220,VALONGO DE MILHAIS,-7.43400268227507,41.43182876784067
pt.ine.add.PTCONT.5303049,R FRANCISCO TEIXEIRA MAGALHÃES,,5090-011,CANDEDO MUR,-7.384837347349658,41.36245946306092
pt.ine.add.PTCONT.5303050,BR CAPELA,,5090-032,CARVA,-7.5498649872456,41.43547279306252
pt.ine.add.PTCONT.5303051,EN 15,,5090-053,FIOLHOSO,-7.475643371607126,41.40156903836819
pt.ine.add.PTCONT.5303052,BR DO PINHEIRINHO,7,5090-106,MURÇA,-7.445681645246916,41.40893921587121
pt.ine.add.PTCONT.5303053,BR CARREIROES,,5090-200,NOURA,-7.411446794611566,41.38678702377855
pt.ine.add.PTCONT.5303067,BR NOVO DA REDE,,5090-210,PALHEIROS,-7.4027013970923905,41.435352892451355
pt.ine.add.PTCONT.5303088,R CENTRAL,,5090-031,CARVA,-7.558977991997088,41.41284677916597
pt.ine.add.PTCONT.5303089,R DA PALHEIRA,,5090-031,CARVA,-7.5574376993146535,41.41255095698558
pt.ine.add.PTCONT.5303090,,,5090-071,JOU,-7.4263277397174345,41.476485924880436
pt.ine.add.PTCONT.5303091,BR DE S PEDRO,4,5090-210,PALHEIROS,-7.414475584253819,41.42115590363161
pt.ine.add.PTCONT.5303943,R DO PÁTIO,,5090-052,FIOLHOSO,-7.503625247596562,41.40784820036887
pt.ine.add.PTCONT.5303810,R DIREITA,60,5090-210,PALHEIROS,-7.400633402503991,41.41602643241266
pt.ine.add.PTCONT.5303829,R MQ DE VALFLOR,34,5090-138,MURÇA,-7.454794274349519,41.40254439369409
pt.ine.add.PTCONT.5303845,BR DA BARROCA,28,5090-151,MURÇA,-7.457720133457508,41.41172969412631
pt.ine.add.PTCONT.5303854,R MANUEL MORAIS DA FONSECA,51,5090-137,MURÇA,-7.45474981849446,41.40638190257147
pt.ine.add.PTCONT.5303896,R MANUEL MORAIS DA FONSECA,51,5090-137,MURÇA,-7.45474981849446,41.40638190257147
pt.ine.add.PTCONT.5303907,R DA VIDOSA,,5090-052,FIOLHOSO,-7.503654746875288,41.40974819002742
pt.ine.add.PTCONT.5303919,BR DO TOURAL,11,5090-108,MURÇA,-7.452950910655334,41.411449489791224
pt.ine.add.PTCONT.5303920,BR DO TOURAL,7,5090-108,MURÇA,-7.453023137019625,41.41140489719209
pt.ine.add.PTCONT.5303921,R CENTRAL,,5090-231,VILARES MUR,-7.50337309873395,41.42033525370836
pt.ine.add.PTCONT.5303942,R DOS TANQUES,3,5090-012,CANDEDO MUR,-7.401642078642629,41.36661028753755
pt.ine.add.PTCONT.5303944,SIT MASCANHO,105,5090-077,JOU,-7.4672240755497254,41.46016291211349
pt.ine.add.PTCONT.5304002,R DA LARANJEIRA,15,5090-122,MURÇA,-7.4565961053508385,41.405942577201316
pt.ine.add.PTCONT.5304003,R HERÓI MILHÕES,42,5090-220,VALONGO DE MILHAIS,-7.440846060321759,41.44421445020097
pt.ine.add.PTCONT.5304012,R DO MARMELEIRO,1,5090-016,CANDEDO MUR,-7.3749352747070605,41.343450275831664
pt.ine.add.PTCONT.5304013,LG DE S PEDRO,1,5090-051,FIOLHOSO,-7.486047640138911,41.39428980920558
pt.ine.add.PTCONT.5304043,BR PEREIRO,4,5090-051,FIOLHOSO,-7.4872965430437555,41.393747584992795
pt.ine.add.PTCONT.5304044,R FONTELAS,S N,5090-051,FIOLHOSO,-7.487078822406584,41.392791944543646
pt.ine.add.PTCONT.5304045,R ALFREDO PINTO,31,5090-115,MURÇA,-7.455553019694539,41.405045051330866
pt.ine.add.PTCONT.5304066,R DO VALE DE CABEDA,,5090-031,CARVA,-7.554463491247625,41.413454438213144
pt.ine.add.PTCONT.5304067,BR DO SEIXO,31,5090-107,MURÇA,-7.450267219080531,41.40046682190629
pt.ine.add.PTCONT.5304068,BR ARVORES,9,5090-105,MURÇA,-7.459239373770286,41.40128505240252
pt.ine.add.PTCONT.5304069,BR ARVORES,5,5090-105,MURÇA,-7.460595210353486,41.402004295319564
pt.ine.add.PTCONT.5304095,R DA FIGUEIRA,,5090-210,PALHEIROS,-7.4150076279365855,41.420637000317484
pt.ine.add.PTCONT.5304078,TV DA CRUZ,,5090-017,CANDEDO MUR,-7.344499817526033,41.343831007369225
pt.ine.add.PTCONT.5304079,,,5090-212,MURÇA,-7.438750179185667,41.410698375331094
pt.ine.add.PTCONT.5304091,R DA PALHEIRA,,5090-031,CARVA,-7.5572331879735595,41.412684992513505
pt.ine.add.PTCONT.5304092,SIT ABOLEIRA,11,5090-071,JOU,-7.425143475800553,41.47749607142536
pt.ine.add.PTCONT.5304093,SIT DO GUEIRINHO,1,5090-100,MURÇA,-7.43648130964085,41.40812755015912
pt.ine.add.PTCONT.5304094,BR DO SEIXO,2,5090-107,MURÇA,-7.450931846364991,41.40094797238298
pt.ine.add.PTCONT.5304096,R 25 DE ABRIL,,5090-210,PALHEIROS,-7.41495615456145,41.419880352526924
pt.ine.add.PTCONT.5304849,R DA CAPELA,15,5090-032,CARVA,-7.551658960925145,41.4355539051658
pt.ine.add.PTCONT.5304859,TV DA R CENTRAL,3,5090-140,MURÇA,-7.4545747176521795,41.40711919130396
pt.ine.add.PTCONT.5304877,R DA VIDOSA,,5090-052,FIOLHOSO,-7.500788273789959,41.409345303639874
pt.ine.add.PTCONT.5304882,LG PRINCIPAL,50,5090-210,PALHEIROS,-7.400939716110963,41.41644256106558
pt.ine.add.PTCONT.5304913,R CENTRAL,,5090-210,PALHEIROS,-7.366012887614039,41.40529327345576
pt.ine.add.PTCONT.5305005,R CENTRAL,,5090-052,FIOLHOSO,-7.503906557461773,41.40720145630156
pt.ine.add.PTCONT.5305006,BR DA CAPELA,,5090-052,FIOLHOSO,-7.5018090586194806,41.4076761789247
pt.ine.add.PTCONT.5305007,R CENTRAL,,5090-052,FIOLHOSO,-7.504375642165422,41.406924898791495
pt.ine.add.PTCONT.5305008,R DA ROSEIRA,6,5090-052,FIOLHOSO,-7.503694600691652,41.406858147733544
pt.ine.add.PTCONT.5305009,EN 212,12,5090-052,FIOLHOSO,-7.503067918992457,41.406116395652276
pt.ine.add.PTCONT.5305010,EN 15,,5090-053,FIOLHOSO,-7.4899620421076545,41.396265610930485
pt.ine.add.PTCONT.5305063,R CENTRAL,22,5090-081,JOU,-7.424233483468147,41.46321942520511
pt.ine.add.PTCONT.5305064,SIT DO VALE DO PORCO,1,5090-144,MURÇA,-7.4413007590514075,41.41040760694433
pt.ine.add.PTCONT.5305065,BR DO PINHEIRINHO,31,5090-106,MURÇA,-7.443599411972893,41.410187303748465
pt.ine.add.PTCONT.5305103,BR DA CRUZ,3,5090-102,MURÇA,-7.447987841996018,41.39888658878043
pt.ine.add.PTCONT.5305104,BR DE S JOSÉ,10,5090-110,MURÇA,-7.457799187995615,41.412180353667324
pt.ine.add.PTCONT.5305105,R DA EIRA,,5090-119,MURÇA,-7.45568631441334,41.40717976492933
pt.ine.add.PTCONT.5305106,TV DA R CENTRAL,5,5090-140,MURÇA,-7.454634323745538,41.4071375506412
pt.ine.add.PTCONT.5305163,BR CARREIROES,,5090-200,NOURA,-7.411131181800304,41.385056287627556
pt.ine.add.PTCONT.5305164,LG DO TERREIRO,,5090-220,VALONGO DE MILHAIS,-7.422778606410005,41.45504397755658
pt.ine.add.PTCONT.5305165,R DA CAPELA,,5090-231,VILARES MUR,-7.505214867781257,41.420372331642376
pt.ine.add.PTCONT.5305847,BR DA RASA,,5090-011,CANDEDO MUR,-7.3890723356115044,41.36523313230927
pt.ine.add.PTCONT.5305848,R DO LAMEIRO,,5090-017,CANDEDO MUR,-7.341323755254969,41.340702824435425
pt.ine.add.PTCONT.5305849,R 1 DE MAIO,3,5090-014,CANDEDO MUR,-7.376022609649964,41.34653679946067
pt.ine.add.PTCONT.5305850,AV DA PORTELA,,5090-014,CANDEDO MUR,-7.369970725734651,41.34398471485828
pt.ine.add.PTCONT.5305918,R DA CAPELA,,5090-032,CARVA,-7.550187454267282,41.435537454683605
pt.ine.add.PTCONT.5305919,R CENTRAL,,5090-031,CARVA,-7.558331597881866,41.41290657934637
pt.ine.add.PTCONT.5305920,BR DE STA BÁRBARA,,5090-031,CARVA,-7.558191148612372,41.40984454044183
pt.ine.add.PTCONT.5305921,R DA VIDOSA,,5090-052,FIOLHOSO,-7.502966803567036,41.41039270683609
pt.ine.add.PTCONT.5305946,R DA ESCOLA,35,5090-016,CANDEDO MUR,-7.374008154831514,41.344065440028416
pt.ine.add.PTCONT.5305953,R DA CUMIEIRA,,5090-200,NOURA,-7.417744689715717,41.391400349256806
pt.ine.add.PTCONT.5306054,R DA LARANJEIRA,35,5090-122,MURÇA,-7.4560083641850685,41.40611019437842
pt.ine.add.PTCONT.5306101,AV TAPADA CAVALO,,5090-012,CANDEDO MUR,-7.400225667847662,41.370346924283155
pt.ine.add.PTCONT.5306102,LG DA CAPELA,1,5090-012,CANDEDO MUR,-7.402692167051476,41.36676102095142
pt.ine.add.PTCONT.5306103,R CENTRAL,,5090-012,CANDEDO MUR,-7.404723764337374,41.366782902015686
pt.ine.add.PTCONT.5306104,BR DA CORTINHA NOVA,70,5090-101,MURÇA,-7.4530013779089765,41.41119767864239
pt.ine.add.PTCONT.5306105,BR DE S JOSÉ,,5090-213,MURÇA,-7.458500204800152,41.411473157196355
pt.ine.add.PTCONT.5306536,R DAS FONTELAS,4,5090-051,FIOLHOSO,-7.486692836589693,41.393131926738874
pt.ine.add.PTCONT.5306537,SIT ABOLEIRA,62,5090-071,JOU,-7.427507728691736,41.47697037104947
pt.ine.add.PTCONT.5306538,R NOVO,2,5090-081,JOU,-7.428114219338514,41.45966875593928
pt.ine.add.PTCONT.5306539,SEM DESIGNACAO,2,5090-081,JOU,-7.42382899336485,41.46299183622504
pt.ine.add.PTCONT.5306540,BR DO CASTELO,,5090-073,JOU,-7.398934401903903,41.48506602214667
pt.ine.add.PTCONT.5306541,R DA CUMIEIRA,817,5090-200,NOURA,-7.416539215664267,41.39447219231398
pt.ine.add.PTCONT.5306542,R DIREITA,4,5090-220,VALONGO DE MILHAIS,-7.427386181615676,41.45726927266913
pt.ine.add.PTCONT.5306548,R DA SENHORA DA GUIA,18,5090-011,CANDEDO MUR,-7.3822831811218945,41.364243620061394
pt.ine.add.PTCONT.5306549,R DA CRUZ,,5090-017,CANDEDO MUR,-7.344989848380443,41.34282591761018
pt.ine.add.PTCONT.5306550,BR DO BANHO,,5090-072,JOU,-7.437587686200742,41.48263212815676
pt.ine.add.PTCONT.5306551,R DIREITA,5,5090-220,VALONGO DE MILHAIS,-7.433396621438456,41.43144692061792
pt.ine.add.PTCONT.5306552,R DA PORTELA,,5090-232,VILARES MUR,-7.52056593145288,41.435221481269
pt.ine.add.PTCONT.5306553,TV DO TERREIRO,,5090-232,VILARES MUR,-7.5187897481502235,41.434527714927434
pt.ine.add.PTCONT.5306554,R CENTRAL,,5090-232,VILARES MUR,-7.515003171025208,41.431356071264325
pt.ine.add.PTCONT.5307167,R MANUEL MORAIS FONSECA,62,5090-137,MURÇA,-7.454136651849406,41.4066934229322
pt.ine.add.PTCONT.5307194,R CENTRAL,16,5090-081,JOU,-7.424422035768642,41.46239223525925
pt.ine.add.PTCONT.5307174,R MELITÃO BESSA RIBEIRO,,5090-139,MURÇA,-7.451313109147361,41.40794627822502
pt.ine.add.PTCONT.5307195,BR DO SEIXO,,5090-107,MURÇA,-7.451545914413405,41.400546434805754
pt.ine.add.PTCONT.5307211,BR DO CASTELO,,5090-073,JOU,-7.397032245875545,41.484918808002355
pt.ine.add.PTCONT.5307212,BR DA CORTINHA NOVA,39,5090-101,MURÇA,-7.451830294738276,41.41110071113972
pt.ine.add.PTCONT.5307224,R CENTRAL,,5090-052,FIOLHOSO,-7.5039702600337215,41.406796627871884
pt.ine.add.PTCONT.5307225,AV DE STA LUZIA,,5090-210,PALHEIROS,-7.366816615382675,41.40406509510296
pt.ine.add.PTCONT.5307244,EN 212,2,5090-052,FIOLHOSO,-7.500464359669354,41.40328387908851
pt.ine.add.PTCONT.5307245,R FRANCISCO BARROS CARNEIRO LOPES,S N,5090-134,MURÇA,-7.448949417874351,41.40753607508819
pt.ine.add.PTCONT.5307256,R DA ESCOLA,,5090-016,CANDEDO MUR,-7.37362817520022,41.34489130047588
pt.ine.add.PTCONT.5307282,AV DA PORTELA,,5090-014,CANDEDO MUR,-7.369677205976521,41.34354157249785
pt.ine.add.PTCONT.5307283,R DA CUMIEIRA,,5090-200,NOURA,-7.418796072279202,41.39038043259265
pt.ine.add.PTCONT.5307301,R DO MARMELEIRO,,5090-016,CANDEDO MUR,-7.3751537628167085,41.34315458313214
pt.ine.add.PTCONT.5307310,BR DO RIO,9,5090-080,JOU,-7.433448915136746,41.48114841175144
pt.ine.add.PTCONT.5307311,R DO CASTELO,,5090-200,NOURA,-7.420246657125711,41.38674283398399
pt.ine.add.PTCONT.5307323,R CENTRAL,,5090-032,CARVA,-7.5499540112973405,41.43622056749077
pt.ine.add.PTCONT.5307337,R DA ESCOLA,,5090-220,VALONGO DE MILHAIS,-7.434731282074446,41.429708278485215
pt.ine.add.PTCONT.5307351,R DO JARDIM,,5090-017,CANDEDO MUR,-7.346501760701803,41.34327745668357
pt.ine.add.PTCONT.5307369,R COMEND AMÉRICO BREIA,27,5090-118,MURÇA,-7.453751956471408,41.4034407370737
pt.ine.add.PTCONT.5307379,R DA FIGUEIRA,,5090-210,PALHEIROS,-7.415195831912538,41.4209262992245
pt.ine.add.PTCONT.5307380,R CENTRAL,,5090-210,PALHEIROS,-7.414426399775176,41.420192180584344
pt.ine.add.PTCONT.5308238,R DA FONTE,1,5090-074,JOU,-7.4312168346990415,41.48162101756407
pt.ine.add.PTCONT.5308257,R DA LARANJEIRA,29,5090-122,MURÇA,-7.4561627450367975,41.406056935211744
pt.ine.add.PTCONT.5308258,BR DAS ÁRVORES,,5090-105,MURÇA,-7.462360700774984,41.40242878150967
pt.ine.add.PTCONT.5308259,R DA LAMEIRA,,5090-200,NOURA,-7.419161571326978,41.390850905555745
pt.ine.add.PTCONT.5308308,TV DO CASTELO,56,5090-200,NOURA,-7.420985795689285,41.386936493470365
pt.ine.add.PTCONT.5308309,BR DE S PEDRO,,5090-210,PALHEIROS,-7.414606164580082,41.42124675805393
pt.ine.add.PTCONT.5308310,R CENTRAL,,5090-210,PALHEIROS,-7.36698954749631,41.40665036530574
pt.ine.add.PTCONT.5308335,R DOS EIRÓS,,5090-232,VILARES MUR,-7.51288212368332,41.43297436032176
pt.ine.add.PTCONT.5308336,R DOS EIRÓS,,5090-232,VILARES MUR,-7.513141381474706,41.433389936652276
pt.ine.add.PTCONT.5308696,R DE STA BÁRBARA,12,5090-012,CANDEDO MUR,-7.402662794932288,41.36831852050344
pt.ine.add.PTCONT.5308697,R DA ALEGRIA,10,5090-012,CANDEDO MUR,-7.403295862261285,41.36621560917631
pt.ine.add.PTCONT.5308724,AV DA PORTELA,,5090-014,CANDEDO MUR,-7.369774817914086,41.34234468869425
pt.ine.add.PTCONT.5308725,R DO CIMO DA EIRA,,5090-016,CANDEDO MUR,-7.375570438857828,41.343283382501795
pt.ine.add.PTCONT.5308726,EN 212,,5090-032,CARVA,-7.5530263382764025,41.43651522064764
pt.ine.add.PTCONT.5308727,EN 212,,5090-032,CARVA,-7.546375325333424,41.4363554377737
pt.ine.add.PTCONT.5308728,R CENTRAL,,5090-052,FIOLHOSO,-7.504086634448551,41.4071304095
pt.ine.add.PTCONT.5308729,BR DO BARREIRO,,5090-051,FIOLHOSO,-7.484044871117632,41.39849237329393
pt.ine.add.PTCONT.5308746,LG DA CAPELA,,5090-051,FIOLHOSO,-7.482583621781623,41.39513465567466
pt.ine.add.PTCONT.5308747,R DAS FONTELAS,,5090-051,FIOLHOSO,-7.486920093539797,41.39312419926499
pt.ine.add.PTCONT.5308748,R DE STA ISABEL,5,5090-072,JOU,-7.43879674493302,41.487141329294076
pt.ine.add.PTCONT.5308749,R NOVA,18,5090-076,JOU,-7.431224329074453,41.48647410731224
pt.ine.add.PTCONT.5308785,R DO CORREIO,13,5090-129,MURÇA,-7.454165310458202,41.40738689364825
pt.ine.add.PTCONT.5308786,BR DA BARROCA,,5090-213,MURÇA,-7.454646564834806,41.41055911022184
pt.ine.add.PTCONT.5309206,R DA FIGUEIRA,,5090-210,PALHEIROS,-7.414925685995119,41.42047441887923
pt.ine.add.PTCONT.5309215,R CENTRAL,28,5090-081,JOU,-7.423800540957566,41.46450430285166
pt.ine.add.PTCONT.5309234,TOUBRES,,5090-071,JOU,-7.425346150345225,41.46106535878051
pt.ine.add.PTCONT.5309242,R DE STA MARIA MADALENA,,5090-011,CANDEDO MUR,-7.378059770067179,41.3615328048734
pt.ine.add.PTCONT.5309246,BR DO PINHEIRINHO,15,5090-106,MURÇA,-7.444840239493512,41.409339361650595
pt.ine.add.PTCONT.5309268,R FERNÃO DE MAGALHÃES,17,5090-133,MURÇA,-7.453259223434495,41.40596792831596
pt.ine.add.PTCONT.5309709,R DA EIRA NOVA,,5090-013,CANDEDO MUR,-7.372677680779153,41.384466440048456
pt.ine.add.PTCONT.5309710,R FRANCISCO TEIXEIRA MAGALHÃES,6,5090-011,CANDEDO MUR,-7.384670661793435,41.36240435529156
pt.ine.add.PTCONT.5309746,R DA CRUZ,,5090-017,CANDEDO MUR,-7.344674675008025,41.343201926342026
pt.ine.add.PTCONT.5309747,AV DA TAPADA DO CAVALO,18,5090-012,CANDEDO MUR,-7.3997289498678835,41.36987555377977
pt.ine.add.PTCONT.5309748,AV DA TAPADA DO CAVALO,17,5090-012,CANDEDO MUR,-7.40010817100982,41.3701660967046
pt.ine.add.PTCONT.5309749,R CENTRAL,,5090-012,CANDEDO MUR,-7.404101801141968,41.36682398340106
pt.ine.add.PTCONT.5309750,R DA CAPELA,,5090-012,CANDEDO MUR,-7.4025360300955105,41.36576058944893
pt.ine.add.PTCONT.5309751,R CENTRAL,,5090-015,CANDEDO MUR,-7.375267013545752,41.34472202397071
pt.ine.add.PTCONT.5309752,BR PORTELA,3,5090-014,CANDEDO MUR,-7.37137888691681,41.34412910360212
pt.ine.add.PTCONT.5309753,R DA ESCOLA,,5090-016,CANDEDO MUR,-7.373576077506425,41.34423366516837
pt.ine.add.PTCONT.5309754,R DA VIDOSA,,5090-052,FIOLHOSO,-7.503253175019689,41.409223764789566
pt.ine.add.PTCONT.5309818,EN 212,,5090-052,FIOLHOSO,-7.500892579594662,41.40228679612272
pt.ine.add.PTCONT.5309819,R DE S LOURENÇO,,5090-051,FIOLHOSO,-7.483234865107043,41.39577761556517
pt.ine.add.PTCONT.5309820,R DO CALVÁRIO,14,5090-051,FIOLHOSO,-7.484161350225617,41.39519758838586
pt.ine.add.PTCONT.5309884,EN 314,38,5090-082,JOU,-7.423606442835206,41.51741831914686
pt.ine.add.PTCONT.5309885,R CENTRAL,13,5090-081,JOU,-7.424222881269696,41.46199483984301
pt.ine.add.PTCONT.5309886,BR NOVAINHO,,5090-078,JOU,-7.43511412588546,41.47994301620598
pt.ine.add.PTCONT.5309945,R FR DIOGO,3,5090-135,MURÇA,-7.453757540326742,41.406349036239924
pt.ine.add.PTCONT.5309946,BR DAS MACIEIRINHAS,,5090-123,MURÇA,-7.451735300177489,41.41332411395879
pt.ine.add.PTCONT.5310004,SIT DO CERCO,1,5090-111,MURÇA,-7.453242610957161,41.407561523481675
pt.ine.add.PTCONT.5310005,R MQ DE VALFLOR,,5090-138,MURÇA,-7.4566968815633485,41.400837945277985
pt.ine.add.PTCONT.5310006,ESTR DE RATIÇO,9,5090-143,NOURA,-7.427772551665762,41.40943408203149
pt.ine.add.PTCONT.5310007,R CAMPO,2,5090-200,NOURA,-7.431872099700537,41.389659513960325
pt.ine.add.PTCONT.5310077,R DA CUMIEIRA,19,5090-200,NOURA,-7.418026792164007,41.39184329542974
pt.ine.add.PTCONT.5310078,R DO LOMBO DA EIRA,,5090-210,PALHEIROS,-7.404926942871792,41.43641144875999
pt.ine.add.PTCONT.5310079,R DIREITA,,5090-210,PALHEIROS,-7.399800139454888,41.41566997273583
pt.ine.add.PTCONT.5310080,R DO VALE DA MÊDA,,5090-220,VALONGO DE MILHAIS,-7.477374718048396,41.4410700244997
pt.ine.add.PTCONT.5310400,R AMAR,,5090-052,FIOLHOSO,-7.502814215477899,41.40761866215402
pt.ine.add.PTCONT.5310168,EN 212,,5090-232,VILARES MUR,-7.517437075916006,41.4308018767839
pt.ine.add.PTCONT.5310169,R DO CAPITÃO,,5090-232,VILARES MUR,-7.515886174300453,41.432864461916374
pt.ine.add.PTCONT.5310217,R DO SOUTO,,5090-052,FIOLHOSO,-7.505399070217413,41.40745271459342
pt.ine.add.PTCONT.5310264,R DA CUMIEIRA,,5090-200,NOURA,-7.416139627997506,41.39383942820292
pt.ine.add.PTCONT.5310283,BR DO PINHEIRINHO,9,5090-106,MURÇA,-7.443828477121237,41.40888310924084
pt.ine.add.PTCONT.5310303,R CENTRAL,3,5090-013,CANDEDO MUR,-7.37280498105712,41.38585388650851
pt.ine.add.PTCONT.5310317,R DIREITA CADAVAL,,5090-051,FIOLHOSO,-7.4828749086167905,41.39590163714986
pt.ine.add.PTCONT.5310324,R CENTRAL,,5090-210,PALHEIROS,-7.366409304733651,41.40514284947532
pt.ine.add.PTCONT.5310340,URB DO PAÇO,12,5090-116,MURÇA,-7.452695766413643,41.40609965636896
pt.ine.add.PTCONT.5310347,TV DA R CENTRAL,8,5090-140,MURÇA,-7.454669356859512,41.40721879247197
pt.ine.add.PTCONT.5310358,,,5090-071,JOU,-7.425324496860579,41.47626366461146
pt.ine.add.PTCONT.5310398,R 1 DE MAIO,,5090-014,CANDEDO MUR,-7.376143230601624,41.346438548996964
pt.ine.add.PTCONT.5310399,R 1 DE MAIO,,5090-014,CANDEDO MUR,-7.376224672569491,41.34662816844892
pt.ine.add.PTCONT.5310413,R DO CIMO DO POVO,,5090-013,CANDEDO MUR,-7.371674758864206,41.38537820866031
pt.ine.add.PTCONT.5310414,R DO LOUREIRO,,5090-052,FIOLHOSO,-7.503721187954094,41.40410309040532
pt.ine.add.PTCONT.5310415,R DIREITA,42,5090-220,VALONGO DE MILHAIS,-7.422633032601386,41.45522315524329
pt.ine.add.PTCONT.5310424,R DA SOALHEIRA,2,5090-014,CANDEDO MUR,-7.375937195957592,41.3446273912126
pt.ine.add.PTCONT.5310425,R CENTRAL,2,5090-015,CANDEDO MUR,-7.374904110867528,41.34510680539333
pt.ine.add.PTCONT.5310426,R CRUZEIRO,N 53,5090-076,JOU,-7.431231108808183,41.48473641724784
pt.ine.add.PTCONT.5310427,R DO FUNDO DO POVO,,5090-220,VALONGO DE MILHAIS,-7.422869940820732,41.45435124616836
pt.ine.add.PTCONT.5310437,LG DO TOURAL,3,5090-076,JOU,-7.433657374451154,41.48737130021027
pt.ine.add.PTCONT.5310438,R DA CUMIEIRA,596,5090-200,NOURA,-7.418098894202035,41.39617463299141
pt.ine.add.PTCONT.5310481,BR DO BANHO,3,5090-072,JOU,-7.438515050269131,41.482124515743585
pt.ine.add.PTCONT.5310482,R DO VALE DAS VINHAS,2,5090-220,VALONGO DE MILHAIS,-7.48343438651537,41.440564172793714
pt.ine.add.PTCONT.5310492,R 25 DE ABRIL,,5090-011,CANDEDO MUR,-7.383722455463074,41.3627583432176
pt.ine.add.PTCONT.5310493,R DA ROSEIRA,,5090-051,FIOLHOSO,-7.484230355908973,41.39427057142938
pt.ine.add.PTCONT.5310504,BR DO PEREIRO,,5090-051,FIOLHOSO,-7.488678633221566,41.393035018161505
pt.ine.add.PTCONT.5310505,RECTA LEVANDEIRA,,5090-053,FIOLHOSO,-7.483884360556267,41.40020221552463
pt.ine.add.PTCONT.5310506,BR DO PINHEIRINHO,,5090-106,MURÇA,-7.445762606209908,41.409200813001846
pt.ine.add.PTCONT.5310507,R DO TERREIRO,44,5090-232,VILARES MUR,-7.516914998000458,41.434139525477065
pt.ine.add.PTCONT.5310520,R CENTRAL,,5090-031,CARVA,-7.5573181340409095,41.41390094816755
pt.ine.add.PTCONT.5310521,BR JOAQUIM FERREIRA TORRES,S N,5090-110,MURÇA,-7.453201208266203,41.4172674920188
pt.ine.add.PTCONT.5310522,R DA CAPELA,,5090-210,PALHEIROS,-7.4081334954075215,41.43426176989611
pt.ine.add.PTCONT.5310536,LG DA CRUZ,2,5090-017,CANDEDO MUR,-7.344456049748064,41.34349755995271
pt.ine.add.PTCONT.5310537,R S JOAO,30,5090-031,CARVA,-7.558886289251436,41.411036531167646
pt.ine.add.PTCONT.5310538,BR DE S PEDRO,,5090-210,PALHEIROS,-7.414160378541789,41.4204516312353
pt.ine.add.PTCONT.5310539,R DA PORTELA,,5090-210,PALHEIROS,-7.404571761469948,41.42109361514966
pt.ine.add.PTCONT.5311302,R DA VEIGA,,5090-210,PALHEIROS,-7.365607886707991,41.40617295441642
pt.ine.add.PTCONT.5311877,R CENTRAL,3,5090-013,CANDEDO MUR,-7.372659533004923,41.386024000014864
pt.ine.add.PTCONT.5311878,R DE STA TERESA,18,5090-011,CANDEDO MUR,-7.382042363572746,41.36335965995397
pt.ine.add.PTCONT.5311879,BR S JOAO SN,SN,5090-011,CANDEDO MUR,-7.378067955719966,41.362892457601376
pt.ine.add.PTCONT.5311880,R DE S BRÁS,,5090-017,CANDEDO MUR,-7.343891943811916,41.34370978860977
pt.ine.add.PTCONT.5311881,R DA ESCOLA,11,5090-016,CANDEDO MUR,-7.374109271419695,41.34358889523739
pt.ine.add.PTCONT.5311882,R DA CAPELA VELHA,,5090-015,CANDEDO MUR,-7.375041334217648,41.343577030412746
pt.ine.add.PTCONT.5311883,BR DA CRUZ,5,5090-102,MURÇA,-7.447603131510824,41.399082383824805
pt.ine.add.PTCONT.5311884,BR DA BARROCA,44,5090-103,MURÇA,-7.457318174691364,41.41127713833302
pt.ine.add.PTCONT.5311885,BR DO TOURAL,40,5090-108,MURÇA,-7.453221848064509,41.41184726316245
pt.ine.add.PTCONT.5311886,R FR DIOGO,,5090-135,MURÇA,-7.4548104143294305,41.40400522496412
pt.ine.add.PTCONT.5311934,R DE S JOÃO,,5090-031,CARVA,-7.559209754277632,41.41097511751866
pt.ine.add.PTCONT.5311935,EN 212,,5090-052,FIOLHOSO,-7.5011542916858955,41.40859998884755
pt.ine.add.PTCONT.5311936,R DO LOUREIRO,,5090-052,FIOLHOSO,-7.504759138537122,41.40311833071665
pt.ine.add.PTCONT.5311937,BR DA FANTEIRA,5,5090-104,MURÇA,-7.454133827560325,41.398923020341975
pt.ine.add.PTCONT.5311938,R CENTRAL,4,5090-200,NOURA,-7.431695046296661,41.39055882858421
pt.ine.add.PTCONT.5311939,R CENTRAL,,5090-200,NOURA,-7.431724279934401,41.39006379022819
pt.ine.add.PTCONT.5311940,R DA CUMIEIRA,,5090-200,NOURA,-7.419441432598803,41.38931296885625
pt.ine.add.PTCONT.5311941,R DO CASTELO,218,5090-200,NOURA,-7.4202757363052685,41.38736428596176
pt.ine.add.PTCONT.5311942,R DO CIMO DA PORTELA,,5090-232,VILARES MUR,-7.520408282750856,41.43544573897244
pt.ine.add.PTCONT.5311943,LG RAINHA,,5090-232,VILARES MUR,-7.515013518239034,41.43278774565247
pt.ine.add.PTCONT.5311944,R DO BAIRRO DOS CIROS,,5090-232,VILARES MUR,-7.512900771819861,41.432272157396724
pt.ine.add.PTCONT.5311978,R CORTINHA CADAVAL,,5090-051,FIOLHOSO,-7.483980120532054,41.39538564890659
pt.ine.add.PTCONT.5311979,,,5090-071,JOU,-7.4280433517446,41.47615430948037
pt.ine.add.PTCONT.5311980,,,5090-071,JOU,-7.42513346386674,41.47731593378034
pt.ine.add.PTCONT.5311981,BR DO CASTELO,,5090-073,JOU,-7.398051157629262,41.484817278772965
pt.ine.add.PTCONT.5311982,R NOVA,14,5090-076,JOU,-7.431035867989971,41.48618483585893
pt.ine.add.PTCONT.5311983,BR DE FREIRIA,,5090-074,JOU,-7.431096625729125,41.48166530292678
pt.ine.add.PTCONT.5311984,R 25 DE ABRIL,,5090-210,PALHEIROS,-7.414954170794544,41.42006041789106
pt.ine.add.PTCONT.5311985,R DIREITA,,5090-210,PALHEIROS,-7.399906970453583,41.415742684717586
pt.ine.add.PTCONT.5311986,R DO CALVÁRIO,4,5090-220,VALONGO DE MILHAIS,-7.44464153516215,41.44627209875721
pt.ine.add.PTCONT.5311987,R DA ESCOLA,66,5090-220,VALONGO DE MILHAIS,-7.485991902314779,41.44208223394507
pt.ine.add.PTCONT.5312599,R DO FUNDO,,5090-210,PALHEIROS,-7.399617589942439,41.41488547057886
pt.ine.add.PTCONT.5312380,R DE STA ISABEL,,5090-072,JOU,-7.4390405358616345,41.486737630160455
pt.ine.add.PTCONT.5312542,R CASTELO,,5090-200,NOURA,-7.420315702947085,41.390272805147724
pt.ine.add.PTCONT.5312411,R DA CUMIEIRA,431,5090-200,NOURA,-7.417151756499812,41.39749232023499
pt.ine.add.PTCONT.5312447,TV A DA R DA PORTELA,,5090-014,CANDEDO MUR,-7.371260257113354,41.344056286417434
pt.ine.add.PTCONT.5312472,R DO CORREIO,5,5090-129,MURÇA,-7.453700608223015,41.40722208003898
pt.ine.add.PTCONT.5312539,R HERÓI MILHÕES,1,5090-136,MURÇA,-7.450624766169966,41.408581475131186
pt.ine.add.PTCONT.5312540,R DA INDEPENDÊNCIA,41,5090-121,MURÇA,-7.454701299358051,41.40759714530872
pt.ine.add.PTCONT.5312541,R DE STO AMARO,,5090-200,NOURA,-7.4204993026641395,41.3887882929422
pt.ine.add.PTCONT.5312543,R DO PINOCO,,5090-200,NOURA,-7.419940454762036,41.3863177513948
pt.ine.add.PTCONT.5312544,R 25 DE ABRIL,,5090-210,PALHEIROS,-7.414904343047303,41.4202401845916
pt.ine.add.PTCONT.5312545,R DA ESTRADA VELHA,,5090-210,PALHEIROS,-7.400401524809948,41.41750159367053
pt.ine.add.PTCONT.5312546,R DA ESTRADA VELHA,,5090-210,PALHEIROS,-7.399636157423339,41.417487712967194
pt.ine.add.PTCONT.5312598,R DA FONTE,,5090-210,PALHEIROS,-7.40608697282364,41.41823096056497
pt.ine.add.PTCONT.5312600,R DO ALTO,58,5090-220,VALONGO DE MILHAIS,-7.424861657488306,41.45719073017625
pt.ine.add.PTCONT.5312601,R CENTRAL,,5090-232,VILARES MUR,-7.513872105074945,41.43329482934667
pt.ine.add.PTCONT.5312653,EN 212,,5090-231,VILARES MUR,-7.504372695272393,41.422114490220466
pt.ine.add.PTCONT.5312945,R 25 DE ABRIL,,5090-011,CANDEDO MUR,-7.384043257118549,41.36292250324472
pt.ine.add.PTCONT.5313008,R D MARIA AUGUSTA PINTO,,5090-017,CANDEDO MUR,-7.344376112319559,41.34418131508689
pt.ine.add.PTCONT.5313009,R DO POÇO DA BARREIRA,4,5090-012,CANDEDO MUR,-7.400438881086605,41.370519357236255
pt.ine.add.PTCONT.5313010,R DA ALEGRIA,1,5090-012,CANDEDO MUR,-7.402853169693165,41.366257820615296
pt.ine.add.PTCONT.5313011,R DA ESCOLA,10,5090-016,CANDEDO MUR,-7.374157999671286,41.34350818063621
pt.ine.add.PTCONT.5313012,R DO CIMO DA EIRA,,5090-016,CANDEDO MUR,-7.375616556585852,41.343427749979575
pt.ine.add.PTCONT.5313080,R DA PORTELA,,5090-014,CANDEDO MUR,-7.3652694015451745,41.330240349015966
pt.ine.add.PTCONT.5313081,R CENTRAL,,5090-031,CARVA,-7.55566436249316,41.414261821091266
pt.ine.add.PTCONT.5313082,LG FERREIRA TORRES,,5090-031,CARVA,-7.5571202992685595,41.41327868682211
pt.ine.add.PTCONT.5313083,LG FERREIRA TORRES,,5090-031,CARVA,-7.5571202992685595,41.41327868682211
pt.ine.add.PTCONT.5313084,BR DA CAPELA,,5090-052,FIOLHOSO,-7.501857765705106,41.407586406892506
pt.ine.add.PTCONT.5313085,R DA ROSEIRA,,5090-052,FIOLHOSO,-7.50396904406999,41.40692267622243
pt.ine.add.PTCONT.5313086,R DA ROSEIRA,,5090-052,FIOLHOSO,-7.503681512309766,41.406975127202934
pt.ine.add.PTCONT.5313657,R DA ESCOLA,,5090-220,VALONGO DE MILHAIS,-7.485631425559001,41.44223327143947
pt.ine.add.PTCONT.5313149,R DIREITA,,5090-053,FIOLHOSO,-7.484058576195265,41.39711484806963
pt.ine.add.PTCONT.5313150,R DO CALVÁRIO,,5090-051,FIOLHOSO,-7.483396040084443,41.395202273504246
pt.ine.add.PTCONT.5313151,SIT DE TOUBRES,23,5090-081,JOU,-7.423861073798337,41.46334318311857
pt.ine.add.PTCONT.5313152,SIT MASCANHO,113,5090-077,JOU,-7.470079446883577,41.45950411771161
pt.ine.add.PTCONT.5313153,SIT DO SUIDRO,,5090-100,MURÇA,-7.437359010578672,41.40769166933095
pt.ine.add.PTCONT.5313222,BR DA CRUZ,4,5090-102,MURÇA,-7.447819685133686,41.39895761880619
pt.ine.add.PTCONT.5313223,QTA TELHEIRO,S N,5090-102,MURÇA,-7.44569937659772,41.39931413199082
pt.ine.add.PTCONT.5313403,EN 212,,5090-232,VILARES MUR,-7.518767178724824,41.43438353218586
pt.ine.add.PTCONT.5313394,R MQ DE VALFLOR,49,5090-138,MURÇA,-7.4553418277062535,41.402351634686944
pt.ine.add.PTCONT.5313436,R DO FARELO,,5090-031,CARVA,-7.554877525725163,41.41532033276216
pt.ine.add.PTCONT.5313450,R CENTRAL,23,5090-117,MURÇA,-7.454464091416779,41.40740666417904
pt.ine.add.PTCONT.5313536,EN 212,25,5090-052,FIOLHOSO,-7.5016075156906235,41.408728532253214
pt.ine.add.PTCONT.5313546,BR DA CORTINHA NOVA,64,5090-101,MURÇA,-7.4526041798576825,41.411438435628696
pt.ine.add.PTCONT.5313547,ESTR DE RATIÇO,,5090-143,NOURA,-7.422976197387957,41.40837813315654
pt.ine.add.PTCONT.5313561,R DO CAMPO,70,5090-200,NOURA,-7.432390630277521,41.38924849165702
pt.ine.add.PTCONT.5313571,R DA SOALHEIRA,,5090-014,CANDEDO MUR,-7.37625736811254,41.344836589071946
pt.ine.add.PTCONT.5313572,BR DA GRANJA,,5090-075,JOU,-7.440412241116888,41.49060852416847
pt.ine.add.PTCONT.5313586,R DO CIMO DO POVO,,5090-013,CANDEDO MUR,-7.371592758271888,41.38523360313051
pt.ine.add.PTCONT.5313597,BR NOVO,,5090-052,FIOLHOSO,-7.502049709645617,41.40258127425201
pt.ine.add.PTCONT.5313607,BR DO BANHO,,5090-072,JOU,-7.436803903400942,41.48426607658505
pt.ine.add.PTCONT.5313608,R DE S SEBASTIÃO,,5090-125,MURÇA,-7.459103708348938,41.40515594508163
pt.ine.add.PTCONT.5313632,R DOS FORNOS,,5090-131,MURÇA,-7.457225470899554,41.40983596784155
pt.ine.add.PTCONT.5313633,R DA CUMIEIRA,,5090-200,NOURA,-7.4184482031609,41.391575795618955
pt.ine.add.PTCONT.5313656,BR DE FREIRIA,,5090-074,JOU,-7.432125760314211,41.4817165984925
pt.ine.add.PTCONT.5313688,EN 314,,5090-017,CANDEDO MUR,-7.343828922920553,41.34596035253606
pt.ine.add.PTCONT.5313689,R DIREITA,,5090-032,CARVA,-7.5503022630709795,41.43607826995286
pt.ine.add.PTCONT.5313690,EN 15,,5090-053,FIOLHOSO,-7.493270819799771,41.394177134876585
pt.ine.add.PTCONT.5313712,,,5090-079,JOU,-7.469305040852768,41.48614195049702
pt.ine.add.PTCONT.5313713,R DA CAPELA,,5090-210,PALHEIROS,-7.408936954430795,41.43409575689402
pt.ine.add.PTCONT.5314492,R DA GRICHA,,5090-232,VILARES MUR,-7.513961852965214,41.431404495243974
pt.ine.add.PTCONT.5314539,CRZT DE CURROS,,5090-076,JOU,-7.4349868433276765,41.49291670433126
pt.ine.add.PTCONT.5314540,R HERÓI MILHÕES,7,5090-136,MURÇA,-7.445953566057291,41.408103476323134
pt.ine.add.PTCONT.5314554,R DA ROSEIRA,,5090-052,FIOLHOSO,-7.503792529576736,41.40662458125714
pt.ine.add.PTCONT.5314555,R CENTRAL,,5090-052,FIOLHOSO,-7.503805878309651,41.406480591404375
pt.ine.add.PTCONT.5314556,R HERÓI MILHÕES,14,5090-136,MURÇA,-7.451653245800991,41.40973106815731
pt.ine.add.PTCONT.5314557,BR DA CORTINHA NOVA,,5090-101,MURÇA,-7.4514360045451475,41.40991886342055
pt.ine.add.PTCONT.5314567,R 1 DE MAIO,5,5090-014,CANDEDO MUR,-7.375683595426378,41.3448598262891
pt.ine.add.PTCONT.5314568,EN 212,,5090-052,FIOLHOSO,-7.4999567011787205,41.40383933049078
pt.ine.add.PTCONT.5314589,R DA ESCOLA,64,5090-013,CANDEDO MUR,-7.371544353386815,41.38323441002245
pt.ine.add.PTCONT.5314590,R NOVA,16,5090-076,JOU,-7.431298208622352,41.48628547856826
pt.ine.add.PTCONT.5314606,AV DA PORTELA,13,5090-014,CANDEDO MUR,-7.370458868015797,41.3441320145628
pt.ine.add.PTCONT.5314607,BR DE S DOMINGOS,5,5090-051,FIOLHOSO,-7.4860939323462885,41.39685619300396
pt.ine.add.PTCONT.5314608,EN 15,7,5090-053,FIOLHOSO,-7.490119609860109,41.39605039694081
pt.ine.add.PTCONT.5314609,R DA INDEPENDÊNCIA,12,5090-121,MURÇA,-7.454958238183956,41.40704041717257
pt.ine.add.PTCONT.5314642,TV FERREIRA TORRES,1,5090-011,CANDEDO MUR,-7.383040146866336,41.36285294165055
pt.ine.add.PTCONT.5314643,R ENG BESSA,4,5090-051,FIOLHOSO,-7.483357928787875,41.39542715684597
pt.ine.add.PTCONT.5314644,EN 314,,5090-074,JOU,-7.430727399210403,41.47926803863052
pt.ine.add.PTCONT.5314645,TV JANUÁRIO,4,5090-141,MURÇA,-7.454567255360256,41.40668695927039
pt.ine.add.PTCONT.5314646,R DAS POÇAS,,5090-200,NOURA,-7.416245701053336,41.389626249247996
pt.ine.add.PTCONT.5314647,R DA ESCOLA,57,5090-220,VALONGO DE MILHAIS,-7.485887436316747,41.441757506938146
pt.ine.add.PTCONT.5314673,URB SOL NASCENTE,25,5090-137,MURÇA,-7.447970988672855,41.40504517194443
pt.ine.add.PTCONT.5314686,BR DAS ÁRVORES,,5090-105,MURÇA,-7.462616257839215,41.401998082549206
pt.ine.add.PTCONT.5314696,,,5090-079,JOU,-7.464912437206918,41.48596345120777
pt.ine.add.PTCONT.5314697,,,5090-079,JOU,-7.464912437206918,41.48596345120777
pt.ine.add.PTCONT.5314714,R CENTRAL,,5090-031,CARVA,-7.558129627872319,41.41275250337955
pt.ine.add.PTCONT.5314715,BR DO PINHEIRINHO,7,5090-106,MURÇA,-7.443656291993094,41.4093322731411
pt.ine.add.PTCONT.5314716,BR DA BARROCA,1,5090-103,MURÇA,-7.4572956708488904,41.412294448013405
pt.ine.add.PTCONT.5314717,BR DO SEIXO,,5090-107,MURÇA,-7.451899859937908,41.402151229545524
pt.ine.add.PTCONT.5315537,R DA CUMIEIRA,44,5090-200,NOURA,-7.41991152809085,41.38896473004523
pt.ine.add.PTCONT.5315625,LG DO SENHOR DO BOM CAMINHO,5,5090-012,CANDEDO MUR,-7.401481065785433,41.36711348606457
pt.ine.add.PTCONT.5315626,R DO CALVÁRIO,,5090-031,CARVA,-7.557866576360946,41.41003200080023
pt.ine.add.PTCONT.5315627,R DA PORTELA,,5090-052,FIOLHOSO,-7.504120612791827,41.411047302675534
pt.ine.add.PTCONT.5315628,BR PINHEIRINHO,10,5090-106,MURÇA,-7.44349324481406,41.408917116081994
pt.ine.add.PTCONT.5315629,BR DO SEIXO,11,5090-107,MURÇA,-7.451042288503867,41.40067850935384
pt.ine.add.PTCONT.5315647,BR DO PINHEIRINHO,9,5090-106,MURÇA,-7.445001787545774,41.40876407758173
pt.ine.add.PTCONT.5315648,BR DAS ÁRVORES,6,5090-105,MURÇA,-7.459101650092701,41.40072600221868
pt.ine.add.PTCONT.5315649,BR DAS ÁRVORES,6,5090-105,MURÇA,-7.459101650092701,41.40072600221868
pt.ine.add.PTCONT.5315660,R DO PONTÃO,53,5090-200,NOURA,-7.425445553479975,41.3891159490475
pt.ine.add.PTCONT.5315675,R DO SOUTO,11,5090-052,FIOLHOSO,-7.505486074865182,41.40711103995161
pt.ine.add.PTCONT.5315676,,,5090-077,JOU,-7.46961492259846,41.46045584619023
pt.ine.add.PTCONT.5315692,TV DA ALDEIA,,5090-013,CANDEDO MUR,-7.371212527921282,41.3850329996627
pt.ine.add.PTCONT.5315693,BR NOVO,,5090-052,FIOLHOSO,-7.502312901196708,41.403807252455984
pt.ine.add.PTCONT.5315694,R EIRAS,7,5090-076,JOU,-7.430809670630123,41.488281337344276
pt.ine.add.PTCONT.5315708,EN 212,,5090-052,FIOLHOSO,-7.499489417755906,41.40146872350277
pt.ine.add.PTCONT.5315709,BR DO BANHO,4,5090-072,JOU,-7.437689638678941,41.48541491690253
pt.ine.add.PTCONT.5315710,R FUNDO,3,5090-220,VALONGO DE MILHAIS,-7.424041067142756,41.45451153618202
pt.ine.add.PTCONT.5315719,EN 314,,5090-076,JOU,-7.432270137377813,41.47720657470636
pt.ine.add.PTCONT.5315732,R DO FORNO,1,5090-016,CANDEDO MUR,-7.3750372617950175,41.34392815938101
pt.ine.add.PTCONT.5315733,R DO FORNO,3,5090-016,CANDEDO MUR,-7.374954051171602,41.34389159527067
pt.ine.add.PTCONT.5315734,BR DO BANHO,29,5090-072,JOU,-7.436918381832603,41.48252003340511
pt.ine.add.PTCONT.5315735,R DA CUMIEIRA,,5090-200,NOURA,-7.418649155810409,41.39069465813576
pt.ine.add.PTCONT.5315763,R DE STA TERESA,,5090-011,CANDEDO MUR,-7.382249247717171,41.36303686722138
pt.ine.add.PTCONT.5315764,R MANUEL MORAIS DA FONSECA,40,5090-137,MURÇA,-7.4546457684397165,41.4061216997983
pt.ine.add.PTCONT.5315777,R FERNÃO DE MAGALHÃES,,5090-133,MURÇA,-7.452913648499537,41.40584883493514
pt.ine.add.PTCONT.5315778,R ALFREDO PINTO,,5090-115,MURÇA,-7.455541529056978,41.4049999640624
pt.ine.add.PTCONT.5315791,R DIREITA,,5090-032,CARVA,-7.549682542508305,41.435805012033164
pt.ine.add.PTCONT.5315799,,,5090-105,MURÇA,-7.462609150276045,41.40385284973218
pt.ine.add.PTCONT.5315800,R DO CRUZEIRO,,5090-200,NOURA,-7.428658521275198,41.39605968875067
pt.ine.add.PTCONT.5315801,QTA DO REBENTÃO,723,5090-200,NOURA,-7.412083547323774,41.37893057243981
pt.ine.add.PTCONT.5315817,,,5090-071,JOU,-7.426484443024465,41.47638784583731
pt.ine.add.PTCONT.5316548,SIT DAS MACIEIRAS,37,5090-123,MURÇA,-7.453933419213026,41.412427715982304
pt.ine.add.PTCONT.5316564,URB DA MAROA,9,5090-147,MURÇA,-7.456439808058901,41.40948019724431
pt.ine.add.PTCONT.5316579,R MELITÃO BESSA RIBEIRO,1,5090-139,MURÇA,-7.452061420300351,41.40729342425613
pt.ine.add.PTCONT.5316580,R MELITÃO BESSA RIBEIRO,1,5090-139,MURÇA,-7.452061420300351,41.40729342425613
pt.ine.add.PTCONT.5316581,R MELITÃO BESSA RIBEIRO,1,5090-139,MURÇA,-7.452061420300351,41.40729342425613
pt.ine.add.PTCONT.5316582,R MELITÃO BESSA RIBEIRO,1,5090-139,MURÇA,-7.452061420300351,41.40729342425613
pt.ine.add.PTCONT.5316583,R MELITÃO BESSA RIBEIRO,1,5090-139,MURÇA,-7.452061420300351,41.40729342425613
pt.ine.add.PTCONT.5316596,R MELITÃO BESSA RIBEIRO,1,5090-139,MURÇA,-7.452061420300351,41.40729342425613
pt.ine.add.PTCONT.5316603,BR DO PINHEIRINHO,4,5090-106,MURÇA,-7.443856646072999,41.40961259478457
pt.ine.add.PTCONT.5316604,R CENTRAL,10,5090-231,VILARES MUR,-7.50333373570481,41.42069519453571
pt.ine.add.PTCONT.5316622,ESTR DE RATIÇO,5,5090-143,NOURA,-7.418691879459089,41.408630731399775
pt.ine.add.PTCONT.5316623,ESTR DE RATIÇO,,5090-143,NOURA,-7.426740404727514,41.4086624178222
pt.ine.add.PTCONT.5316632,R CENTRAL,,5090-052,FIOLHOSO,-7.504255186331468,41.407014279783155
pt.ine.add.PTCONT.5316633,R SEM DESIGNACAO,112,5090-077,JOU,-7.470004518594831,41.45980981633789
pt.ine.add.PTCONT.5316647,R DA CRUZ,,5090-014,CANDEDO MUR,-7.375485805836719,41.34852314844182
pt.ine.add.PTCONT.5316648,R CENTRAL,9,5090-015,CANDEDO MUR,-7.375963175972126,41.34444748226097
pt.ine.add.PTCONT.5316649,LG DAS ROSAS,145,5090-200,NOURA,-7.431868132958521,41.3900286512489
pt.ine.add.PTCONT.5316650,R DA VEIGA,,5090-210,PALHEIROS,-7.366183900800236,41.404988280974806
pt.ine.add.PTCONT.5316693,R DA PONTE,,5090-013,CANDEDO MUR,-7.3712307095926874,41.38347543995089
pt.ine.add.PTCONT.5316694,R DE STO ANTÓNIO,29,5090-220,VALONGO DE MILHAIS,-7.423115166429691,41.454910997795
pt.ine.add.PTCONT.5316704,AV DA PORTELA,,5090-014,CANDEDO MUR,-7.372112783270553,41.34471921825799
pt.ine.add.PTCONT.5316705,R DA LARANJEIRA,9,5090-122,MURÇA,-7.456788281226446,41.40586267171661
pt.ine.add.PTCONT.5316720,AV PRINCIPAL,12,5090-011,CANDEDO MUR,-7.379280866092906,41.36135172687001
pt.ine.add.PTCONT.5316729,R DA EIRA,19,5090-119,MURÇA,-7.455783386617046,41.40704527766353
pt.ine.add.PTCONT.5316730,R CORTINHAS,,5090-200,NOURA,-7.419219539042978,41.38992385999953
pt.ine.add.PTCONT.5316731,R COMEND CARDOSO COSTA,,5090-220,VALONGO DE MILHAIS,-7.486714651603032,41.43918705033997
pt.ine.add.PTCONT.5316751,R FRANCISCO TEIXEIRA MAGALHÃES,,5090-011,CANDEDO MUR,-7.384417847676718,41.36256478220629
pt.ine.add.PTCONT.5316752,R FRANCISCO TEIXEIRA MAGALHÃES,2,5090-011,CANDEDO MUR,-7.3849820917892695,41.36234335254898
pt.ine.add.PTCONT.5316762,LG DA IGREJA,1,5090-011,CANDEDO MUR,-7.38422622931526,41.36259955126158
pt.ine.add.PTCONT.5316763,URB SOL NASCENTE,24,5090-137,MURÇA,-7.447755171838356,41.40509791012498
pt.ine.add.PTCONT.5316781,BR DE STA BÁRBARA,,5090-031,CARVA,-7.555017819255783,41.41163843079492
pt.ine.add.PTCONT.5316782,BR NOVO DA REDE,,5090-210,PALHEIROS,-7.4015831091470465,41.435850003126326
pt.ine.add.PTCONT.5316801,TV DO TERREIRO,,5090-017,CANDEDO MUR,-7.344353305075916,41.344091118920936
pt.ine.add.PTCONT.5316802,R COMEND AMÉRICO BREIA,15,5090-118,MURÇA,-7.454158528785335,41.403443136930875
pt.ine.add.PTCONT.5316811,,,5090-144,MURÇA,-7.437645977486476,41.40881889314973
pt.ine.add.PTCONT.5316812,R DE S PEDRO,,5090-210,PALHEIROS,-7.4148327324333865,41.421311199980245
pt.ine.add.PTCONT.5316813,R DE S PEDRO,,5090-210,PALHEIROS,-7.414739523504717,41.421085520886294
pt.ine.add.PTCONT.5316814,R DOS EIRÓS,,5090-232,VILARES MUR,-7.512268464504305,41.433340209827115
pt.ine.add.PTCONT.5316815,R CENTRAL,22,5090-232,VILARES MUR,-7.513795976012388,41.43249307331933
pt.ine.add.PTCONT.5317484,,,5090-012,CANDEDO MUR,-7.4031737923629874,41.35895763268596
pt.ine.add.PTCONT.5317511,BR DO PINHEIRINHO,19,5090-106,MURÇA,-7.444452340845896,41.40869776285525
pt.ine.add.PTCONT.5317577,R DE S JOÃO,,5090-031,CARVA,-7.559755220833348,41.41014947502118
pt.ine.add.PTCONT.5317578,R DE S FRANCISCO,,5090-232,VILARES MUR,-7.513884255190033,41.43201634227189
pt.ine.add.PTCONT.5317595,R CENTRAL,36,5090-052,FIOLHOSO,-7.503830808300195,41.407615222708735
pt.ine.add.PTCONT.5317596,ESTR DE RATIÇO,821,5090-143,NOURA,-7.419050744189658,41.4086239552358
pt.ine.add.PTCONT.5317597,R DO FUNDO,,5090-210,PALHEIROS,-7.399755843523196,41.415354554233524
pt.ine.add.PTCONT.5317598,R DO FUNDO,90,5090-210,PALHEIROS,-7.3996370532844375,41.41528176586703
pt.ine.add.PTCONT.5317622,EN 314,,5090-076,JOU,-7.434901735973768,41.487459894843255
pt.ine.add.PTCONT.5317623,LG DE FREIRIA,24,5090-074,JOU,-7.431601919720483,41.48255075775512
pt.ine.add.PTCONT.5317624,R DA VEIGA,,5090-210,PALHEIROS,-7.365763450239166,41.40616498812793
pt.ine.add.PTCONT.5317635,R DA MIMOSA,3,5090-016,CANDEDO MUR,-7.376444535084842,41.34311805680431
pt.ine.add.PTCONT.5317661,BR DA RASA,,5090-011,CANDEDO MUR,-7.389064536665009,41.363819459165306
pt.ine.add.PTCONT.5317662,EN 15,,5090-053,FIOLHOSO,-7.484352135282225,41.400060791009395
pt.ine.add.PTCONT.5317663,R DIREITA,5,5090-220,VALONGO DE MILHAIS,-7.44364302433465,41.44451036689991
pt.ine.add.PTCONT.5317667,R DE STA MARIA MADALENA,,5090-011,CANDEDO MUR,-7.3779666669663975,41.36131609873356
pt.ine.add.PTCONT.5317668,R DO FORNO,,5090-016,CANDEDO MUR,-7.374912250777026,41.34383286686478
pt.ine.add.PTCONT.5317682,BR DE FREIRIA,,5090-074,JOU,-7.431191918512857,41.48171090347386
pt.ine.add.PTCONT.5317693,R DA CUMIEIRA,,5090-200,NOURA,-7.418900880720569,41.389543717257745
pt.ine.add.PTCONT.5317694,R DA CUMIEIRA,,5090-200,NOURA,-7.4185940113400815,41.39027113082892
pt.ine.add.PTCONT.5317725,R DA LAMEIRA,,5090-031,CARVA,-7.553164623969448,41.41963359421652
pt.ine.add.PTCONT.5317726,R ALFREDO PINTO,23,5090-115,MURÇA,-7.455448623156318,41.40467846945949
pt.ine.add.PTCONT.5317727,TV DO CASTELO,32,5090-200,NOURA,-7.420772671163217,41.386746091549355
pt.ine.add.PTCONT.5317743,R DO VALE DE CABEDA,,5090-031,CARVA,-7.555346303112372,41.41371098473489
pt.ine.add.PTCONT.5317744,BR JOAQUIM FERREIRA TORRES,,5090-110,MURÇA,-7.450721238117533,41.41650548598284
pt.ine.add.PTCONT.5317754,R CENTRAL,,5090-031,CARVA,-7.558063713994547,41.41344547658822
pt.ine.add.PTCONT.5317755,R DA PORTELA,,5090-232,VILARES MUR,-7.517998624172028,41.43341600933138
pt.ine.add.PTCONT.5317767,R CENTRAL,16,5090-232,VILARES MUR,-7.514670164763522,41.43240773701479
pt.ine.add.PTCONT.5318438,URB DO PAÇO,2,5090-116,MURÇA,-7.45305217420243,41.40632686144342
pt.ine.add.PTCONT.5318440,BR PINHEIRINHO,S N,5090-106,MURÇA,-7.445549621656538,41.40898344655174
pt.ine.add.PTCONT.5318457,,,5090-144,MURÇA,-7.439619588497898,41.4087947901846
pt.ine.add.PTCONT.5318476,ESTR DE RATIÇO,,5090-200,NOURA,-7.426107266482862,41.408595501670206
pt.ine.add.PTCONT.5318506,BR STA BARBARA,,5090-031,CARVA,-7.555827495018705,41.41204767301776
pt.ine.add.PTCONT.5318993,LG DE S BENTO,4,5090-011,CANDEDO MUR,-7.382958207859064,41.3637438002477
pt.ine.add.PTCONT.5318994,R DA FRAGA,,5090-011,CANDEDO MUR,-7.383143151902603,41.36324978753463
pt.ine.add.PTCONT.5318995,R FONTES E MELO,15,5090-011,CANDEDO MUR,-7.382802069847417,41.36277035393078
pt.ine.add.PTCONT.5319049,R DA CAPELA VELHA,,5090-012,CANDEDO MUR,-7.403293548255051,41.36642268574867
pt.ine.add.PTCONT.5319050,EN 212,,5090-032,CARVA,-7.553159833182016,41.43899196367931
pt.ine.add.PTCONT.5319104,LG FERREIRA TORRES,,5090-031,CARVA,-7.556984363241555,41.41377322233466
pt.ine.add.PTCONT.5319105,LG DE S PEDRO,,5090-052,FIOLHOSO,-7.486238139328605,41.39437191581433
pt.ine.add.PTCONT.5319149,R DO CRUZEIRO,,5090-081,JOU,-7.422694584601297,41.46384019887623
pt.ine.add.PTCONT.5319150,R DAS EIRAS,,5090-076,JOU,-7.431553001333212,41.488195835886955
pt.ine.add.PTCONT.5319151,CIMO,,5090-076,JOU,-7.43139032668262,41.48773565042971
pt.ine.add.PTCONT.5319152,BR DO PINHEIRINHO,2,5090-106,MURÇA,-7.443108886578857,41.4079423891918
pt.ine.add.PTCONT.5319203,,,5090-212,MURÇA,-7.439112599432265,41.41035841346977
pt.ine.add.PTCONT.5319204,R MANUEL MORAIS DA FONSECA,75,5090-137,MURÇA,-7.454327708427072,41.406721561981904
pt.ine.add.PTCONT.5319205,QTA DA RIBEIRA,,5090-102,MURÇA,-7.4495653317892,41.389847015903506
pt.ine.add.PTCONT.5319273,BR HERÓI MILHÕES,44,5090-109,MURÇA,-7.447257648430571,41.408057233857804
pt.ine.add.PTCONT.5319274,R DE NSA SRA DE FÁTIMA,,5090-200,NOURA,-7.431024273910623,41.39067178890719
pt.ine.add.PTCONT.5319322,R DAS POÇAS,,5090-200,NOURA,-7.412950389325748,41.38920949895947
pt.ine.add.PTCONT.5319323,R DAS CORTINHAS,,5090-200,NOURA,-7.419725998417847,41.38953082791897
pt.ine.add.PTCONT.5319324,TV DA LAMEIRA,,5090-200,NOURA,-7.4193797266597,41.39058214093831
pt.ine.add.PTCONT.5319325,R DO CRUZEIRO,,5090-200,NOURA,-7.428489864900734,41.39617570711328
pt.ine.add.PTCONT.5319326,R PRINCIPAL,,5090-210,PALHEIROS,-7.414667405509413,41.42003161585388
pt.ine.add.PTCONT.5319380,R DIREITA,17 B,5090-220,VALONGO DE MILHAIS,-7.443393369246078,41.44435580480125
pt.ine.add.PTCONT.5319381,R CENTRAL,,5090-232,VILARES MUR,-7.517816108464847,41.43373917337528
pt.ine.add.PTCONT.5319382,R DOS BARREIROS,,5090-231,VILARES MUR,-7.505620510747726,41.42172513075833
pt.ine.add.PTCONT.5319429,BR DO PINHEIRINHO,22,5090-106,MURÇA,-7.444023407718874,41.40967662103798
pt.ine.add.PTCONT.5319498,R DA ESCOLA,,5090-016,CANDEDO MUR,-7.3737901814414135,41.34431611391933
pt.ine.add.PTCONT.5319441,R DE STA TERESA,,5090-011,CANDEDO MUR,-7.382464769201763,41.36300225738633
pt.ine.add.PTCONT.5319448,R DOS BARREIROS,,5090-231,VILARES MUR,-7.505214340619526,41.42166889134938
pt.ine.add.PTCONT.5319478,PC 5 OUTUBRO,35,5090-112,MURÇA,-7.454142853331298,41.40839519967158
pt.ine.add.PTCONT.5319490,TV DA LARANJEIRA,6,5090-011,CANDEDO MUR,-7.3857966710754726,41.363222030184495
pt.ine.add.PTCONT.5319541,SIT DO CERCO,23,5090-111,MURÇA,-7.453211090398612,41.408290654362396
pt.ine.add.PTCONT.5319542,R HEROI MILHOES,5,5090-136,MURÇA,-7.45103880916684,41.40901611822459
pt.ine.add.PTCONT.5319544,BR HEROI MILHOES,7,5090-109,MURÇA,-7.4473753433928325,41.40823801364741
pt.ine.add.PTCONT.5320232,R DA EIRA DOS MONTEIROS,,5090-013,CANDEDO MUR,-7.371155881084156,41.38578895463964
pt.ine.add.PTCONT.5320233,R FONTES E MELO,,5090-011,CANDEDO MUR,-7.383359913789346,41.3631071365047
pt.ine.add.PTCONT.5320234,R FRANCISCO TEIXEIRA MAGALHÃES,,5090-011,CANDEDO MUR,-7.38427485644494,41.362527835952456
pt.ine.add.PTCONT.5320235,R DE STA BÁRBARA,14,5090-012,CANDEDO MUR,-7.403370223429708,41.36918738925787
pt.ine.add.PTCONT.5320236,R DA ALEGRIA,28,5090-012,CANDEDO MUR,-7.404693634615501,41.36626948516511
pt.ine.add.PTCONT.5320270,R CENTRAL,22,5090-012,CANDEDO MUR,-7.404175517971815,41.36664437103518
pt.ine.add.PTCONT.5320271,R DA ROSEIRA,,5090-052,FIOLHOSO,-7.503330660812434,41.406153849801484
pt.ine.add.PTCONT.5320272,BR NOVO,,5090-052,FIOLHOSO,-7.50136288462895,41.40435128008438
pt.ine.add.PTCONT.5320314,,,5090-071,JOU,-7.426101164566716,41.47640349819548
pt.ine.add.PTCONT.5320315,,,5090-071,JOU,-7.423877836145504,41.47498521730895
pt.ine.add.PTCONT.5320316,SIT ABOLEIRA,16,5090-071,JOU,-7.428700993366375,41.47623036922687
pt.ine.add.PTCONT.5320317,R CENTRAL,,5090-081,JOU,-7.425142293887328,41.46110011960931
pt.ine.add.PTCONT.5320318,,,5090-077,JOU,-7.471273511833116,41.46096061195419
pt.ine.add.PTCONT.5320319,R NOVA,51,5090-076,JOU,-7.431358536222826,41.48513336157433
pt.ine.add.PTCONT.5320346,EN 314,,5090-076,JOU,-7.432978781568491,41.47699479904815
pt.ine.add.PTCONT.5320347,BR JOAQUIM FERREIRA TORRES,5,5090-110,MURÇA,-7.451241750101986,41.41591431448177
pt.ine.add.PTCONT.5320348,EN 15,,5090-102,MURÇA,-7.4674024243528025,41.40406976485773
pt.ine.add.PTCONT.5320349,BR DO TOURAL,2,5090-108,MURÇA,-7.452731412660844,41.411853367923186
pt.ine.add.PTCONT.5320350,R DA LARANJEIRA,1,5090-122,MURÇA,-7.457307066381345,41.40542452794493
pt.ine.add.PTCONT.5320397,R MQ DE VALFLOR,49,5090-138,MURÇA,-7.457111476682977,41.401218546766344
pt.ine.add.PTCONT.5320398,R MQ DE VALFLOR,74,5090-138,MURÇA,-7.454616117503247,41.40313970282675
pt.ine.add.PTCONT.5320399,R DA CUMIEIRA,1118,5090-200,NOURA,-7.418049815776768,41.39192447389479
pt.ine.add.PTCONT.5320432,R DAS LADEIRAS,,5090-210,PALHEIROS,-7.3992277782932,41.416575716067776
pt.ine.add.PTCONT.5320433,EN 212,,5090-232,VILARES MUR,-7.518713889662023,41.434959496476225
pt.ine.add.PTCONT.5320475,R CENTRAL,43,5090-200,NOURA,-7.431635023563342,41.38946898620763
pt.ine.add.PTCONT.5320509,EN 15,,5090-105,MURÇA,-7.465866238354014,41.40577161190783
pt.ine.add.PTCONT.5320599,R DO FERREIRO,,5090-013,CANDEDO MUR,-7.371134522974193,41.38454627089955
pt.ine.add.PTCONT.5320600,R DA MÁQUINA,1,5090-011,CANDEDO MUR,-7.385874450787644,41.36269130114888
pt.ine.add.PTCONT.5320601,LG DO CAMPO DA IGUALDADE,,5090-011,CANDEDO MUR,-7.38557702891324,41.363616778178915
pt.ine.add.PTCONT.5320602,R D MARIA AUGUSTA PINTO,,5090-017,CANDEDO MUR,-7.344243936121949,41.344243437055
pt.ine.add.PTCONT.5320666,R DE S JOSÉ,,5090-017,CANDEDO MUR,-7.345372031810845,41.34283753816088
pt.ine.add.PTCONT.5320667,R DA ALEGRIA,35,5090-012,CANDEDO MUR,-7.405166459364536,41.3667406834034
pt.ine.add.PTCONT.5320668,R DA ALEGRIA,26,5090-012,CANDEDO MUR,-7.4045370653999925,41.3663765416133
pt.ine.add.PTCONT.5320669,R DA CAPELA VELHA,3,5090-012,CANDEDO MUR,-7.402904195156585,41.36597001744232
pt.ine.add.PTCONT.5320670,R DA CRUZ,3,5090-014,CANDEDO MUR,-7.375247849786835,41.34740508714885
pt.ine.add.PTCONT.5320671,R DO VALE,,5090-032,CARVA,-7.55004819429939,41.4363921188197
pt.ine.add.PTCONT.5320730,R DA VIDOSA,,5090-052,FIOLHOSO,-7.503054781945991,41.40995199640748
