id,street,house,postcode,city,lon,lat
pt.ine.add.PTCONT.290991,EN 327,,3870-301,TORREIRA,-8.698383218922773,40.7414284934758
pt.ine.add.PTCONT.290939,R BESTIDA,71,3870-035,BUNHEIRO,-8.666909222158772,40.758588734328214
pt.ine.add.PTCONT.290940,BC ESTEIRO,3,3870-018,BUNHEIRO,-8.659538367897783,40.75797423426921
pt.ine.add.PTCONT.290941,R BESTIDA,22A,3870-035,BUNHEIRO,-8.67446857772402,40.76052560716572
pt.ine.add.PTCONT.290948,R CELEIRO,10,3870-015,BUNHEIRO,-8.640897621220883,40.77808475723502
pt.ine.add.PTCONT.290952,R CASAL,31,3870-014,BUNHEIRO,-8.642018077277534,40.7727849198567
pt.ine.add.PTCONT.290953,R D MARIA DAS DORES TAVARES DE SOUSA,63,3870-164,MURTOSA,-8.651514926105275,40.746886130736385
pt.ine.add.PTCONT.290954,R ALEXANDRE HERCULANO,13,3870-116,MURTOSA,-8.648166613352243,40.74376167026559
pt.ine.add.PTCONT.290955,R PERCURSORES,24 B,3870-211,MURTOSA,-8.653387103165299,40.749726565168594
pt.ine.add.PTCONT.290956,R PERCURSORES,24 B,3870-211,MURTOSA,-8.653387103165299,40.749726565168594
pt.ine.add.PTCONT.290957,R PERCURSORES,24 B,3870-211,MURTOSA,-8.653387103165299,40.749726565168594
pt.ine.add.PTCONT.290958,R PERCURSORES,24 B,3870-211,MURTOSA,-8.653387103165299,40.749726565168594
pt.ine.add.PTCONT.290959,R PERCURSORES,24 B,3870-211,MURTOSA,-8.653387103165299,40.749726565168594
pt.ine.add.PTCONT.290960,R JOÃO JOSE VIEIRA,9,3870-285,MURTOSA,-8.643395732625764,40.7515811723542
pt.ine.add.PTCONT.290961,R PROF MATOS CALADO,,3870-292,MURTOSA,-8.642799016038092,40.75097147102149
pt.ine.add.PTCONT.290962,BC FEITAL,24,3870-021,BUNHEIRO,-8.639347207984683,40.764223958690614
pt.ine.add.PTCONT.290963,R CÓNEGO MANUEL NEDIO DE SOUSA,26,3870-049,BUNHEIRO,-8.650504522195243,40.762796719376894
pt.ine.add.PTCONT.290964,R RATO,75,3870-130,MURTOSA,-8.634144932115483,40.75361877592941
pt.ine.add.PTCONT.290965,BC ENTRADA DE SEDOUROS,16,3870-019,BUNHEIRO,-8.635233495209864,40.760540893432335
pt.ine.add.PTCONT.290966,BC ENTRADA DE SEDOUROS,16,3870-019,BUNHEIRO,-8.635233495209864,40.760540893432335
pt.ine.add.PTCONT.290967,R SANTO ESTEVÃO,80,3870-137,MURTOSA,-8.63632562460896,40.7467495280027
pt.ine.add.PTCONT.290968,R RATO,64,3870-130,MURTOSA,-8.633599831420979,40.75273167956132
pt.ine.add.PTCONT.290969,R RATO,76,3870-130,MURTOSA,-8.633533308666014,40.75333530108958
pt.ine.add.PTCONT.290970,R EMIGRANTE,38,3870-304,TORREIRA,-8.69665065278511,40.777411731070735
pt.ine.add.PTCONT.290971,R D DINIS,37,3870-162,MURTOSA,-8.636087460131764,40.732423624584726
pt.ine.add.PTCONT.290972,R INF D HENRIQUE,8 B,3870-222,MURTOSA,-8.635328355675464,40.73852331369288
pt.ine.add.PTCONT.290973,BC COVAL,3,3870-148,MURTOSA,-8.636800512040345,40.731222849711266
pt.ine.add.PTCONT.290974,R LAVOURA,50,3870-233,MURTOSA,-8.633515135775372,40.73669417008156
pt.ine.add.PTCONT.290975,R SAUDADE,14,3870-159,MURTOSA,-8.636982571386012,40.7302495145494
pt.ine.add.PTCONT.290976,R SAUDADE,42,3870-159,MURTOSA,-8.636982571386012,40.7302495145494
pt.ine.add.PTCONT.290977,R PROF ALIPIO PORTUGAL,,3870-173,MURTOSA,-8.636092636577812,40.7378266011205
pt.ine.add.PTCONT.290978,R D DINIS,4,3870-162,MURTOSA,-8.63643580504103,40.73466435132193
pt.ine.add.PTCONT.290979,R OUTEIRO DO PISCO,,3870-176,MURTOSA,-8.645119865211884,40.73707551492149
pt.ine.add.PTCONT.290980,EN 327,,3870-303,TORREIRA,-8.675638489740528,40.79807063572736
pt.ine.add.PTCONT.290981,CAM MAR,120,3870-303,TORREIRA,-8.676366698731275,40.795824990914426
pt.ine.add.PTCONT.290982,CAM MAR,168,3870-303,TORREIRA,-8.676984777219033,40.79896478694441
pt.ine.add.PTCONT.290983,R ARRAIS ROBERTO,10,3870-334,TORREIRA,-8.708797060726113,40.76008932393029
pt.ine.add.PTCONT.290984,R SALVADORES DO NATHALIE,8,3870-410,TORREIRA,-8.707320843302782,40.76332044733395
pt.ine.add.PTCONT.290985,BC AREIAS,17,3870-393,TORREIRA,-8.707747470338099,40.76197658778239
pt.ine.add.PTCONT.290986,BC AREIAS,17,3870-393,TORREIRA,-8.707747470338099,40.76197658778239
pt.ine.add.PTCONT.290987,BC AREIAS,17,3870-393,TORREIRA,-8.707747470338099,40.76197658778239
pt.ine.add.PTCONT.290988,R NAVEGANTES,58,3870-351,TORREIRA,-8.713007402840882,40.75943789868632
pt.ine.add.PTCONT.290989,LG VARINA,140,3870-404,TORREIRA,-8.712676652883584,40.76089836084858
pt.ine.add.PTCONT.290990,EN 327,,3870-301,TORREIRA,-8.700538273937058,40.74564125029234
pt.ine.add.PTCONT.290992,R NAVEGANTES,17,3870-351,TORREIRA,-8.710606497340986,40.758432378905795
pt.ine.add.PTCONT.290994,URB TORREIRINHA,,3870-366,TORREIRA,-8.70904964171915,40.756423050521946
pt.ine.add.PTCONT.290995,AV DESCOBRIMENTOS,,3870-321,TORREIRA,-8.704811599877319,40.759352720366344
pt.ine.add.PTCONT.290996,AV DESCOBRIMENTOS,,3870-321,TORREIRA,-8.704811599877319,40.759352720366344
pt.ine.add.PTCONT.291707,AV S MATEUS,46,3870-059,BUNHEIRO,-8.64331841874037,40.75850633305006
pt.ine.add.PTCONT.291736,R PERCURSORES,24,3870-211,MURTOSA,-8.653387103165299,40.749726565168594
pt.ine.add.PTCONT.291758,EN 327,507,3870-303,TORREIRA,-8.676340275396903,40.7925833519854
pt.ine.add.PTCONT.291881,R CHÃO DE SENHOR,24,3870-032,BUNHEIRO,-8.634236359874853,40.78387703031748
pt.ine.add.PTCONT.291882,BC CHÃO DO SENHOR,8,3870-144,MURTOSA,-8.650399728380624,40.74316635944612
pt.ine.add.PTCONT.292144,R ARRAIS JOÃO FAUSTINO,71,3870-332,TORREIRA,-8.71254474294333,40.76018230457148
pt.ine.add.PTCONT.292145,R ARRAIS ROBERTO,8,3870-334,TORREIRA,-8.70875124557674,40.760269651330326
pt.ine.add.PTCONT.292271,BC CAMINHO DA IGREJA,13,3870-014,BUNHEIRO,-8.640985147855007,40.77402314686764
pt.ine.add.PTCONT.292272,R MANUEL JOSE DIAS,63,3870-031,BUNHEIRO,-8.653009801177165,40.769692254504356
pt.ine.add.PTCONT.292273,R ARRAIS JOÃO FAUSTINO,8,3870-332,TORREIRA,-8.707340392700162,40.760087576079364
pt.ine.add.PTCONT.292274,R NAVEGANTES,10,3870-351,TORREIRA,-8.710892184279308,40.758602042960256
pt.ine.add.PTCONT.292275,R BRANQUEIRA,41,3870-335,TORREIRA,-8.707921643009891,40.758823990232926
pt.ine.add.PTCONT.292276,R BRANQUEIRA,41,3870-335,TORREIRA,-8.707921643009891,40.758823990232926
pt.ine.add.PTCONT.292277,R SERTELA,23,3870-341,TORREIRA,-8.706060687262541,40.75724837329469
pt.ine.add.PTCONT.292278,R SERTELA,23,3870-341,TORREIRA,-8.706060687262541,40.75724837329469
pt.ine.add.PTCONT.292279,R SERTELA,23,3870-341,TORREIRA,-8.706060687262541,40.75724837329469
pt.ine.add.PTCONT.292280,R SERTELA,23,3870-341,TORREIRA,-8.706060687262541,40.75724837329469
pt.ine.add.PTCONT.292363,R PASSADOUROS,66,3870-028,BUNHEIRO,-8.63197687337987,40.77006424632574
pt.ine.add.PTCONT.292364,TV VESSADAS,,3870-033,BUNHEIRO,-8.63282803070185,40.76984444509254
pt.ine.add.PTCONT.292365,R CAMINHO DO FACHO,8,3870-020,BUNHEIRO,-8.640536989230817,40.78984677131034
pt.ine.add.PTCONT.292366,R ESTREPAL,21,3870-020,BUNHEIRO,-8.63703935428113,40.789519912278685
pt.ine.add.PTCONT.292367,TV FORMIGA,3,3870-040,BUNHEIRO,-8.632907755852681,40.78522452585426
pt.ine.add.PTCONT.292368,R MESTRAS,38,3870-032,BUNHEIRO,-8.630267921484872,40.78232733891682
pt.ine.add.PTCONT.292473,R ARCEBISPO CANGRANOR,94,3870-039,BUNHEIRO,-8.656425680399385,40.761230174714505
pt.ine.add.PTCONT.292474,BC S SIMAO,401,3870-031,BUNHEIRO,-8.649361277596702,40.765044071932174
pt.ine.add.PTCONT.292475,R CÓNEGO MANUEL NEDIO DE SOUSA,,3870-049,BUNHEIRO,-8.650891388153234,40.76381254385423
pt.ine.add.PTCONT.292616,AV SANTO ANTÓNIO,72,3870-121,MURTOSA,-8.642340202712155,40.75446742462022
pt.ine.add.PTCONT.292761,R ÁLVARES CABRAL,40,3870-126,MURTOSA,-8.644050784136159,40.753622402387336
pt.ine.add.PTCONT.292762,R IGREJA,14,3870-283,MURTOSA,-8.642931197760431,40.75213487343067
pt.ine.add.PTCONT.292874,R DR GUERRA JUNQUEIRO,57,3870-133,MURTOSA,-8.636069248444128,40.74886681553492
pt.ine.add.PTCONT.292875,CAM NORTE,1,3870-236,MURTOSA,-8.652613461143003,40.75010219675818
pt.ine.add.PTCONT.292876,R RUI DO VOUGA,,3870-216,MURTOSA,-8.654632040658955,40.749937065716765
pt.ine.add.PTCONT.292877,R JOSE MARIA BARBOSA,,3870-214,MURTOSA,-8.647681937325089,40.7500042817435
pt.ine.add.PTCONT.293042,R 9 DE ABRIL,19,3870-155,MURTOSA,-8.648194906785161,40.74282502574243
pt.ine.add.PTCONT.293043,R CAMILO CASTELO BRANCO,15,3870-141,MURTOSA,-8.64730932048376,40.74313514395525
pt.ine.add.PTCONT.293044,CANTO DAS CATRAIAS,,3870-201,MURTOSA,-8.644068904939928,40.74052007878328
pt.ine.add.PTCONT.293175,R MARTIM MONIZ,27,3870-170,MURTOSA,-8.636198570963696,40.740887836676286
pt.ine.add.PTCONT.293176,R FERREIRA DE CASTRO,20,3870-099,MURTOSA,-8.634007845366428,40.73924945136105
pt.ine.add.PTCONT.293177,R 25 DE ABRIL,45,3870-151,MURTOSA,-8.635808064932968,40.739340679725096
pt.ine.add.PTCONT.293193,R SERTELA,23,3870-341,TORREIRA,-8.706060687262541,40.75724837329469
pt.ine.add.PTCONT.293194,R SERTELA,23,3870-341,TORREIRA,-8.706060687262541,40.75724837329469
pt.ine.add.PTCONT.293195,R SERTELA,23,3870-341,TORREIRA,-8.706060687262541,40.75724837329469
pt.ine.add.PTCONT.293196,R SERTELA,23,3870-341,TORREIRA,-8.706060687262541,40.75724837329469
pt.ine.add.PTCONT.293305,R SIDÓNIO PAIS,21,3870-177,MURTOSA,-8.651275487861277,40.74311740617007
pt.ine.add.PTCONT.293306,R 9 DE ABRIL,8,3870-155,MURTOSA,-8.649182506484612,40.743459967912855
pt.ine.add.PTCONT.293307,R FERNÃO DE MAGALHÃES,16,3870-183,MURTOSA,-8.653801274299225,40.74058464351751
pt.ine.add.PTCONT.293308,R D AFONSO HENRIQUES,43,3870-161,MURTOSA,-8.63806810050673,40.740744597844326
pt.ine.add.PTCONT.293417,R LAGOA DOS FIADEIROS,40,3870-230,MURTOSA,-8.643928206896184,40.7391519431525
pt.ine.add.PTCONT.293418,R PADRE AMÉRICO,29,3870-118,MURTOSA,-8.636581415291843,40.73356510627455
pt.ine.add.PTCONT.293419,R S TOMÉ,8,3870-176,MURTOSA,-8.645797894027176,40.73749573988142
pt.ine.add.PTCONT.293420,R LUIS CARNEIRO DA SILVA,4,3870-169,MURTOSA,-8.643099535318566,40.73450903053776
pt.ine.add.PTCONT.293522,EN 327,467,3870-303,TORREIRA,-8.677105121507205,40.79048160650264
pt.ine.add.PTCONT.293523,EN 327,335,3870-304,TORREIRA,-8.688000404532866,40.78276655131219
pt.ine.add.PTCONT.293524,EN 327,40,3870-304,TORREIRA,-8.694988493249474,40.76993674288636
pt.ine.add.PTCONT.293631,TV AREAL,,3870-407,TORREIRA,-8.70392982392738,40.76425577358713
pt.ine.add.PTCONT.293632,TV AREAL,,3870-407,TORREIRA,-8.70392982392738,40.76425577358713
pt.ine.add.PTCONT.293633,TV AREAL,,3870-407,TORREIRA,-8.70392982392738,40.76425577358713
pt.ine.add.PTCONT.293634,TV AREAL,,3870-407,TORREIRA,-8.70392982392738,40.76425577358713
pt.ine.add.PTCONT.293777,AV DESCOBRIMENTOS,71,3870-321,TORREIRA,-8.703662764466127,40.759340395785834
pt.ine.add.PTCONT.293778,AV DESCOBRIMENTOS,71,3870-321,TORREIRA,-8.703662764466127,40.759340395785834
pt.ine.add.PTCONT.293779,EN 327,20,3870-301,TORREIRA,-8.705066669648062,40.71863094967579
pt.ine.add.PTCONT.294000,R AREIAS,8,3870-342,TORREIRA,-8.708896196013422,40.76197086227816
pt.ine.add.PTCONT.294001,BC AREIAS,,3870-393,TORREIRA,-8.707854518542948,40.76203008435869
pt.ine.add.PTCONT.294002,BC AREIAS,,3870-393,TORREIRA,-8.707854518542948,40.76203008435869
pt.ine.add.PTCONT.294003,BC AREIAS,,3870-393,TORREIRA,-8.707854518542948,40.76203008435869
pt.ine.add.PTCONT.294004,TV MANUEL BORRAS,10,3870-364,TORREIRA,-8.71133558184731,40.76057190496953
pt.ine.add.PTCONT.294342,TV MANUEL BORRAS,10,3870-364,TORREIRA,-8.71133558184731,40.76057190496953
pt.ine.add.PTCONT.294378,TV AREAL,,3870-407,TORREIRA,-8.70392982392738,40.76425577358713
pt.ine.add.PTCONT.294408,R JOSE PORTUGAL,4,3870-219,MURTOSA,-8.65262250958243,40.74581284506605
pt.ine.add.PTCONT.294424,R BARTOLOMEU DIAS,54,3870-139,MURTOSA,-8.630656575553466,40.742316638276506
pt.ine.add.PTCONT.294480,R LIMITE,11,3870-047,BUNHEIRO,-8.631267504466104,40.78768095667798
pt.ine.add.PTCONT.294482,R PADRE MANUEL RUELA POMBO,541,3870-050,BUNHEIRO,-8.654755480440427,40.75967087393982
pt.ine.add.PTCONT.294502,R SANTO ESTEVÃO,54,3870-137,MURTOSA,-8.636003811964983,40.74489590438877
pt.ine.add.PTCONT.294521,TV AREAL,,3870-407,TORREIRA,-8.70392982392738,40.76425577358713
pt.ine.add.PTCONT.294528,R D DINIS,34,3870-162,MURTOSA,-8.636433392090245,40.732773311717715
pt.ine.add.PTCONT.294563,R SANTO ESTEVÃO,107,3870-137,MURTOSA,-8.637057855346114,40.74807006509569
pt.ine.add.PTCONT.294773,R AGRO,20,3870-112,MURTOSA,-8.646264772175293,40.739708892901824
pt.ine.add.PTCONT.296397,R PASSADOUROS,101,3870-028,BUNHEIRO,-8.632344562947308,40.768549825323184
pt.ine.add.PTCONT.296400,R IGREJA,52,3870-022,BUNHEIRO,-8.648273675725559,40.76837175745303
pt.ine.add.PTCONT.296401,TV ROMARIZ,2,3870-031,BUNHEIRO,-8.65113518612199,40.76775561687301
pt.ine.add.PTCONT.296402,TV FORMIGA,20,3870-040,BUNHEIRO,-8.630901476180389,40.7846748929075
pt.ine.add.PTCONT.296406,BC LEVEGADA,5,3870-025,BUNHEIRO,-8.639955396668809,40.775684582413746
pt.ine.add.PTCONT.296407,R MESTRAS,36,3870-032,BUNHEIRO,-8.63045685773456,40.78224548043189
pt.ine.add.PTCONT.296411,R VITORINO TAVARES SOUSA,72,3870-062,BUNHEIRO,-8.640165321605288,40.78148283522254
pt.ine.add.PTCONT.296412,TV COVELO,1,3870-038,BUNHEIRO,-8.673485152585538,40.76046718139955
pt.ine.add.PTCONT.296413,ESTR SEDOUROS,19,3870-019,BUNHEIRO,-8.641585871628065,40.75959457461148
pt.ine.add.PTCONT.296414,CAM TOMADIA,6,3870-136,MURTOSA,-8.63749859351017,40.753119930334506
pt.ine.add.PTCONT.296415,CAM LAGONCHA,12,3870-137,MURTOSA,-8.635211029808758,40.74496239083907
pt.ine.add.PTCONT.296416,R JOÃO JOSE VIEIRA,24,3870-285,MURTOSA,-8.643468418687359,40.752337512541395
pt.ine.add.PTCONT.296417,CANTO DAS CATRAIAS,10,3870-201,MURTOSA,-8.643783808311937,40.740395270700795
pt.ine.add.PTCONT.296418,R SANTA LUZIA,147,3870-108,MURTOSA,-8.634532492504862,40.75866190445288
pt.ine.add.PTCONT.296419,R SANTA LUZIA,338,3870-136,MURTOSA,-8.634342004524418,40.75852765747855
pt.ine.add.PTCONT.296420,R JOÃO JOSE VIEIRA,3,3870-285,MURTOSA,-8.643653957647448,40.7512828662941
pt.ine.add.PTCONT.296421,R REITOR RUELA,11,3870-056,BUNHEIRO,-8.649200769986635,40.762667482734514
pt.ine.add.PTCONT.296422,R MARIA DOS ANJOS MATOS,27,3870-126,MURTOSA,-8.649049359063797,40.753807279214435
pt.ine.add.PTCONT.296423,R CHANCELER JULIÃO,11,3870-129,MURTOSA,-8.64155633316774,40.749500136536476
pt.ine.add.PTCONT.296424,EN 327,323,3870-303,TORREIRA,-8.689751170757392,40.78246095710474
pt.ine.add.PTCONT.296425,R ANTÓNIO TOMAS JUNIOR,,3870-329,TORREIRA,-8.702161892293658,40.75970800385361
pt.ine.add.PTCONT.296426,R ANTÓNIO JOSE FREITAS GUIMARÃES,,3870-208,MURTOSA,-8.65132555933426,40.7480429049036
pt.ine.add.PTCONT.296427,R DUNAS,14,3870-304,TORREIRA,-8.702257820767805,40.77234145595271
pt.ine.add.PTCONT.296428,BC SALDIDAS,5,3870-215,MURTOSA,-8.649971735566991,40.74752668703281
pt.ine.add.PTCONT.296429,R SIDÓNIO PAIS,38,3870-177,MURTOSA,-8.652352443884526,40.74305853630266
pt.ine.add.PTCONT.296430,EN 327,,3870-304,TORREIRA,-8.684006675151167,40.78690093088392
pt.ine.add.PTCONT.296431,TV AGRO,11,3870-113,MURTOSA,-8.646350273157658,40.740050702316225
pt.ine.add.PTCONT.296432,R PADRE MANUEL JOSE VALENTE,18,3870-172,MURTOSA,-8.637098573496663,40.736210318913585
pt.ine.add.PTCONT.296433,R CALIFA,60,3870-304,TORREIRA,-8.691737785369298,40.784855668224054
pt.ine.add.PTCONT.296434,R LAVRADOR,7,3870-303,TORREIRA,-8.675585575570137,40.80030409737273
pt.ine.add.PTCONT.296435,R REGO DE AGUA,118,3870-255,MURTOSA,-8.627444836864289,40.74667984679307
pt.ine.add.PTCONT.296436,R SANTA MAFALDA,68,3870-175,MURTOSA,-8.645755812177956,40.736640452418435
pt.ine.add.PTCONT.296437,CAM MAR,158,3870-303,TORREIRA,-8.677075454131282,40.79846008560338
pt.ine.add.PTCONT.296438,EN 327,599,3870-303,TORREIRA,-8.674591313267323,40.79752625618618
pt.ine.add.PTCONT.296439,R 10 DE JUNHO,28,3870-325,TORREIRA,-8.708338855913995,40.763261348005564
pt.ine.add.PTCONT.296440,R DR JOÃO CARLOS VAZ DA CUNHA,44,3870-353,TORREIRA,-8.705207964641328,40.76276362958083
pt.ine.add.PTCONT.296441,R MOLICEIROS,,3870-350,TORREIRA,-8.702732544331704,40.75996633209715
pt.ine.add.PTCONT.296442,R MOLICEIROS,,3870-350,TORREIRA,-8.702732544331704,40.75996633209715
pt.ine.add.PTCONT.296444,AV HINTZE RIBEIRO,39,3870-323,TORREIRA,-8.705389827277527,40.76049348250481
pt.ine.add.PTCONT.296445,R MERCANTEIS EDICICIO MERCANTEL,5,3870-349,TORREIRA,-8.704947727400835,40.76003642177622
pt.ine.add.PTCONT.296446,R MERCANTEIS EDICICIO MERCANTEL,5,3870-349,TORREIRA,-8.704947727400835,40.76003642177622
pt.ine.add.PTCONT.296447,R MERCANTEIS EDICICIO MERCANTEL,5,3870-349,TORREIRA,-8.704947727400835,40.76003642177622
pt.ine.add.PTCONT.296448,R MERCANTEIS EDICICIO MERCANTEL,5,3870-349,TORREIRA,-8.704947727400835,40.76003642177622
pt.ine.add.PTCONT.296449,R MERCANTEIS EDICICIO MERCANTEL,5,3870-349,TORREIRA,-8.704947727400835,40.76003642177622
pt.ine.add.PTCONT.296450,R MERCANTEIS EDICICIO MERCANTEL,5,3870-349,TORREIRA,-8.704947727400835,40.76003642177622
pt.ine.add.PTCONT.297233,R FERREIRA DE CASTRO,29,3870-099,MURTOSA,-8.6336752157386,40.73909780953642
pt.ine.add.PTCONT.297238,R 9 DE ABRIL,113,3870-155,MURTOSA,-8.63910760423162,40.73730914349176
pt.ine.add.PTCONT.297296,R MÁRIA DOS ANJOS MATOS,41,3870-501,MURTOSA,-8.649137868902644,40.754702427378064
pt.ine.add.PTCONT.297317,URB DA TORREIRINHA,3,3870-366,TORREIRA,-8.710909396758629,40.75785454626828
pt.ine.add.PTCONT.297327,R ESTEIRO,,3870-018,BUNHEIRO,-8.662747241189656,40.75792353288587
pt.ine.add.PTCONT.297365,BC CHÃO DO MONTE,21,3870-016,BUNHEIRO,-8.648088758328171,40.761294692207144
pt.ine.add.PTCONT.297388,R FERNÃO DE MAGALHÃES,22,3870-183,MURTOSA,-8.654265238286545,40.74087070906282
pt.ine.add.PTCONT.299055,BC ESTEIRO,1,3870-018,BUNHEIRO,-8.659548220789338,40.757722050495275
pt.ine.add.PTCONT.299056,R ESTEIRO,34,3870-018,BUNHEIRO,-8.663206246486427,40.759056050017996
pt.ine.add.PTCONT.299057,R MANUEL JOSE DIAS,37,3870-031,BUNHEIRO,-8.65164537392547,40.76787038989038
pt.ine.add.PTCONT.299062,R ESTRADA,151,3870-019,BUNHEIRO,-8.634835219043799,40.787890622361665
pt.ine.add.PTCONT.299063,R TOUREGAS,1,3870-032,BUNHEIRO,-8.631807468563359,40.782257661343
pt.ine.add.PTCONT.299064,R FORMIGA,3,3870-041,BUNHEIRO,-8.63009692014254,40.78429607212591
pt.ine.add.PTCONT.299065,R FORMIGA,29,3870-041,BUNHEIRO,-8.632096915842999,40.784525651025966
pt.ine.add.PTCONT.299067,R PROF ABILIO RAMOS,80,3870-063,BUNHEIRO,-8.636523901115888,40.77774372283375
pt.ine.add.PTCONT.299068,R DR CARLOS BARBOSA,122,3870-213,MURTOSA,-8.6515322965048,40.747130762958015
pt.ine.add.PTCONT.299069,ESTR SEDOUROS,,3870-019,BUNHEIRO,-8.642459448005836,40.759230524063724
pt.ine.add.PTCONT.299070,TV LAGOA DO MONTE,6,3870-044,BUNHEIRO,-8.652795130248391,40.75886026692264
pt.ine.add.PTCONT.299071,R LEVEGADA DE SEDOUROS,71,3870-046,BUNHEIRO,-8.651716255543816,40.75718119258225
pt.ine.add.PTCONT.299072,R CARLOS SOUSA FERREIRA,25,3870-209,MURTOSA,-8.65094716292618,40.75116032390114
pt.ine.add.PTCONT.299073,R ÁLVARES CABRAL,322,3870-126,MURTOSA,-8.636692459050362,40.757706978700774
pt.ine.add.PTCONT.299074,AV SANTO ANTÓNIO,81,3870-121,MURTOSA,-8.643334667245632,40.75598487168241
pt.ine.add.PTCONT.299075,R ÁLVARES CABRAL,60,3870-126,MURTOSA,-8.642274444483089,40.75516109717565
pt.ine.add.PTCONT.299076,VLA HENRIQUE TAVARES JUNIOR,3,3870-282,MURTOSA,-8.64661845431744,40.75490772169182
pt.ine.add.PTCONT.299077,R MESTRE JOÃO CARLOS FIDALGO,20,3870-284,MURTOSA,-8.64346423377378,40.754345395023165
pt.ine.add.PTCONT.299078,R ÁLVARES CABRAL,36,3870-126,MURTOSA,-8.644526156178024,40.75384542108714
pt.ine.add.PTCONT.299079,CARREIRO DA TOMADIA,9,3870-019,BUNHEIRO,-8.640411504299186,40.759338598912024
pt.ine.add.PTCONT.299080,R FERREIRA DE CASTRO,,3870-099,MURTOSA,-8.633771477518968,40.739304506852314
pt.ine.add.PTCONT.299081,R 9 DE ABRIL,,3870-155,MURTOSA,-8.641877039443125,40.73875577817843
pt.ine.add.PTCONT.299082,R D DINIS,56,3870-162,MURTOSA,-8.636623293156344,40.73126864793984
pt.ine.add.PTCONT.299083,R EMIGRANTE,39,3870-304,TORREIRA,-8.69736121821198,40.77739024902072
pt.ine.add.PTCONT.299084,R S PAIO,133,3870-304,TORREIRA,-8.699701268459137,40.772570154617576
pt.ine.add.PTCONT.299085,R SAUDADE,56,3870-159,MURTOSA,-8.636921804785878,40.731609535529074
pt.ine.add.PTCONT.299086,R D DINIS,66,3870-162,MURTOSA,-8.636534799589477,40.73052161852363
pt.ine.add.PTCONT.299087,R LAVOURA,41,3870-233,MURTOSA,-8.633106030211957,40.73581345326369
pt.ine.add.PTCONT.299088,R 25 DE ABRIL,9A,3870-151,MURTOSA,-8.638268583898807,40.73751092849887
pt.ine.add.PTCONT.299089,R DUNAS,,3870-304,TORREIRA,-8.702836349633511,40.7721224830076
pt.ine.add.PTCONT.299090,CAM DR MELO,8,3870-241,MURTOSA,-8.65421307133392,40.741771443104845
pt.ine.add.PTCONT.299091,CAM DR MELO,14,3870-241,MURTOSA,-8.654646521942185,40.74269699861802
pt.ine.add.PTCONT.299092,BC ESTALEIRO,10,3870-180,MURTOSA,-8.633449207972006,40.74211546130531
pt.ine.add.PTCONT.299093,EN 327,460,3870-303,TORREIRA,-8.677327065678414,40.79009334908495
pt.ine.add.PTCONT.299094,R SAUDADE,,3870-159,MURTOSA,-8.638039077875941,40.733774858863455
pt.ine.add.PTCONT.299095,R NAVEGANTES,,3870-351,TORREIRA,-8.712365820325747,40.75919798721453
pt.ine.add.PTCONT.299096,R HENRIQUE JOSE TAVARES JUNIOR,,3870-354,TORREIRA,-8.707810716154324,40.76244452975784
pt.ine.add.PTCONT.299097,R HENRIQUE JOSE TAVARES JUNIOR,,3870-354,TORREIRA,-8.707810716154324,40.76244452975784
pt.ine.add.PTCONT.299098,AV HINTZE RIBEIRO,90,3870-323,TORREIRA,-8.70944315027481,40.76085151938233
pt.ine.add.PTCONT.299099,AV HINTZE RIBEIRO,90,3870-323,TORREIRA,-8.70944315027481,40.76085151938233
pt.ine.add.PTCONT.299100,AV HINTZE RIBEIRO,90,3870-323,TORREIRA,-8.70944315027481,40.76085151938233
pt.ine.add.PTCONT.299101,EN 327,,3870-301,TORREIRA,-8.699127453096839,40.74402728326396
pt.ine.add.PTCONT.299102,EN 327,,3870-301,TORREIRA,-8.698962277690011,40.730124401603334
pt.ine.add.PTCONT.299103,R PESCADORES,,3870-352,TORREIRA,-8.709681506426712,40.75828391970521
pt.ine.add.PTCONT.299104,R PESCADORES,,3870-352,TORREIRA,-8.709681506426712,40.75828391970521
pt.ine.add.PTCONT.299107,LG 30 DE OUTUBRO,117,3870-324,TORREIRA,-8.70392891326925,40.75999644071239
pt.ine.add.PTCONT.299108,LG 30 DE OUTUBRO,117,3870-324,TORREIRA,-8.70392891326925,40.75999644071239
pt.ine.add.PTCONT.299109,LG 30 DE OUTUBRO,117,3870-324,TORREIRA,-8.70392891326925,40.75999644071239
pt.ine.add.PTCONT.299110,LG 30 DE OUTUBRO,117,3870-324,TORREIRA,-8.70392891326925,40.75999644071239
pt.ine.add.PTCONT.299111,R GALRICHOS,,3870-347,TORREIRA,-8.706799052720534,40.757730972509215
pt.ine.add.PTCONT.299112,TV CHAPIM DE POUPA,,3870-414,TORREIRA,-8.704995628731687,40.75733470041212
pt.ine.add.PTCONT.299116,AV DESCOBRIMENTOS,,3870-321,TORREIRA,-8.707417552998622,40.75942082623926
pt.ine.add.PTCONT.299118,R BRANQUEIRA,8,3870-335,TORREIRA,-8.70673705834377,40.758784859453584
pt.ine.add.PTCONT.299119,R BRANQUEIRA,8,3870-335,TORREIRA,-8.70673705834377,40.758784859453584
pt.ine.add.PTCONT.299881,AV 29 DE OUTUBRO,5,3870-206,MURTOSA,-8.651904804836233,40.74944507858203
pt.ine.add.PTCONT.299895,R CAMINHO DO NORTE,161,3870-303,TORREIRA,-8.676865918621285,40.80472847427471
pt.ine.add.PTCONT.301543,R MANUEL JOSE DIAS,59,3870-031,BUNHEIRO,-8.652663659609763,40.76935162560475
pt.ine.add.PTCONT.301548,TV FORMIGA,72,3870-040,BUNHEIRO,-8.633164144505583,40.78781683183427
pt.ine.add.PTCONT.301549,R PROF RUELA RAMOS,60,3870-057,BUNHEIRO,-8.629714106018513,40.78749854907245
pt.ine.add.PTCONT.301555,R PASSADOUROS,57,3870-028,BUNHEIRO,-8.632496169497502,40.772979601757896
pt.ine.add.PTCONT.301556,R SENHOR APARECIDO,18,3870-032,BUNHEIRO,-8.630898142434395,40.781054927281254
pt.ine.add.PTCONT.301557,R ÁLVARES CABRAL,13,3870-126,MURTOSA,-8.646364244838328,40.752648605674885
pt.ine.add.PTCONT.301558,CAM OUTEIRO,12,3870-248,MURTOSA,-8.654249951280567,40.751046403037755
pt.ine.add.PTCONT.301559,R 9 DE ABRIL,1,3870-155,MURTOSA,-8.649103945658661,40.74401862806476
pt.ine.add.PTCONT.301560,R PESCADORES,104,3870-104,MURTOSA,-8.63274402398384,40.76020950940788
pt.ine.add.PTCONT.301561,TV RUA DA IGREJA,,3870-283,MURTOSA,-8.64317860183086,40.75260869882043
pt.ine.add.PTCONT.301562,R SANTA LUZIA,581,3870-136,MURTOSA,-8.63759903969125,40.75387590875969
pt.ine.add.PTCONT.301563,R CONFERENCIA DE S VICENTE PAULO,2,3870-019,BUNHEIRO,-8.637445577184693,40.760207069280675
pt.ine.add.PTCONT.301564,R LOUREIROS,13,3870-187,MURTOSA,-8.651420756845825,40.740478293324884
pt.ine.add.PTCONT.301565,BC NAIAS,7,3870-161,MURTOSA,-8.638322083961722,40.739888012349304
pt.ine.add.PTCONT.301566,R SAUDADE,17,3870-159,MURTOSA,-8.63742122190564,40.73033764892031
pt.ine.add.PTCONT.301567,R MARTIM MONIZ,22,3870-170,MURTOSA,-8.635770471312654,40.74063756215648
pt.ine.add.PTCONT.301568,R SAUDADE,15,3870-159,MURTOSA,-8.637349451814172,40.73023890740767
pt.ine.add.PTCONT.301569,R EMIGRANTE,51,3870-304,TORREIRA,-8.698205209813832,40.777737310973
pt.ine.add.PTCONT.301570,R LAVOURA,58,3870-233,MURTOSA,-8.634468891683174,40.736005651434624
pt.ine.add.PTCONT.301571,R AGRO,23,3870-112,MURTOSA,-8.646452530053335,40.73949193823977
pt.ine.add.PTCONT.301572,R 9 DE ABRIL,79,3870-155,MURTOSA,-8.643148371635968,40.739353501632024
pt.ine.add.PTCONT.301573,EN 327,697,3870-304,TORREIRA,-8.673472818154632,40.80425815123703
pt.ine.add.PTCONT.301574,R D MARIA DAS DORES TAVARES DE SOUSA,,3870-164,MURTOSA,-8.652297874557089,40.74213126848784
pt.ine.add.PTCONT.301575,CAM MAR,132,3870-303,TORREIRA,-8.67602954461579,40.79661900855097
pt.ine.add.PTCONT.301576,R PESCADORES A,A,3870-352,TORREIRA,-8.709736407145686,40.76052587658229
pt.ine.add.PTCONT.301577,R PESCADORES,,3870-352,TORREIRA,-8.709736407145686,40.76052587658229
pt.ine.add.PTCONT.301578,R PESCADORES,,3870-352,TORREIRA,-8.709736407145686,40.76052587658229
pt.ine.add.PTCONT.301579,R PESCADORES,,3870-352,TORREIRA,-8.709736407145686,40.76052587658229
pt.ine.add.PTCONT.301580,R PESCADORES,,3870-352,TORREIRA,-8.709736407145686,40.76052587658229
pt.ine.add.PTCONT.301581,R SALVADORES DO NATHALIE,9,3870-410,TORREIRA,-8.70764114097044,40.763381887793905
pt.ine.add.PTCONT.301582,EN 327,7,3870-304,TORREIRA,-8.698299423997067,40.766489695207945
pt.ine.add.PTCONT.301583,URB JOSE DA GRAZIELA,20,3870-304,TORREIRA,-8.6981607700059,40.76969613057698
pt.ine.add.PTCONT.301584,R AREAL,,3870-406,TORREIRA,-8.704581185953561,40.76425254996864
pt.ine.add.PTCONT.301585,R AREAL,,3870-406,TORREIRA,-8.704581185953561,40.76425254996864
pt.ine.add.PTCONT.301586,R AREAL,,3870-406,TORREIRA,-8.704581185953561,40.76425254996864
pt.ine.add.PTCONT.301587,R AREAL,,3870-406,TORREIRA,-8.704581185953561,40.76425254996864
pt.ine.add.PTCONT.301588,R AREAL,,3870-406,TORREIRA,-8.704581185953561,40.76425254996864
pt.ine.add.PTCONT.301589,R AREAL,,3870-406,TORREIRA,-8.704581185953561,40.76425254996864
pt.ine.add.PTCONT.301591,LG 30 OUTUBRO RES B,RES B,3870-324,TORREIRA,-8.703930993115437,40.76023956393259
pt.ine.add.PTCONT.301592,LG 30 OUTUBRO RES B,RES B,3870-324,TORREIRA,-8.703930993115437,40.76023956393259
pt.ine.add.PTCONT.301593,LG 30 OUTUBRO RES B,RES B,3870-324,TORREIRA,-8.703930993115437,40.76023956393259
pt.ine.add.PTCONT.301594,LG 30 DE OUTUBRO,17,3870-324,TORREIRA,-8.70386669844838,40.75964555555421
pt.ine.add.PTCONT.301595,LG 30 DE OUTUBRO,17,3870-324,TORREIRA,-8.70386669844838,40.75964555555421
pt.ine.add.PTCONT.301596,LG 30 DE OUTUBRO,17,3870-324,TORREIRA,-8.70386669844838,40.75964555555421
pt.ine.add.PTCONT.301597,LG 30 DE OUTUBRO,17,3870-324,TORREIRA,-8.70386669844838,40.75964555555421
pt.ine.add.PTCONT.301598,LG 30 DE OUTUBRO,17,3870-324,TORREIRA,-8.70386669844838,40.75964555555421
pt.ine.add.PTCONT.301599,LG 30 DE OUTUBRO,17,3870-324,TORREIRA,-8.70386669844838,40.75964555555421
pt.ine.add.PTCONT.301600,LG 30 DE OUTUBRO,17,3870-324,TORREIRA,-8.70386669844838,40.75964555555421
pt.ine.add.PTCONT.301601,LG 30 DE OUTUBRO,17,3870-324,TORREIRA,-8.70386669844838,40.75964555555421
pt.ine.add.PTCONT.301602,LG 30 DE OUTUBRO,17,3870-324,TORREIRA,-8.70386669844838,40.75964555555421
pt.ine.add.PTCONT.301603,LG 30 DE OUTUBRO,17,3870-324,TORREIRA,-8.70386669844838,40.75964555555421
pt.ine.add.PTCONT.301604,LG RIA DE AVEIRO,,3870-401,TORREIRA,-8.704439823645503,40.76019202134683
pt.ine.add.PTCONT.301605,R ARRAIS JOÃO FAUSTINO,,3870-332,TORREIRA,-8.70678125453893,40.75979319364915
pt.ine.add.PTCONT.301606,R ARRAIS ROBERTO,9,3870-334,TORREIRA,-8.708461131217565,40.75958672228742
pt.ine.add.PTCONT.302318,R 9 DE ABRIL,92,3870-155,MURTOSA,-8.64292137487483,40.73908435477571
pt.ine.add.PTCONT.302321,TV RAUL BRANDÃO,14,3870-400,TORREIRA,-8.709557839547442,40.76041870933298
pt.ine.add.PTCONT.302360,R DR GUERRA JUNQUEIRO,99,3870-133,MURTOSA,-8.639531137501836,40.74944600571016
pt.ine.add.PTCONT.302371,R LUIS CARNEIRO DA SILVA,81,3870-169,MURTOSA,-8.643948154763784,40.73711672663665
pt.ine.add.PTCONT.302376,CAM MAR,136,3870-303,TORREIRA,-8.67599605233431,40.79687130317425
pt.ine.add.PTCONT.302377,CAM MAR,69,3870-303,TORREIRA,-8.678449446023185,40.79260041782297
pt.ine.add.PTCONT.302451,TV MATA,3,3870-026,BUNHEIRO,-8.62682829857451,40.77217553502463
pt.ine.add.PTCONT.302484,TV CHAC DO MONTE,,3870-016,BUNHEIRO,-8.65021124392604,40.76315823192764
pt.ine.add.PTCONT.302485,TV CHÃO DO MONTE,7,3870-016,BUNHEIRO,-8.650078949108632,40.76289768100979
pt.ine.add.PTCONT.302497,R CHÃO DE SENHOR,38,3870-032,BUNHEIRO,-8.634478979385818,40.78463238992424
pt.ine.add.PTCONT.302743,R CHOUSO,22,3870-012,BUNHEIRO,-8.641060937607753,40.783973260182066
pt.ine.add.PTCONT.302851,R PROF ALIPIO PORTUGAL,25,3870-173,MURTOSA,-8.636270991788647,40.736358009499405
pt.ine.add.PTCONT.302852,R BALSA,19,3870-176,MURTOSA,-8.647015219601967,40.73568932747903
pt.ine.add.PTCONT.302853,R CAMINHO DO NORTE,203,3870-303,TORREIRA,-8.67805643798256,40.801048864830385
pt.ine.add.PTCONT.302990,R EMIGRANTE,,3870-304,TORREIRA,-8.693024302125455,40.77581750227949
pt.ine.add.PTCONT.302991,R EMIGRANTE,59,3870-304,TORREIRA,-8.6987879999831,40.77801360807823
pt.ine.add.PTCONT.302992,R ANTÓNIO DA CRUZ BARBOSA,27,3870-327,TORREIRA,-8.701300722066646,40.762881986999986
pt.ine.add.PTCONT.303137,EN 327,65,3870-301,TORREIRA,-8.711652378853728,40.71923748563999
pt.ine.add.PTCONT.303138,EN 327,15,3870-301,TORREIRA,-8.704153385030462,40.71840134107411
pt.ine.add.PTCONT.303139,EN 327,,3870-301,TORREIRA,-8.702289489486628,40.717726165932255
pt.ine.add.PTCONT.303140,R DR JOÃO CARLOS VAZ DA CUNHA,10,3870-353,TORREIRA,-8.705193930530365,40.76388931658166
pt.ine.add.PTCONT.303289,R MARIA AUGUSANTA CRUZ BARBOSA,20,3870-355,TORREIRA,-8.70575102760573,40.762562827511715
pt.ine.add.PTCONT.303290,R HENRIQUE JOSE TAVARES JUNIOR,,3870-354,TORREIRA,-8.710721894203019,40.76218686256604
pt.ine.add.PTCONT.303291,R HENRIQUE JOSE TAVARES JUNIOR,,3870-354,TORREIRA,-8.710721894203019,40.76218686256604
pt.ine.add.PTCONT.303292,R HENRIQUE JOSE TAVARES JUNIOR,,3870-354,TORREIRA,-8.710721894203019,40.76218686256604
pt.ine.add.PTCONT.303293,R HENRIQUE JOSE TAVARES JUNIOR,,3870-354,TORREIRA,-8.710721894203019,40.76218686256604
pt.ine.add.PTCONT.303421,R ARRAIS JOÃO FAUSTINO,54,3870-332,TORREIRA,-8.711272469305612,40.76012197403368
pt.ine.add.PTCONT.303422,R ARRAIS JOÃO FAUSTINO,54,3870-332,TORREIRA,-8.711272469305612,40.76012197403368
pt.ine.add.PTCONT.303423,R ARRAIS JOÃO FAUSTINO,54,3870-332,TORREIRA,-8.711272469305612,40.76012197403368
pt.ine.add.PTCONT.303424,R ARRAIS JOÃO FAUSTINO,54,3870-332,TORREIRA,-8.711272469305612,40.76012197403368
pt.ine.add.PTCONT.303425,R ARRAIS JOÃO FAUSTINO,54,3870-332,TORREIRA,-8.711272469305612,40.76012197403368
pt.ine.add.PTCONT.303426,R ARRAIS JOÃO FAUSTINO,54,3870-332,TORREIRA,-8.711272469305612,40.76012197403368
pt.ine.add.PTCONT.303427,AV DESCOBRIMENTOS,15,3870-321,TORREIRA,-8.709004158467778,40.75938590503952
pt.ine.add.PTCONT.303428,AV DESCOBRIMENTOS,15,3870-321,TORREIRA,-8.709004158467778,40.75938590503952
pt.ine.add.PTCONT.303429,AV DESCOBRIMENTOS,15,3870-321,TORREIRA,-8.709004158467778,40.75938590503952
pt.ine.add.PTCONT.303533,AV HINTZE RIBEIRO,,3870-323,TORREIRA,-8.70443067989843,40.76050723966136
pt.ine.add.PTCONT.303631,TV LEVEGADA,9,3870-025,BUNHEIRO,-8.642781265838336,40.77810346801514
pt.ine.add.PTCONT.303632,R PASSADOUROS,51,3870-028,BUNHEIRO,-8.632655005717142,40.773627269972934
pt.ine.add.PTCONT.303633,R GALRICHOS,4,3870-347,TORREIRA,-8.707300436534087,40.758196736339364
pt.ine.add.PTCONT.303634,R GALRICHOS,4,3870-347,TORREIRA,-8.707300436534087,40.758196736339364
pt.ine.add.PTCONT.303635,R SERTELA,20,3870-341,TORREIRA,-8.706430951723117,40.757615737399576
pt.ine.add.PTCONT.303636,R GALRICHOS,,3870-347,TORREIRA,-8.706821807306588,40.75762280002192
pt.ine.add.PTCONT.303738,R BESTIDA,67,3870-035,BUNHEIRO,-8.667312355253838,40.75864990370773
pt.ine.add.PTCONT.303739,R PADRE MANUEL RUELA POMBO,68,3870-050,BUNHEIRO,-8.653575541627887,40.76022550355095
pt.ine.add.PTCONT.303740,R REGUEIRA NOVA,31,3870-052,BUNHEIRO,-8.67456215268104,40.758922286721656
pt.ine.add.PTCONT.303741,TV AZORREIRA,6,3870-018,BUNHEIRO,-8.659803127495948,40.75700949570764
pt.ine.add.PTCONT.303841,R REITOR RUELA,15,3870-056,BUNHEIRO,-8.648609257473831,40.76275117099534
pt.ine.add.PTCONT.303842,R JOÃO CARLOS VAZ DA CUNHA,22,3870-027,BUNHEIRO,-8.645950128454382,40.75731501873023
pt.ine.add.PTCONT.303843,BC PATRONATO,6,3870-027,BUNHEIRO,-8.64522929712171,40.75751632875394
pt.ine.add.PTCONT.303844,CARREIRO DA TOMADIA,,3870-019,BUNHEIRO,-8.641517905549021,40.76000009719789
pt.ine.add.PTCONT.303956,R RATO,336,3870-130,MURTOSA,-8.633019777446705,40.75749782162661
pt.ine.add.PTCONT.303957,R ALMEIDA GARRETT,7,3870-125,MURTOSA,-8.645251078499658,40.75109569078193
pt.ine.add.PTCONT.304078,R DR GUERRA JUNQUEIRO,105,3870-133,MURTOSA,-8.640065872325184,40.749695797447956
pt.ine.add.PTCONT.304079,R SANTO ESTEVÃO,,3870-137,MURTOSA,-8.637258602228156,40.74643028213122
pt.ine.add.PTCONT.304080,LG DR JOSE TAVARES,12,3870-228,MURTOSA,-8.649732787529343,40.750310293885086
pt.ine.add.PTCONT.304081,LG DR JOSE TAVARES,12,3870-228,MURTOSA,-8.649732787529343,40.750310293885086
pt.ine.add.PTCONT.304082,LG DR JOSE TAVARES,12,3870-228,MURTOSA,-8.649732787529343,40.750310293885086
pt.ine.add.PTCONT.304083,LG DR JOSE TAVARES,12,3870-228,MURTOSA,-8.649732787529343,40.750310293885086
pt.ine.add.PTCONT.304084,LG DR JOSE TAVARES,12,3870-228,MURTOSA,-8.649732787529343,40.750310293885086
pt.ine.add.PTCONT.304085,CAM FERREIRINHA,,3870-188,MURTOSA,-8.652374812816705,40.747479685097865
pt.ine.add.PTCONT.304086,MARGINAL PADRE ANTÓNIO MORAIS DA FONSECA,185,3870-268,MURTOSA,-8.677628132957457,40.74425678523551
pt.ine.add.PTCONT.304183,CANTO DAS PALHEIRAS,14,3870-117,MURTOSA,-8.645058157471423,40.74138017397372
pt.ine.add.PTCONT.304184,R D JOÃO DE CASTRO,34,3870-163,MURTOSA,-8.648546374875329,40.73927549194182
pt.ine.add.PTCONT.304185,R S TOMÉ,47,3870-176,MURTOSA,-8.644213298457824,40.73927675093536
pt.ine.add.PTCONT.304186,R 9 DE ABRIL,69,3870-155,MURTOSA,-8.643814159504203,40.73971976221749
pt.ine.add.PTCONT.304187,R AGRO,5,3870-112,MURTOSA,-8.645863377428693,40.738314903277434
pt.ine.add.PTCONT.304333,R 25 DE ABRIL,44,3870-151,MURTOSA,-8.635850877346485,40.738737158759164
pt.ine.add.PTCONT.304334,R CONDES,25,3870-210,MURTOSA,-8.649602602854143,40.747258190216904
pt.ine.add.PTCONT.304335,CANTO DA CORGA,,3870-164,MURTOSA,-8.65349750767768,40.74414298200613
pt.ine.add.PTCONT.305126,URB QUINTA DOS LEITES,,3870-366,TORREIRA,-8.705749171452183,40.75682668679131
pt.ine.add.PTCONT.304950,R D MARIA DAS DORES TAVARES DE SOUSA,58,3870-164,MURTOSA,-8.651384505985078,40.74648477929739
pt.ine.add.PTCONT.304980,R MESTRE JOÃO CARLOS FIDALGO,5,3870-284,MURTOSA,-8.642826122565067,40.75297045485505
pt.ine.add.PTCONT.305004,LG DR JOSE TAVARES,12,3870-228,MURTOSA,-8.649732787529343,40.750310293885086
pt.ine.add.PTCONT.305083,EN 327,,3870-304,TORREIRA,-8.696955277467733,40.770008194471956
pt.ine.add.PTCONT.305110,R HENRIQUE JOSE TAVARES JUNIOR,,3870-354,TORREIRA,-8.710721894203019,40.76218686256604
pt.ine.add.PTCONT.305171,R CHÃO DE SENHOR DGL,12,3870-032,BUNHEIRO,-8.63322244440156,40.78295392183496
pt.ine.add.PTCONT.305304,R 9 DE ABRIL,82,3870-155,MURTOSA,-8.643907491557684,40.739539249413475
pt.ine.add.PTCONT.305701,R 9 DE ABRIL,89,3870-155,MURTOSA,-8.642221455659591,40.73889833936739
pt.ine.add.PTCONT.305702,R SANTA MAFALDA,8,3870-175,MURTOSA,-8.640163136765372,40.735998787006096
pt.ine.add.PTCONT.305703,R LAVOURA,,3870-233,MURTOSA,-8.634308036213172,40.735078835211
pt.ine.add.PTCONT.305704,TV BALSA,13,3870-197,MURTOSA,-8.646039386413987,40.735027298420725
pt.ine.add.PTCONT.305705,R BALSA,14,3870-197,MURTOSA,-8.647360046774223,40.73588590155669
pt.ine.add.PTCONT.305706,R D DINIS,40,3870-162,MURTOSA,-8.636489389909883,40.732349832406435
pt.ine.add.PTCONT.305793,R CAMINHO AGRICOLA,,3870-303,TORREIRA,-8.679411533604886,40.794333812325036
pt.ine.add.PTCONT.305794,R LOPES DA CUNHA,,3870-304,TORREIRA,-8.693204043878804,40.78452438391386
pt.ine.add.PTCONT.305795,R ENG DUARTE PACHECO,92,3870-322,TORREIRA,-8.701781946064411,40.7595928123645
pt.ine.add.PTCONT.305796,R ANTÓNIO TOMAS JUNIOR,,3870-329,TORREIRA,-8.702023011045034,40.76008689627495
pt.ine.add.PTCONT.305797,EN 327,,3870-304,TORREIRA,-8.695151858915251,40.77386209618569
pt.ine.add.PTCONT.305908,AV ENG DUARTE PACHECO,,3870-322,TORREIRA,-8.698830320945065,40.76484819533772
pt.ine.add.PTCONT.305909,AV ENG DUARTE PACHECO,,3870-322,TORREIRA,-8.698830320945065,40.76484819533772
pt.ine.add.PTCONT.305910,AV ENG DUARTE PACHECO,,3870-322,TORREIRA,-8.698830320945065,40.76484819533772
pt.ine.add.PTCONT.305911,AV ENG DUARTE PACHECO,,3870-322,TORREIRA,-8.698830320945065,40.76484819533772
pt.ine.add.PTCONT.305912,AV ENG DUARTE PACHECO,,3870-322,TORREIRA,-8.698830320945065,40.76484819533772
pt.ine.add.PTCONT.305913,AV ENG DUARTE PACHECO,,3870-322,TORREIRA,-8.698830320945065,40.76484819533772
pt.ine.add.PTCONT.305914,AV ENG DUARTE PACHECO,,3870-322,TORREIRA,-8.700213085730422,40.76171669426086
pt.ine.add.PTCONT.306041,EN 327,42,3870-301,TORREIRA,-8.709484407893449,40.718996190931236
pt.ine.add.PTCONT.306042,EN 327,,3870-301,TORREIRA,-8.702072094928583,40.71721395202262
pt.ine.add.PTCONT.306043,R 10 DE JUNHO,42,3870-325,TORREIRA,-8.70828686156098,40.764099066404604
pt.ine.add.PTCONT.306044,R 10 DE JUNHO,42,3870-325,TORREIRA,-8.70828686156098,40.764099066404604
pt.ine.add.PTCONT.306045,R 10 DE JUNHO,42,3870-325,TORREIRA,-8.70828686156098,40.764099066404604
pt.ine.add.PTCONT.306046,R 10 DE JUNHO,42,3870-325,TORREIRA,-8.70828686156098,40.764099066404604
pt.ine.add.PTCONT.306047,R 10 DE JUNHO,42,3870-325,TORREIRA,-8.70828686156098,40.764099066404604
pt.ine.add.PTCONT.306048,R 10 DE JUNHO,42,3870-325,TORREIRA,-8.70828686156098,40.764099066404604
pt.ine.add.PTCONT.306049,R 10 DE JUNHO,42,3870-325,TORREIRA,-8.70828686156098,40.764099066404604
pt.ine.add.PTCONT.306050,R 10 DE JUNHO,42,3870-325,TORREIRA,-8.70828686156098,40.764099066404604
pt.ine.add.PTCONT.306051,R SALVADORES DO NATHALIE,,3870-410,TORREIRA,-8.70747218133875,40.76439128187285
pt.ine.add.PTCONT.306161,R MARIA AUGUSANTA CRUZ BARBOSA,13,3870-355,TORREIRA,-8.705998640654464,40.76243552943251
pt.ine.add.PTCONT.306273,TV MERCADO,20,3870-345,TORREIRA,-8.70896349117312,40.7629070402629
pt.ine.add.PTCONT.306274,BC AREIAS,23,3870-393,TORREIRA,-8.707972633650007,40.76199347630112
pt.ine.add.PTCONT.306275,BC AREIAS,23,3870-393,TORREIRA,-8.707972633650007,40.76199347630112
pt.ine.add.PTCONT.306276,BC AREIAS,23,3870-393,TORREIRA,-8.707972633650007,40.76199347630112
pt.ine.add.PTCONT.306277,R ANTÓNIO VIEIRA PINTO,,3870-330,TORREIRA,-8.707361146835247,40.76112304127465
pt.ine.add.PTCONT.306278,R ANTÓNIO VIEIRA PINTO,,3870-330,TORREIRA,-8.707361146835247,40.76112304127465
pt.ine.add.PTCONT.306279,R ANTÓNIO VIEIRA PINTO,,3870-330,TORREIRA,-8.707361146835247,40.76112304127465
pt.ine.add.PTCONT.306280,R ANTÓNIO VIEIRA PINTO,,3870-330,TORREIRA,-8.707361146835247,40.76112304127465
pt.ine.add.PTCONT.306281,R ANTÓNIO VIEIRA PINTO,,3870-330,TORREIRA,-8.707361146835247,40.76112304127465
pt.ine.add.PTCONT.306282,R ANTÓNIO VIEIRA PINTO,,3870-330,TORREIRA,-8.707361146835247,40.76112304127465
pt.ine.add.PTCONT.306392,R ANTÓNIO VIEIRA PINTO,,3870-330,TORREIRA,-8.707361146835247,40.76112304127465
pt.ine.add.PTCONT.306393,R ANTÓNIO VIEIRA PINTO,,3870-330,TORREIRA,-8.707361146835247,40.76112304127465
pt.ine.add.PTCONT.306394,R ANTÓNIO VIEIRA PINTO,,3870-330,TORREIRA,-8.707361146835247,40.76112304127465
pt.ine.add.PTCONT.306395,BC SEBOLOES,,3870-403,TORREIRA,-8.71199687443701,40.76035247118408
pt.ine.add.PTCONT.306396,R MARINHEIROS,6,3870-348,TORREIRA,-8.710152917159734,40.759389171880684
pt.ine.add.PTCONT.306397,AV DESCOBRIMENTOS,24,3870-321,TORREIRA,-8.707485505129153,40.75906029025794
pt.ine.add.PTCONT.306743,R DR ANTÓNIO TAVARES AFONSO E CUNHA,53,3870-034,BUNHEIRO,-8.641669777853432,40.77836951468847
pt.ine.add.PTCONT.306744,R ESCOLA,33,3870-063,BUNHEIRO,-8.641553487010414,40.777100331830525
pt.ine.add.PTCONT.306745,R PROF ABILIO RAMOS,,3870-063,BUNHEIRO,-8.642493892815743,40.77615066665508
pt.ine.add.PTCONT.306746,R CASAL,69,3870-014,BUNHEIRO,-8.64245354310995,40.77552049938067
pt.ine.add.PTCONT.306747,R CASAL,39,3870-014,BUNHEIRO,-8.642080598559005,40.773216881170384
pt.ine.add.PTCONT.306873,AV S MATEUS,190,3870-059,BUNHEIRO,-8.645382960989032,40.768276566117734
pt.ine.add.PTCONT.306874,R IGREJA,46,3870-022,BUNHEIRO,-8.648697337710116,40.76801867260434
pt.ine.add.PTCONT.306875,R BREJA DE CIMA,1,3870-013,BUNHEIRO,-8.634684188302606,40.77568960382324
pt.ine.add.PTCONT.306998,R CONFERENCIA DE S VICENTE PAULO,53,3870-019,BUNHEIRO,-8.637361591906608,40.76006335691628
pt.ine.add.PTCONT.306999,AV S MATEUS,68,3870-059,BUNHEIRO,-8.643651381661572,40.760233812765286
pt.ine.add.PTCONT.307000,R ÁLVARES CABRAL,131,3870-019,BUNHEIRO,-8.636966386846998,40.75791289726296
pt.ine.add.PTCONT.307096,R 1 DE DEZEMBRO,33,3870-123,MURTOSA,-8.645997572614423,40.75578396416152
pt.ine.add.PTCONT.307097,BC TORCATO,3,3870-126,MURTOSA,-8.64460168915253,40.754430409226195
pt.ine.add.PTCONT.307098,CAM ARROJADAS,32,3870-130,MURTOSA,-8.635066010701006,40.75087028773928
pt.ine.add.PTCONT.307099,R ALMEIDA GARRETT,14,3870-125,MURTOSA,-8.645604623077572,40.75241785209687
pt.ine.add.PTCONT.307100,R PROF MATOS CALADO,6,3870-292,MURTOSA,-8.641902691307163,40.7514436844387
pt.ine.add.PTCONT.307101,R ALMEIDA GARRETT,25,3870-125,MURTOSA,-8.646122718421653,40.752037341582636
pt.ine.add.PTCONT.307200,R RUI DO VOUGA,9,3870-216,MURTOSA,-8.655574136058977,40.75078827704642
pt.ine.add.PTCONT.307201,CAM LAGOEIRO,5,3870-211,MURTOSA,-8.649623788512717,40.751526452841965
pt.ine.add.PTCONT.307202,R MERCADO,43,3870-101,MURTOSA,-8.648901302843312,40.74997182387179
pt.ine.add.PTCONT.307203,R MERCADO,43,3870-101,MURTOSA,-8.648901302843312,40.74997182387179
pt.ine.add.PTCONT.307204,R MERCADO,43,3870-101,MURTOSA,-8.648901302843312,40.74997182387179
pt.ine.add.PTCONT.307205,R LUIS CAMÕES,11,3870-236,MURTOSA,-8.65277090804715,40.74966630646578
pt.ine.add.PTCONT.307313,R REGUEIRINHA,17,3870-268,MURTOSA,-8.65308895990575,40.746414078057725
pt.ine.add.PTCONT.307314,PC MUNICIPIO,13,3870-207,MURTOSA,-8.650199714081078,40.749443725487836
pt.ine.add.PTCONT.307315,LG FEIRA,999,3870-299,MURTOSA,-8.650199714081078,40.749443725487836
pt.ine.add.PTCONT.307316,LG FEIRA,999,3870-299,MURTOSA,-8.650199714081078,40.749443725487836
pt.ine.add.PTCONT.307317,LG FEIRA,9,3870-207,MURTOSA,-8.650383508784305,40.74871349901081
pt.ine.add.PTCONT.307318,LG FEIRA,9,3870-207,MURTOSA,-8.650383508784305,40.74871349901081
pt.ine.add.PTCONT.307319,LG FEIRA,9,3870-207,MURTOSA,-8.650383508784305,40.74871349901081
pt.ine.add.PTCONT.307320,CAM PASCOAS,12,3870-251,MURTOSA,-8.64638003937955,40.7423828615503
pt.ine.add.PTCONT.307419,R OUTEIRO BRANCO,10,3870-255,MURTOSA,-8.628936339162069,40.746628424063495
pt.ine.add.PTCONT.307420,VLA AIDO DOS CARINHAS,3,3870-114,MURTOSA,-8.632913186634067,40.74010066597409
pt.ine.add.PTCONT.307494,R ANTÓNIO VIEIRA PINTO,,3870-330,TORREIRA,-8.707361146835247,40.76112304127465
pt.ine.add.PTCONT.307508,R MERCADO,43,3870-101,MURTOSA,-8.648901302843312,40.74997182387179
pt.ine.add.PTCONT.307545,R PROF RUELA RAMOS,22,3870-057,BUNHEIRO,-8.629567424050391,40.78530197971979
pt.ine.add.PTCONT.307548,R MARIA AUGUSANTA CRUZ BARBOSA,13,3870-355,TORREIRA,-8.705998640654464,40.76243552943251
pt.ine.add.PTCONT.307645,R D DINIS,125,3870-162,MURTOSA,-8.63521071390032,40.726024881212034
pt.ine.add.PTCONT.307659,R SOCA,84,3870-295,MURTOSA,-8.633168729412,40.753670065222664
pt.ine.add.PTCONT.307666,R CAMINHO DO NORTE,35,3870-303,TORREIRA,-8.671925266406097,40.81511626288218
pt.ine.add.PTCONT.307710,R CHÃO DE SENHOR,11,3870-032,BUNHEIRO,-8.633348633643513,40.78240407443682
pt.ine.add.PTCONT.307712,R REITOR RUELA,2,3870-056,BUNHEIRO,-8.65021422353333,40.76201458956143
pt.ine.add.PTCONT.307869,R CARLOS SOUSA FERREIRA,,3870-209,MURTOSA,-8.649570084989245,40.750707240825925
pt.ine.add.PTCONT.307870,R CARLOS SOUSA FERREIRA,,3870-209,MURTOSA,-8.649570084989245,40.750707240825925
pt.ine.add.PTCONT.307871,R CARLOS SOUSA FERREIRA,,3870-209,MURTOSA,-8.649570084989245,40.750707240825925
pt.ine.add.PTCONT.307872,R CARLOS SOUSA FERREIRA,,3870-209,MURTOSA,-8.649570084989245,40.750707240825925
pt.ine.add.PTCONT.307875,R ARRAIS JOÃO FAUSTINO,24,3870-332,TORREIRA,-8.709258828644067,40.760078014629386
pt.ine.add.PTCONT.307876,R ARRAIS JOÃO FAUSTINO,24,3870-332,TORREIRA,-8.709258828644067,40.760078014629386
pt.ine.add.PTCONT.307924,R ESTRADA,120,3870-012,BUNHEIRO,-8.636763011077962,40.78430727131084
pt.ine.add.PTCONT.309433,VLA MARQUES,,3870-301,TORREIRA,-8.712134093480124,40.761153222627996
pt.ine.add.PTCONT.309400,BC ROMARIZ,2,3870-031,BUNHEIRO,-8.651874745689765,40.7684276655641
pt.ine.add.PTCONT.309402,R MATA,2,3870-026,BUNHEIRO,-8.631256601363658,40.770364520879134
pt.ine.add.PTCONT.309403,R MATA,2,3870-026,BUNHEIRO,-8.631256601363658,40.770364520879134
pt.ine.add.PTCONT.309404,R ESTREPAL,19,3870-020,BUNHEIRO,-8.636754332361582,40.78943110751675
pt.ine.add.PTCONT.309408,R CAMINHO DOS BARREIROS,6,3870-032,BUNHEIRO,-8.629190444187387,40.78240401538691
pt.ine.add.PTCONT.309410,R RATO,174,3870-033,BUNHEIRO,-8.633136509023968,40.76043293356729
pt.ine.add.PTCONT.309412,CAM ARROJADAS,1,3870-130,MURTOSA,-8.634647729397694,40.750358822602564
pt.ine.add.PTCONT.309413,R SANTO ESTEVÃO,53,3870-137,MURTOSA,-8.636510608131445,40.74458752563961
pt.ine.add.PTCONT.309414,R RATO,168,3870-130,MURTOSA,-8.633145652233848,40.760072695549816
pt.ine.add.PTCONT.309415,AV EMIGRANTE,39,3870-153,MURTOSA,-8.641885821263113,40.73990837828389
pt.ine.add.PTCONT.309416,R DR GUERRA JUNQUEIRO,100,3870-133,MURTOSA,-8.6389518427728,40.749565610789915
pt.ine.add.PTCONT.309417,R LUIS CAMÕES,13,3870-236,MURTOSA,-8.653018996595735,40.74959314938548
pt.ine.add.PTCONT.309418,R MESTRE JOÃO CARLOS FIDALGO,23 A,3870-284,MURTOSA,-8.643876060777371,40.75400138442114
pt.ine.add.PTCONT.309419,R LOPES DA CUNHA,11,3870-304,TORREIRA,-8.695114680879065,40.78491131027606
pt.ine.add.PTCONT.309420,R D DINIS,62,3870-162,MURTOSA,-8.636476564129435,40.7306479425766
pt.ine.add.PTCONT.309421,R ANTÓNIO JOSE FREITAS GUIMARÃES,23,3870-208,MURTOSA,-8.650531430075013,40.747938408108276
pt.ine.add.PTCONT.309422,R 25 DE ABRIL,12,3870-151,MURTOSA,-8.63813665980081,40.73728638094331
pt.ine.add.PTCONT.309423,EN 327,639,3870-303,TORREIRA,-8.674823992246983,40.799911460281145
pt.ine.add.PTCONT.309424,R ALFREDO BELO,5,3870-157,MURTOSA,-8.647614264526034,40.73661417318387
pt.ine.add.PTCONT.309425,R SANTO ESTEVÃO,25,3870-260,MURTOSA,-8.635774223887603,40.74270869314199
pt.ine.add.PTCONT.309426,R AGRA DO RIBEIRO,9,3870-111,MURTOSA,-8.649821259957767,40.74032337525531
pt.ine.add.PTCONT.309427,AV ENG DUARTE PACHECO,,3870-322,TORREIRA,-8.700880292807236,40.76079490945633
pt.ine.add.PTCONT.309428,R SALVADORES DO NATHALIE,,3870-410,TORREIRA,-8.707396317915572,40.76383335327602
pt.ine.add.PTCONT.309429,R AREIAS,29,3870-342,TORREIRA,-8.708078362923194,40.76189389524431
pt.ine.add.PTCONT.309430,R ARRAIS JOÃO FAUSTINO,18,3870-332,TORREIRA,-8.70821718106504,40.76013723980144
pt.ine.add.PTCONT.309431,R MARIA AUGUSANTA CRUZ BARBOSA,16,3870-355,TORREIRA,-8.705761633687407,40.76241869583454
pt.ine.add.PTCONT.309432,R HENRIQUE JOSE TAVARES JUNIOR,45,3870-354,TORREIRA,-8.706497887867888,40.76264916860698
pt.ine.add.PTCONT.309434,AV HINTZE RIBEIRO,,3870-323,TORREIRA,-8.70197124644933,40.76096063106266
pt.ine.add.PTCONT.309435,AV HINTZE RIBEIRO,,3870-323,TORREIRA,-8.70197124644933,40.76096063106266
pt.ine.add.PTCONT.309436,AV HINTZE RIBEIRO,,3870-323,TORREIRA,-8.70197124644933,40.76096063106266
pt.ine.add.PTCONT.309437,AV HINTZE RIBEIRO,,3870-323,TORREIRA,-8.70197124644933,40.76096063106266
pt.ine.add.PTCONT.309442,R ARRAIS JOÃO FAUSTINO,3,3870-332,TORREIRA,-8.706354859796614,40.7597863074471
pt.ine.add.PTCONT.309444,R MARINHEIROS,,3870-348,TORREIRA,-8.710375190028618,40.75907288723685
pt.ine.add.PTCONT.310136,BC LAZARO JOSE COSTEIRA,9,3870-126,MURTOSA,-8.644483068971304,40.75440391997603
pt.ine.add.PTCONT.310276,R DA LAVOURA,35,3870-219,MURTOSA,-8.633700496990125,40.7361530664945
pt.ine.add.PTCONT.310326,BC PATA,4,3870-130,MURTOSA,-8.634561661528666,40.75308770340817
pt.ine.add.PTCONT.310327,R CHÃO DO MONTE,14,3870-016,BUNHEIRO,-8.650055524963674,40.76140296364111
pt.ine.add.PTCONT.310583,R D JOÃO DE CASTRO,49,3870-163,MURTOSA,-8.649424591364095,40.73955072139017
pt.ine.add.PTCONT.310661,R PATRIMÓNIO,3,3870-298,MURTOSA,-8.636190673659529,40.7319819296259
pt.ine.add.PTCONT.310669,BC FORMIGA,16,3870-040,BUNHEIRO,-8.630843519920623,40.784846236433395
pt.ine.add.PTCONT.310815,LG 30 DE OUTUBRO,,3870-324,TORREIRA,-8.703136409488115,40.7601084171385
pt.ine.add.PTCONT.310816,LG 30 DE OUTUBRO,,3870-324,TORREIRA,-8.703136409488115,40.7601084171385
pt.ine.add.PTCONT.310817,LG 30 DE OUTUBRO,,3870-324,TORREIRA,-8.703136409488115,40.7601084171385
pt.ine.add.PTCONT.310818,TV CHAPIM DE POUPA,21,3870-414,TORREIRA,-8.703372928518977,40.757297705194766
pt.ine.add.PTCONT.310819,R PROF FIRMINO ARESTA,28,3870-356,TORREIRA,-8.70568314001892,40.76293236689665
pt.ine.add.PTCONT.310900,R MARIA AUGUSANTA CRUZ BARBOSA,49,3870-355,TORREIRA,-8.706496649716078,40.7625050957138
pt.ine.add.PTCONT.310901,R NAVEGANTES,23,3870-351,TORREIRA,-8.710759116913028,40.75827853102791
pt.ine.add.PTCONT.310999,R ANTÓNIO FELICIANO CASTILHO,6,3870-328,TORREIRA,-8.706179856929433,40.76009334468682
pt.ine.add.PTCONT.311000,AV HINTZE RIBEIRO,35,3870-323,TORREIRA,-8.704821475136928,40.760505304380985
pt.ine.add.PTCONT.311001,R GALRICHOS,,3870-347,TORREIRA,-8.70681592646103,40.75831621020349
pt.ine.add.PTCONT.311002,TV CHAPIM DE POUPA,,3870-414,TORREIRA,-8.704865369849522,40.75733534580808
pt.ine.add.PTCONT.311520,BC ROMARIZ,5,3870-031,BUNHEIRO,-8.652254657977492,40.768543021409194
pt.ine.add.PTCONT.311521,R MATA,,3870-026,BUNHEIRO,-8.631780303043003,40.77070444696628
pt.ine.add.PTCONT.311522,R VITORINO TAVARES SOUSA,71,3870-022,BUNHEIRO,-8.641299324324134,40.78105461527792
pt.ine.add.PTCONT.311523,R MESTRAS,59,3870-032,BUNHEIRO,-8.62992746531994,40.78274303180028
pt.ine.add.PTCONT.311524,BC BREJA DE CIMA,3,3870-013,BUNHEIRO,-8.636759767409814,40.780741335278144
pt.ine.add.PTCONT.311525,ESTR VARELA,19,3870-060,BUNHEIRO,-8.660983366833358,40.758003653841186
pt.ine.add.PTCONT.311526,R ESTEIRO,12,3870-018,BUNHEIRO,-8.662231327812497,40.75707943329283
pt.ine.add.PTCONT.311601,R COSTA,204,3870-037,BUNHEIRO,-8.662182167276988,40.75535971127262
pt.ine.add.PTCONT.311602,TV ADEIXOS,5,3870-025,BUNHEIRO,-8.65155958390312,40.75683070300617
pt.ine.add.PTCONT.311702,R CATRAZANAS,24,3870-105,MURTOSA,-8.64792597296295,40.75401040501503
pt.ine.add.PTCONT.311703,R ARRAIS MANUEL SEBOLAO,9,3870-105,MURTOSA,-8.6469592757924,40.75303317162204
pt.ine.add.PTCONT.311704,AV SANTO ANTÓNIO,8,3870-121,MURTOSA,-8.64078602656735,40.750971338232915
pt.ine.add.PTCONT.311705,AV SANTO ANTÓNIO,20,3870-121,MURTOSA,-8.641087047021545,40.75162737670794
pt.ine.add.PTCONT.311706,R CHANCELER JULIÃO,13,3870-129,MURTOSA,-8.641153278098919,40.7494388766202
pt.ine.add.PTCONT.311782,R SANTO ESTEVÃO,100,3870-137,MURTOSA,-8.636795060775723,40.74776504298855
pt.ine.add.PTCONT.311783,R RUI DO VOUGA,,3870-216,MURTOSA,-8.655314487066581,40.75089751179417
pt.ine.add.PTCONT.311784,BC RIGUEIRINHA 2,13,3870-199,MURTOSA,-8.653353877773423,40.74850203859569
pt.ine.add.PTCONT.311785,R ANTÓNIO JOSE FREITAS GUIMARÃES,22,3870-208,MURTOSA,-8.650416796650129,40.74842519062746
pt.ine.add.PTCONT.311786,R UNIAO BENEFICENTE MURTOENSE,35,3870-264,MURTOSA,-8.648386925888994,40.74622805158233
pt.ine.add.PTCONT.311787,R CAMILO CASTELO BRANCO,,3870-141,MURTOSA,-8.647512947577516,40.74344040603452
pt.ine.add.PTCONT.311888,R PADRE BARTOLOMEU DE GUSMÃO,14,3870-120,MURTOSA,-8.638190112748457,40.74278819619675
pt.ine.add.PTCONT.311889,R D AFONSO HENRIQUES,24,3870-161,MURTOSA,-8.636954767763372,40.7406864283407
pt.ine.add.PTCONT.311890,R FERREIRA DE CASTRO,16,3870-099,MURTOSA,-8.634272282920282,40.73977959799514
pt.ine.add.PTCONT.311891,R 25 DE ABRIL,,3870-151,MURTOSA,-8.6360557272577,40.73921353091378
pt.ine.add.PTCONT.311892,R DR CARLOS BARBOSA,11,3870-213,MURTOSA,-8.651429044565907,40.74764622128587
pt.ine.add.PTCONT.311893,R DR CARLOS BARBOSA,11,3870-213,MURTOSA,-8.651429044565907,40.74764622128587
pt.ine.add.PTCONT.311985,R DR CARLOS BARBOSA,11,3870-213,MURTOSA,-8.651429044565907,40.74764622128587
pt.ine.add.PTCONT.311986,R DR CARLOS BARBOSA,11,3870-213,MURTOSA,-8.651429044565907,40.74764622128587
pt.ine.add.PTCONT.311987,R DR CARLOS BARBOSA,11,3870-213,MURTOSA,-8.651429044565907,40.74764622128587
pt.ine.add.PTCONT.312095,R SAUDADE,7,3870-159,MURTOSA,-8.636990876257459,40.72978121797128
pt.ine.add.PTCONT.312190,EN 327,,3870-303,TORREIRA,-8.674694349505202,40.792708152672915
pt.ine.add.PTCONT.312191,EN 327,,3870-303,TORREIRA,-8.696128380170293,40.78289827390818
pt.ine.add.PTCONT.312192,EN 327,147,3870-304,TORREIRA,-8.695420490354516,40.77341054124591
pt.ine.add.PTCONT.312193,EN 327,141,3870-304,TORREIRA,-8.69439723292918,40.77286622221259
pt.ine.add.PTCONT.312771,R 25 DE ABRIL,90 A,3870-151,MURTOSA,-8.633890181081968,40.74092489030505
pt.ine.add.PTCONT.312776,LG 30 DE OUTUBRO,,3870-324,TORREIRA,-8.703136409488115,40.7601084171385
pt.ine.add.PTCONT.312782,R PADRE MANUEL JOSE VALENTE,15,3870-172,MURTOSA,-8.637179605119615,40.73596683015072
pt.ine.add.PTCONT.312854,R DR CARLOS BARBOSA,11,3870-213,MURTOSA,-8.651429044565907,40.74764622128587
pt.ine.add.PTCONT.312865,AV HINTZE RIBEIRO,35 A,3870-323,TORREIRA,-8.704821475136928,40.760505304380985
pt.ine.add.PTCONT.312869,R JOAQUIM ANTÓNIO SOARES,19,3870-167,MURTOSA,-8.639734507457954,40.735676489305604
pt.ine.add.PTCONT.312885,R ALFREDO BELO,13,3870-157,MURTOSA,-8.64828771942855,40.73644007435557
pt.ine.add.PTCONT.314751,R SANTA JOANA,23,3870-174,MURTOSA,-8.639484748707936,40.73552450034956
pt.ine.add.PTCONT.314726,R PASSADEIRAS,77,3870-028,BUNHEIRO,-8.631710718496537,40.77090285639753
pt.ine.add.PTCONT.314727,AV S MATEUS,194,3870-059,BUNHEIRO,-8.645361140430309,40.76851979648812
pt.ine.add.PTCONT.314729,R RUY DO VOUGA,103,3870-018,BUNHEIRO,-8.659818211505083,40.755919826669064
pt.ine.add.PTCONT.314730,R PROF RUELA RAMOS,8,3870-057,BUNHEIRO,-8.62929426146384,40.78361923397523
pt.ine.add.PTCONT.314734,TV VESSADAS,15,3870-033,BUNHEIRO,-8.6359085077365,40.769966139044044
pt.ine.add.PTCONT.314736,BC AGRO,75,3870-011,BUNHEIRO,-8.656785831917583,40.761849882809805
pt.ine.add.PTCONT.314737,VLA FACAO,,3870-181,MURTOSA,-8.65244804785864,40.747183107179424
pt.ine.add.PTCONT.314738,R FRANCISCO FERNANDO RENDEIRO,18,3870-165,MURTOSA,-8.63983688039078,40.74136719513316
pt.ine.add.PTCONT.314739,AV EMIGRANTE,125,3870-153,MURTOSA,-8.646687170428658,40.74383129772651
pt.ine.add.PTCONT.314740,R SAUDADE,,3870-263,MURTOSA,-8.652312422020477,40.750091603609064
pt.ine.add.PTCONT.314741,R LUIS CAMÕES,10,3870-236,MURTOSA,-8.652752990727368,40.74986179503598
pt.ine.add.PTCONT.314742,R MARIA ANJOS MATOS,9,3870-126,MURTOSA,-8.64809261362822,40.75258687665935
pt.ine.add.PTCONT.314743,R RATO,34,3870-130,MURTOSA,-8.633461165943709,40.751386805504595
pt.ine.add.PTCONT.314744,R CÓNEGO MANUEL NEDIO DE SOUSA,22,3870-049,BUNHEIRO,-8.650572296598824,40.76237318272726
pt.ine.add.PTCONT.314745,R ÁLVARES CABRAL,348,3870-126,MURTOSA,-8.644595685270907,40.75364700367619
pt.ine.add.PTCONT.314746,BC RIGUEIRINHA,,3870-199,MURTOSA,-8.653362489812643,40.74808777095364
pt.ine.add.PTCONT.314747,R PROF ALIPIO PORTUGAL,,3870-173,MURTOSA,-8.636486547064917,40.738270750833834
pt.ine.add.PTCONT.314748,R LAVOURA,56,3870-233,MURTOSA,-8.634021881683617,40.73638580212028
pt.ine.add.PTCONT.314749,R D MARIA DAS DORES TAVARES DE SOUSA,28,3870-164,MURTOSA,-8.652336398325062,40.74404015152318
pt.ine.add.PTCONT.314750,R PADRE MANUEL JOSE VALENTE,12,3870-172,MURTOSA,-8.636847664017434,40.735905244334305
pt.ine.add.PTCONT.314752,R AGRA DO RIBEIRO,38,3870-111,MURTOSA,-8.652163304137183,40.741573564697866
pt.ine.add.PTCONT.314753,R OUTEIRO DO PISCO,19,3870-176,MURTOSA,-8.64495178328633,40.736770090617114
pt.ine.add.PTCONT.314754,TV LAVOURA,10,3870-234,MURTOSA,-8.634913864645927,40.733779482981895
pt.ine.add.PTCONT.314755,EN 327,,3870-301,TORREIRA,-8.702146706316258,40.71763681977487
pt.ine.add.PTCONT.314756,R ARRAIS JOÃO FAUSTINO,26,3870-332,TORREIRA,-8.709365330627008,40.76006847794755
pt.ine.add.PTCONT.314757,R SALVADORES DO NATHALIE,22,3870-410,TORREIRA,-8.707205979757026,40.76373524596827
pt.ine.add.PTCONT.314758,R ARRAIS JOÃO FAUSTINO,16,3870-332,TORREIRA,-8.708453869914687,40.76011805018723
pt.ine.add.PTCONT.314759,R ARRAIS JOÃO FAUSTINO,16,3870-332,TORREIRA,-8.708453869914687,40.76011805018723
pt.ine.add.PTCONT.314760,R PROF FIRMINO ARESTA,41,3870-356,TORREIRA,-8.706498971258073,40.762775232385515
pt.ine.add.PTCONT.314761,LG VARINA,108,3870-404,TORREIRA,-8.71119729718029,40.7610138398906
pt.ine.add.PTCONT.314762,TV CHAPIM CARVOEIRO,,3870-413,TORREIRA,-8.703486661636656,40.758134603372966
pt.ine.add.PTCONT.314763,LG VARINA,97,3870-404,TORREIRA,-8.710376746754333,40.76062172975239
pt.ine.add.PTCONT.314764,LG VARINA,97,3870-404,TORREIRA,-8.710376746754333,40.76062172975239
pt.ine.add.PTCONT.314766,R BRANQUEIRA,,3870-335,TORREIRA,-8.707851807955524,40.75759066033198
pt.ine.add.PTCONT.314767,R BRANQUEIRA,120C,3870-335,TORREIRA,-8.708148239809711,40.75763420844734
pt.ine.add.PTCONT.314770,AV DESCOBRIMENTOS,41,3870-321,TORREIRA,-8.706623823885003,40.75938875358026
pt.ine.add.PTCONT.314771,AV DESCOBRIMENTOS,41,3870-321,TORREIRA,-8.706623823885003,40.75938875358026
pt.ine.add.PTCONT.315502,R PESCADORES,41,3870-104,MURTOSA,-8.631956638327681,40.759438488880335
pt.ine.add.PTCONT.315522,R PADRE AMÉRICO,27,3870-118,MURTOSA,-8.636628019085135,40.733465847973235
pt.ine.add.PTCONT.315527,R FERNANDES TOMAS,38,3870-184,MURTOSA,-8.632715565246631,40.740587791080664
pt.ine.add.PTCONT.315606,R PROF ABILIO RAMOS,70,3870-063,BUNHEIRO,-8.637185886211695,40.777560734441536
pt.ine.add.PTCONT.315640,BC MARIA MANTA,4,3870-130,MURTOSA,-8.63367396270219,40.74998484106505
pt.ine.add.PTCONT.317430,R MERCANTEIS,9,3870-349,TORREIRA,-8.70498070729,40.75973909517899
pt.ine.add.PTCONT.317385,BC ROMARIZ,7,3870-031,BUNHEIRO,-8.652444088826082,40.76853316415161
pt.ine.add.PTCONT.317389,BC BARREIROS,5,3870-032,BUNHEIRO,-8.62821537994118,40.780319059668805
pt.ine.add.PTCONT.317390,BC CAMINHO DA IGREJA,15,3870-014,BUNHEIRO,-8.640842187588548,40.77391571669934
pt.ine.add.PTCONT.317394,R GERMANO CRUZ,26,3870-281,MURTOSA,-8.635008483909914,40.747943920547485
pt.ine.add.PTCONT.317395,R LEVEGADA DE SEDOUROS,72,3870-046,BUNHEIRO,-8.650233588801113,40.75687267191269
pt.ine.add.PTCONT.317396,R PESCADORES,53,3870-104,MURTOSA,-8.633187487877176,40.759334107484555
pt.ine.add.PTCONT.317397,R FRANCISCO SASSU,20,3870-280,MURTOSA,-8.640110421921714,40.75088425833732
pt.ine.add.PTCONT.317398,AV SANTO ANTÓNIO,98,3870-121,MURTOSA,-8.642971361469725,40.7564817502992
pt.ine.add.PTCONT.317399,R CAMINHO DA MILHEIRA,35,3870-133,MURTOSA,-8.63159157196565,40.750200968263734
pt.ine.add.PTCONT.317400,BC LIMITE,11,3870-123,MURTOSA,-8.644960142746244,40.756391902442545
pt.ine.add.PTCONT.317401,R PADRE RODRIGO TAVARES,5,3870-127,MURTOSA,-8.644844420669779,40.75056620122059
pt.ine.add.PTCONT.317402,BC ENTRADA DE SEDOUROS,10,3870-019,BUNHEIRO,-8.635800303248654,40.76032230692435
pt.ine.add.PTCONT.317403,R LOPES DA CUNHA,,3870-304,TORREIRA,-8.694903945507416,40.785209498405514
pt.ine.add.PTCONT.317404,R MARTIM MONIZ,35,3870-170,MURTOSA,-8.63557083643785,40.74085455116175
pt.ine.add.PTCONT.317405,R FERNANDES TOMAS,23,3870-184,MURTOSA,-8.632377814845078,40.73975178836628
pt.ine.add.PTCONT.317406,CAM MACEDA,8,3870-238,MURTOSA,-8.63614709144403,40.73091052407227
pt.ine.add.PTCONT.317407,R CALIFA,5,3870-304,TORREIRA,-8.688347845668108,40.78323313553944
pt.ine.add.PTCONT.317408,EN 327,,3870-304,TORREIRA,-8.692292788963194,40.777577008996474
pt.ine.add.PTCONT.317409,BC MOUZINHO ALBUQUERQUE,3,3870-244,MURTOSA,-8.637086516495925,40.73878305259064
pt.ine.add.PTCONT.317410,TV FERREIRA DE CASTRO,,3870-099,MURTOSA,-8.63288133171674,40.73742632084083
pt.ine.add.PTCONT.317411,R DR CARLOS BARBOSA,29,3870-213,MURTOSA,-8.651307008778485,40.74717851050804
pt.ine.add.PTCONT.317412,R DR CARLOS BARBOSA,29,3870-213,MURTOSA,-8.651307008778485,40.74717851050804
pt.ine.add.PTCONT.317413,R DR CARLOS BARBOSA,29,3870-213,MURTOSA,-8.651307008778485,40.74717851050804
pt.ine.add.PTCONT.317414,R DR CARLOS BARBOSA,29,3870-213,MURTOSA,-8.651307008778485,40.74717851050804
pt.ine.add.PTCONT.317415,R DR CARLOS BARBOSA,29,3870-213,MURTOSA,-8.651307008778485,40.74717851050804
pt.ine.add.PTCONT.317416,R DR CARLOS BARBOSA,29,3870-213,MURTOSA,-8.651307008778485,40.74717851050804
pt.ine.add.PTCONT.317417,CAM MOINHO,28,3870-303,TORREIRA,-8.67797481110329,40.79976155131005
pt.ine.add.PTCONT.317418,R JOÃO DAS REGRAS,18,3870-166,MURTOSA,-8.639608820181524,40.73471350616706
pt.ine.add.PTCONT.317419,R AGRO,12,3870-112,MURTOSA,-8.645808955485778,40.738936489411586
pt.ine.add.PTCONT.317420,R JOÃO DAS REGRAS,7,3870-166,MURTOSA,-8.638692876196947,40.7341321969231
pt.ine.add.PTCONT.317421,R SALVADORES DO NATHALIE,,3870-410,TORREIRA,-8.707772807654447,40.76354332113005
pt.ine.add.PTCONT.317422,R SALVADORES DO NATHALIE,,3870-410,TORREIRA,-8.707772807654447,40.76354332113005
pt.ine.add.PTCONT.317423,R SALVADORES DO NATHALIE,,3870-410,TORREIRA,-8.707772807654447,40.76354332113005
pt.ine.add.PTCONT.317424,TV CHAPIM CARVOEIRO,,3870-413,TORREIRA,-8.702989457224254,40.75815506949461
pt.ine.add.PTCONT.317425,LG VARINA,,3870-404,TORREIRA,-8.712374327086156,40.76065536482864
pt.ine.add.PTCONT.317426,R GALRICHOS,,3870-347,TORREIRA,-8.706801065444271,40.75796509114068
pt.ine.add.PTCONT.317427,R MERCANTEIS,9,3870-349,TORREIRA,-8.70498070729,40.75973909517899
pt.ine.add.PTCONT.317428,R MERCANTEIS,9,3870-349,TORREIRA,-8.70498070729,40.75973909517899
pt.ine.add.PTCONT.317429,R MERCANTEIS,9,3870-349,TORREIRA,-8.70498070729,40.75973909517899
pt.ine.add.PTCONT.317431,R MERCANTEIS,9,3870-349,TORREIRA,-8.70498070729,40.75973909517899
pt.ine.add.PTCONT.317432,R MERCANTEIS,9,3870-349,TORREIRA,-8.70498070729,40.75973909517899
pt.ine.add.PTCONT.318188,R SALVADORES DO NATHALIE,,3870-410,TORREIRA,-8.707772807654447,40.76354332113005
pt.ine.add.PTCONT.318348,AV SANTO ANTÓNIO,91,3870-121,MURTOSA,-8.643638422404885,40.75699208433698
pt.ine.add.PTCONT.318523,R D JOÃO DE CASTRO,16,3870-163,MURTOSA,-8.647120610514033,40.73861548092455
pt.ine.add.PTCONT.320119,BC ROMARIZ,3,3870-031,BUNHEIRO,-8.652016520936124,40.76838200344767
pt.ine.add.PTCONT.320120,R CAMINHO DA RENDA,12,3870-030,BUNHEIRO,-8.657038343600993,40.75931834450505
pt.ine.add.PTCONT.320121,TV FEITAL,,3870-021,BUNHEIRO,-8.642609192851626,40.76643382635645
pt.ine.add.PTCONT.320124,R BOCA DA MARINHA,15,3870-012,BUNHEIRO,-8.638508971870221,40.784893962432285
pt.ine.add.PTCONT.320129,R PADRE DR GONÇALO ANTÓNIO TAVARES DE SOUSA,17,3870-022,BUNHEIRO,-8.644597778488809,40.77245834192372
pt.ine.add.PTCONT.320131,R PADRE DR GONÇALO ANTÓNIO TAVARES DE SOUSA,56,3870-022,BUNHEIRO,-8.643839920916522,40.77093986358449
pt.ine.add.PTCONT.320132,R ESTEIRO,23,3870-018,BUNHEIRO,-8.663268499593862,40.757948154421186
pt.ine.add.PTCONT.320133,CAM LAGONCHA,121,3870-137,MURTOSA,-8.635401412786251,40.745087632223516
pt.ine.add.PTCONT.320134,CAM MALPICA,16,3870-104,MURTOSA,-8.630790704719466,40.76030799892144
pt.ine.add.PTCONT.320135,R S VICENTE PAULO,11,3870-104,MURTOSA,-8.634454739514934,40.75934661933423
pt.ine.add.PTCONT.320136,R SAUDADE,8,3870-263,MURTOSA,-8.652008838126019,40.750642272171966
pt.ine.add.PTCONT.320137,R CAMILO CASTELO BRANCO,,3870-141,MURTOSA,-8.647151596423182,40.74264057239633
pt.ine.add.PTCONT.320138,CAM S SIMAO,,3870-031,BUNHEIRO,-8.649286525960276,40.764567143969394
pt.ine.add.PTCONT.320139,R 1 DE DEZEMBRO,28,3870-123,MURTOSA,-8.64555860526194,40.755677854528855
pt.ine.add.PTCONT.320140,CAM MILHEIRA,14,3870-294,MURTOSA,-8.632805851093602,40.75106919991446
pt.ine.add.PTCONT.320141,R ANTÓNIO VIEIRA PINTO,18,3870-127,MURTOSA,-8.642093676531504,40.750582767500475
pt.ine.add.PTCONT.320142,CARREIRO DA TOMADIA,25,3870-019,BUNHEIRO,-8.641387777283272,40.760018680294735
pt.ine.add.PTCONT.320143,CARREIRO DA TOMADIA,25,3870-019,BUNHEIRO,-8.641387777283272,40.760018680294735
pt.ine.add.PTCONT.320144,R EMIGRANTE,,3870-304,TORREIRA,-8.696912162899084,40.77751851273169
pt.ine.add.PTCONT.320145,R D AFONSO HENRIQUES,54,3870-161,MURTOSA,-8.63779104508607,40.74168232844247
pt.ine.add.PTCONT.320146,R CALIFA,11,3870-304,TORREIRA,-8.693550281615858,40.78625164516029
pt.ine.add.PTCONT.320147,R S TOMÉ,34,3870-176,MURTOSA,-8.644078319146907,40.73865600420011
pt.ine.add.PTCONT.320148,R PROF ALIPIO PORTUGAL,39,3870-173,MURTOSA,-8.635922763280501,40.737278036586915
pt.ine.add.PTCONT.320149,R PADRE MANUEL JOSE VALENTE,,3870-172,MURTOSA,-8.638169110074749,40.73688101417749
pt.ine.add.PTCONT.320150,R D DINIS,104,3870-162,MURTOSA,-8.636173823943919,40.72817288539463
pt.ine.add.PTCONT.320151,R 9 DE ABRIL,122,3870-155,MURTOSA,-8.639224212800661,40.73707450237269
pt.ine.add.PTCONT.320152,LUGAR DAS ARROTAS,31,3870-193,MURTOSA,-8.655586681389195,40.74482692701987
pt.ine.add.PTCONT.320153,CAM REGEDOR,,3870-254,MURTOSA,-8.64954667259805,40.74461998168629
pt.ine.add.PTCONT.320154,R AGRO,19,3870-112,MURTOSA,-8.64630769785402,40.73913238270861
pt.ine.add.PTCONT.320155,R S TOMÉ,7,3870-176,MURTOSA,-8.64633047971166,40.73747536299241
pt.ine.add.PTCONT.320156,ESTR RIBEIRA,,3870-168,MURTOSA,-8.65569978829618,40.74112536728247
pt.ine.add.PTCONT.320157,R CAMINHO DO NORTE,211,3870-303,TORREIRA,-8.678145930923904,40.800400090221444
pt.ine.add.PTCONT.320158,R LAGONCHA,27,3870-231,MURTOSA,-8.633916859460676,40.74448174448182
pt.ine.add.PTCONT.320159,R FERNÃO DE MAGALHÃES,7,3870-183,MURTOSA,-8.653059143196597,40.741065253355366
pt.ine.add.PTCONT.320160,R PADRE BARTOLOMEU DE GUSMÃO,8,3870-120,MURTOSA,-8.638399926078135,40.742313589445274
pt.ine.add.PTCONT.320161,AV ENG DUARTE PACHECO,20,3870-322,TORREIRA,-8.699212431628782,40.76381975850313
pt.ine.add.PTCONT.320162,AV ENG DUARTE PACHECO,62,3870-322,TORREIRA,-8.700704955665492,40.761065920256925
pt.ine.add.PTCONT.320163,R ANTÓNIO DA CRUZ BARBOSA,,3870-327,TORREIRA,-8.701550367872217,40.76160205586158
pt.ine.add.PTCONT.320164,R ANTÓNIO DA CRUZ BARBOSA,,3870-327,TORREIRA,-8.701550367872217,40.76160205586158
pt.ine.add.PTCONT.320165,R ANTÓNIO DA CRUZ BARBOSA,,3870-327,TORREIRA,-8.701550367872217,40.76160205586158
pt.ine.add.PTCONT.320166,R ANTÓNIO DA CRUZ BARBOSA,,3870-327,TORREIRA,-8.701550367872217,40.76160205586158
pt.ine.add.PTCONT.320167,R ANTÓNIO DA CRUZ BARBOSA,,3870-327,TORREIRA,-8.701550367872217,40.76160205586158
pt.ine.add.PTCONT.320169,R NAVEGANTES,34,3870-351,TORREIRA,-8.711618445134393,40.75904865196077
pt.ine.add.PTCONT.320170,R NAVEGANTES,34,3870-351,TORREIRA,-8.711618445134393,40.75904865196077
pt.ine.add.PTCONT.320171,R NAVEGANTES,34,3870-351,TORREIRA,-8.711618445134393,40.75904865196077
pt.ine.add.PTCONT.320905,R ANTÓNIO DA CRUZ BARBOSA,,3870-327,TORREIRA,-8.701550367872217,40.76160205586158
pt.ine.add.PTCONT.320995,R NAVEGANTES,34,3870-351,TORREIRA,-8.711618445134393,40.75904865196077
pt.ine.add.PTCONT.321023,TV MATA,28,3870-026,BUNHEIRO,-8.627938388218725,40.77332341296707
pt.ine.add.PTCONT.321122,R FERNÃO DE MAGALHÃES,12,3870-183,MURTOSA,-8.653982017931542,40.74098905235675
pt.ine.add.PTCONT.321915,AV 29 DE OUTUBRO,13,3870-206,MURTOSA,-8.652013188608878,40.749678720630904
pt.ine.add.PTCONT.321916,R 9 DE ABRIL,47,3870-155,MURTOSA,-8.645980631359475,40.74125000879657
pt.ine.add.PTCONT.322002,R 25 DE ABRIL,86,3870-151,MURTOSA,-8.634185141054362,40.74078853531456
pt.ine.add.PTCONT.322003,R PADRE BARTOLOMEU DE GUSMÃO,31,3870-120,MURTOSA,-8.638525429376468,40.74329100753949
pt.ine.add.PTCONT.322004,R MOUZINHO DE ALBUQUERQUE,24,3870-171,MURTOSA,-8.63818831592033,40.73942033826139
pt.ine.add.PTCONT.322005,R MOUZINHO DE ALBUQUERQUE,32,3870-171,MURTOSA,-8.63737375970309,40.73973006957195
pt.ine.add.PTCONT.322109,AV LIBERDADE,22,3870-152,MURTOSA,-8.638125900686775,40.735863638680634
pt.ine.add.PTCONT.322110,R D DINIS,87,3870-162,MURTOSA,-8.635981005909098,40.729290346633896
pt.ine.add.PTCONT.322111,R D DINIS,90,3870-162,MURTOSA,-8.636405369503345,40.72905436686024
pt.ine.add.PTCONT.322112,CAM NORTE,,3870-303,TORREIRA,-8.671513356532621,40.81547838045784
pt.ine.add.PTCONT.322232,R LAVADOURO,691,3870-303,TORREIRA,-8.68299103274926,40.79591067621118
pt.ine.add.PTCONT.322233,R LOPES DA CUNHA,2,3870-304,TORREIRA,-8.694380568590596,40.784959907860625
pt.ine.add.PTCONT.322334,R ENG DUARTE PACHECO,89A,3870-322,TORREIRA,-8.701617690689874,40.759773720533076
pt.ine.add.PTCONT.322335,AV CIRCUNVALAÇÃO,32,3870-336,TORREIRA,-8.701656719388875,40.76574380425424
pt.ine.add.PTCONT.322336,TV AREAL,6,3870-407,TORREIRA,-8.70472727499106,40.76333332270185
pt.ine.add.PTCONT.322337,EN 327,62,3870-301,TORREIRA,-8.709498961270226,40.71931129350312
pt.ine.add.PTCONT.322338,EN 327,25,3870-301,TORREIRA,-8.70486216420819,40.71824474741111
pt.ine.add.PTCONT.322339,R AREIAS,12,3870-342,TORREIRA,-8.707643058581708,40.76222924596838
pt.ine.add.PTCONT.322340,R AREIAS,12,3870-342,TORREIRA,-8.707643058581708,40.76222924596838
pt.ine.add.PTCONT.322450,R AREIAS,12,3870-342,TORREIRA,-8.707643058581708,40.76222924596838
pt.ine.add.PTCONT.322451,R AREIAS,12,3870-342,TORREIRA,-8.707643058581708,40.76222924596838
pt.ine.add.PTCONT.322452,R AREIAS,12,3870-342,TORREIRA,-8.707643058581708,40.76222924596838
pt.ine.add.PTCONT.322453,R AREIAS,12,3870-342,TORREIRA,-8.707643058581708,40.76222924596838
pt.ine.add.PTCONT.322454,R AREIAS,12,3870-342,TORREIRA,-8.707643058581708,40.76222924596838
pt.ine.add.PTCONT.322455,R AREIAS,12,3870-342,TORREIRA,-8.707643058581708,40.76222924596838
pt.ine.add.PTCONT.322456,R AREIAS,12,3870-342,TORREIRA,-8.707643058581708,40.76222924596838
pt.ine.add.PTCONT.322654,R NAVEGANTES,6,3870-351,TORREIRA,-8.710536926393331,40.75860382098011
pt.ine.add.PTCONT.322655,AV DESCOBRIMENTOS,22,3870-321,TORREIRA,-8.707592005761883,40.75905075522016
pt.ine.add.PTCONT.322656,AV DESCOBRIMENTOS,22,3870-321,TORREIRA,-8.707592005761883,40.75905075522016
pt.ine.add.PTCONT.323207,R IGREJA,129,3870-022,BUNHEIRO,-8.645217336261274,40.77447270011725
pt.ine.add.PTCONT.323208,R PASSADOUROS,66,3870-028,BUNHEIRO,-8.631622693907527,40.770218860906866
pt.ine.add.PTCONT.323209,R LAGOINHA BSG,,3870-024,BUNHEIRO,-8.643763547182283,40.770246821044395
pt.ine.add.PTCONT.323293,R FORMIGA,52,3870-041,BUNHEIRO,-8.635217747280633,40.78519648777588
pt.ine.add.PTCONT.323294,R PADRE MANUEL RUELA POMBO,34A,3870-050,BUNHEIRO,-8.65723456798606,40.758669096625056
pt.ine.add.PTCONT.323295,R RUY DO VOUGA,61,3870-018,BUNHEIRO,-8.657526447707722,40.753615987398724
pt.ine.add.PTCONT.323296,R FEITAL,,3870-021,BUNHEIRO,-8.641909398895043,40.76630183951715
pt.ine.add.PTCONT.323297,R FEITAL,58,3870-021,BUNHEIRO,-8.642226742825057,40.76753411782053
pt.ine.add.PTCONT.323400,R FEITAL,58,3870-021,BUNHEIRO,-8.642226742825057,40.76753411782053
pt.ine.add.PTCONT.323401,R REITOR RUELA,9,3870-056,BUNHEIRO,-8.649317804352767,40.76248686024463
pt.ine.add.PTCONT.323402,R 1 DE DEZEMBRO,21,3870-123,MURTOSA,-8.645388607375239,40.7551293063612
pt.ine.add.PTCONT.323504,R D FRANCISCO MARIA DA SILVA,3,3870-279,MURTOSA,-8.640056817524703,40.75318076151091
pt.ine.add.PTCONT.323505,BC MARIA MANTA,7,3870-130,MURTOSA,-8.633284573996704,40.75016662874222
pt.ine.add.PTCONT.323506,VLA CONSTRUCAO NAVAL,18,3870-278,MURTOSA,-8.638126730512896,40.746930765699545
pt.ine.add.PTCONT.323551,R FRANCISCO FERNANDO RENDEIRO,54,3870-165,MURTOSA,-8.641884449070238,40.73972828453274
pt.ine.add.PTCONT.323565,TV D AFONSO HENRIQUES,9,3870-109,MURTOSA,-8.636871012330984,40.74056972906235
pt.ine.add.PTCONT.323710,BC ENTRADA DE SEDOUROS,I2,3870-019,BUNHEIRO,-8.635421550403342,40.76035097093478
pt.ine.add.PTCONT.323817,R ÁLVARES CABRAL,6,3870-126,MURTOSA,-8.647258819628561,40.751951241277965
pt.ine.add.PTCONT.324177,R VASCO DA GAMA,28,3870-178,MURTOSA,-8.643165404383462,40.733833364594965
pt.ine.add.PTCONT.324178,R BALSA,23,3870-176,MURTOSA,-8.647072746383683,40.73547295144258
pt.ine.add.PTCONT.324179,R CAMINHO DO NORTE,723,3870-303,TORREIRA,-8.67993937998356,40.802345664966715
pt.ine.add.PTCONT.324317,R MOLICEIROS,,3870-350,TORREIRA,-8.702514928245904,40.75944511913807
pt.ine.add.PTCONT.324314,R CAPELA,18 A,3870-303,TORREIRA,-8.677789344168673,40.80026670073712
pt.ine.add.PTCONT.324315,R EMIGRANTE,41,3870-304,TORREIRA,-8.697444440069473,40.777425861744725
pt.ine.add.PTCONT.324316,R MOLICEIROS,,3870-350,TORREIRA,-8.702514928245904,40.75944511913807
pt.ine.add.PTCONT.324318,EN 327,93,3870-304,TORREIRA,-8.697423018576337,40.76929451859145
pt.ine.add.PTCONT.324402,AV HINTZE RIBEIRO,,3870-323,TORREIRA,-8.702419258765781,40.76072429332347
pt.ine.add.PTCONT.324403,EN 327,,3870-301,TORREIRA,-8.7004378176862,40.74496637149099
pt.ine.add.PTCONT.324505,R NAVEGANTES,59,3870-351,TORREIRA,-8.712980510424973,40.75906883111047
pt.ine.add.PTCONT.324506,R PROF FIRMINO ARESTA,29,3870-356,TORREIRA,-8.70614516029426,40.76294808359291
pt.ine.add.PTCONT.324626,R CASAL,15,3870-014,BUNHEIRO,-8.642848582114107,40.77141250358813
pt.ine.add.PTCONT.324627,R 10 DE JUNHO,,3870-325,TORREIRA,-8.708434181988014,40.761955156551856
pt.ine.add.PTCONT.324628,R HENRIQUE JOSE TAVARES JUNIOR,55,3870-354,TORREIRA,-8.71088769011744,40.76218603263412
pt.ine.add.PTCONT.324629,R HENRIQUE JOSE TAVARES JUNIOR,55,3870-354,TORREIRA,-8.71088769011744,40.76218603263412
pt.ine.add.PTCONT.324630,R HENRIQUE JOSE TAVARES JUNIOR,55,3870-354,TORREIRA,-8.71088769011744,40.76218603263412
pt.ine.add.PTCONT.324631,R HENRIQUE JOSE TAVARES JUNIOR,55,3870-354,TORREIRA,-8.71088769011744,40.76218603263412
pt.ine.add.PTCONT.324632,R HENRIQUE JOSE TAVARES JUNIOR,55,3870-354,TORREIRA,-8.71088769011744,40.76218603263412
pt.ine.add.PTCONT.324730,R RUY DO VOUGA,81,3870-018,BUNHEIRO,-8.657997033931261,40.75473046373097
pt.ine.add.PTCONT.324731,R ARCEBISPO CANGRANOR,,3870-039,BUNHEIRO,-8.652705808514927,40.76259772552349
pt.ine.add.PTCONT.324732,R ARCEBISPO CANGRANOR,176,3870-039,BUNHEIRO,-8.652289068914628,40.763833279405915
pt.ine.add.PTCONT.324733,AV S MATEUS,106,3870-059,BUNHEIRO,-8.64405755587024,40.76224012047315
pt.ine.add.PTCONT.324734,AV S MATEUS,47,3870-059,BUNHEIRO,-8.643659564525864,40.75820766068132
pt.ine.add.PTCONT.324735,R MARINHEIROS,,3870-348,TORREIRA,-8.710698431780706,40.75947649244696
pt.ine.add.PTCONT.324862,VLA LAZARO JOSE COSTEIRA,6,3870-126,MURTOSA,-8.641624633938847,40.7569109253214
pt.ine.add.PTCONT.324863,R MARIA DOS ANJOS MATOS,39,3870-126,MURTOSA,-8.649078749855295,40.75454555504827
pt.ine.add.PTCONT.324864,AV SANTO ANTÓNIO,47,3870-121,MURTOSA,-8.64228404403648,40.753315036484416
pt.ine.add.PTCONT.324865,R ALMEIDA GARRETT,26,3870-125,MURTOSA,-8.645674216665228,40.75222843867814
pt.ine.add.PTCONT.324866,AV SANTO ANTÓNIO,15 C,3870-121,MURTOSA,-8.641190255813678,40.751185678767015
pt.ine.add.PTCONT.324867,AV SANTO ANTÓNIO,11,3870-121,MURTOSA,-8.641165477674493,40.75104170828241
pt.ine.add.PTCONT.325027,TV REGUEIRINHA,24,3870-219,MURTOSA,-8.653764452950213,40.74952675410566
pt.ine.add.PTCONT.325028,R BRANQUEIRA,120C,3870-335,TORREIRA,-8.707645091032154,40.75833910022094
pt.ine.add.PTCONT.325029,R BRANQUEIRA,120C,3870-335,TORREIRA,-8.707645091032154,40.75833910022094
pt.ine.add.PTCONT.325030,R BRANQUEIRA,120C,3870-335,TORREIRA,-8.70773308024463,40.75755523174838
pt.ine.add.PTCONT.325031,R BRANQUEIRA,120C,3870-335,TORREIRA,-8.70773308024463,40.75755523174838
pt.ine.add.PTCONT.325151,R AGRO,32,3870-112,MURTOSA,-8.647252445962158,40.74036186167727
pt.ine.add.PTCONT.325152,R AGRO,32,3870-112,MURTOSA,-8.647252445962158,40.74036186167727
pt.ine.add.PTCONT.325274,R SANTO ESTEVÃO,26,3870-260,MURTOSA,-8.63588586279582,40.743383580852594
pt.ine.add.PTCONT.325275,R LAGONCHA,10,3870-231,MURTOSA,-8.634407360374796,40.74357911661554
pt.ine.add.PTCONT.325276,R FERREIRA DE CASTRO,33,3870-099,MURTOSA,-8.633555007456197,40.73885519598948
pt.ine.add.PTCONT.325277,TV 25 DE ABRIL,14,3870-103,MURTOSA,-8.636334937643026,40.7401308230382
pt.ine.add.PTCONT.325391,CAM REGEDOR,4,3870-254,MURTOSA,-8.650079522942711,40.74462660119243
pt.ine.add.PTCONT.325392,CAM REGEDOR,6,3870-254,MURTOSA,-8.650245137424601,40.74460784930361
pt.ine.add.PTCONT.325393,AV EMIGRANTE,,3870-153,MURTOSA,-8.640381962391674,40.73831210906641
pt.ine.add.PTCONT.325394,R 9 DE ABRIL,96,3870-155,MURTOSA,-8.642457677558685,40.73882525724095
pt.ine.add.PTCONT.325395,R PROF ALIPIO PORTUGAL,4,3870-173,MURTOSA,-8.63679141527504,40.73472583506194
pt.ine.add.PTCONT.325396,R LUIS CARNEIRO DA SILVA,,3870-169,MURTOSA,-8.64348192280969,40.734975600227706
pt.ine.add.PTCONT.326155,R BREJA DE CIMA,37,3870-013,BUNHEIRO,-8.635249946540837,40.77846066293145
pt.ine.add.PTCONT.326274,R 9 DE ABRIL,45,3870-155,MURTOSA,-8.646241919300282,40.7413569072997
pt.ine.add.PTCONT.326311,EN 327,823,3870-303,TORREIRA,-8.670618627922098,40.81622995611733
pt.ine.add.PTCONT.326345,R CHÃO DO MONTE,,3870-016,BUNHEIRO,-8.649293213270242,40.76083906356157
pt.ine.add.PTCONT.326347,BC MARIA MANTA,2,3870-130,MURTOSA,-8.633545066828981,40.75016549954302
pt.ine.add.PTCONT.326598,R HENRIQUE JOSE TAVARES JUNIOR,55,3870-354,TORREIRA,-8.71088769011744,40.76218603263412
pt.ine.add.PTCONT.328225,TV FORMIGA,21,3870-040,BUNHEIRO,-8.632250267378579,40.786019804750914
pt.ine.add.PTCONT.328226,R BOCA DA MARINHA,20,3870-012,BUNHEIRO,-8.638599785858338,40.78437127923025
pt.ine.add.PTCONT.328229,R CASAL,55,3870-014,BUNHEIRO,-8.642349775284528,40.77434131080657
pt.ine.add.PTCONT.328231,R CASAL,47,3870-014,BUNHEIRO,-8.642371058451296,40.77402604410776
pt.ine.add.PTCONT.328234,R CASAL,16,3870-014,BUNHEIRO,-8.64224905744651,40.77200947624233
pt.ine.add.PTCONT.328236,R RUI DO VOUGA,24,3870-216,MURTOSA,-8.655630028097654,40.75187762528873
pt.ine.add.PTCONT.328237,R ALEXANDRE HERCULANO,28,3870-116,MURTOSA,-8.648438687776528,40.745264287683774
pt.ine.add.PTCONT.328238,R ALEXANDRE HERCULANO,10,3870-116,MURTOSA,-8.64792836682279,40.743573628565315
pt.ine.add.PTCONT.328239,R ALFREDO RESENDE,11,3870-117,MURTOSA,-8.64546496757217,40.74193667798745
pt.ine.add.PTCONT.328240,CAM S SIMAO,,3870-031,BUNHEIRO,-8.649096479061669,40.76449595423704
pt.ine.add.PTCONT.328241,R REITOR RUELA,,3870-056,BUNHEIRO,-8.638827717810482,40.76287549323829
pt.ine.add.PTCONT.328242,R DR GUERRA JUNQUEIRO,38A,3870-133,MURTOSA,-8.633578979231748,40.74952428824269
pt.ine.add.PTCONT.328243,R PADRE MANUEL RUELA POMBO,61,3870-050,BUNHEIRO,-8.6547938231249,40.760030898870845
pt.ine.add.PTCONT.328244,R JORNAL CONCELHO DA MURTOSA,13,3870-288,MURTOSA,-8.640890216404767,40.75377142577015
pt.ine.add.PTCONT.328245,R EMIGRANTE,48,3870-304,TORREIRA,-8.69703114909002,40.777580965770234
pt.ine.add.PTCONT.328246,EN 327,,3870-303,TORREIRA,-8.692899440711052,40.780698774217996
pt.ine.add.PTCONT.328247,AV HINTZE RIBEIRO,,3870-323,TORREIRA,-8.701991015829028,40.76050128145916
pt.ine.add.PTCONT.328248,R D DINIS,15,3870-162,MURTOSA,-8.635826246653862,40.733892577818594
pt.ine.add.PTCONT.328249,R PADRE MANUEL JOSE VALENTE,7,3870-172,MURTOSA,-8.63696325911062,40.735535534893884
pt.ine.add.PTCONT.328250,TV D JOÃO DE CASTRO,24,3870-227,MURTOSA,-8.647760098199221,40.738639646260275
pt.ine.add.PTCONT.328251,EN 327,,3870-304,TORREIRA,-8.687163239612866,40.78609338600862
pt.ine.add.PTCONT.328252,R S TOMÉ,51,3870-176,MURTOSA,-8.643800323635398,40.7394586787283
pt.ine.add.PTCONT.328253,R LUIS CARNEIRO DA SILVA,101,3870-169,MURTOSA,-8.6443909269528,40.737736110681425
pt.ine.add.PTCONT.328254,R PADRE AMÉRICO,5,3870-118,MURTOSA,-8.63711938565671,40.73317445108468
pt.ine.add.PTCONT.328255,R LAVRADOR,9,3870-303,TORREIRA,-8.676001185246964,40.80041020131703
pt.ine.add.PTCONT.328256,R SANTA MAFALDA,48,3870-175,MURTOSA,-8.644209408027573,40.735674770907266
pt.ine.add.PTCONT.328257,EN 327,,3870-303,TORREIRA,-8.67393210610566,40.79514305054235
pt.ine.add.PTCONT.328258,R LAGONCHA,4,3870-231,MURTOSA,-8.635115829359355,40.74332389773852
pt.ine.add.PTCONT.328259,R FERNÃO DE MAGALHÃES,14,3870-183,MURTOSA,-8.653956373371525,40.74073702848162
pt.ine.add.PTCONT.328260,R AGRA DO RIBEIRO,6,3870-111,MURTOSA,-8.650119182338509,40.74057418077795
pt.ine.add.PTCONT.328261,R D JOÃO DE CASTRO,43,3870-163,MURTOSA,-8.648938510209485,40.73946284488162
pt.ine.add.PTCONT.328262,R BALSA,8,3870-197,MURTOSA,-8.647279191094817,40.73614740661786
pt.ine.add.PTCONT.328263,R PADRE BARTOLOMEU DE GUSMÃO,16,3870-120,MURTOSA,-8.637918013864367,40.742816401558166
pt.ine.add.PTCONT.328264,R VASCO DA GAMA QUINTA DA CANEINA,,3870-178,MURTOSA,-8.64259101412896,40.73302545140373
pt.ine.add.PTCONT.328265,R SALVADORES DO NATHALIE,43,3870-410,TORREIRA,-8.705883600464515,40.76421007348677
pt.ine.add.PTCONT.328266,R AREIAS,22,3870-342,TORREIRA,-8.708756105522784,40.76220568958626
pt.ine.add.PTCONT.328267,R 10 JUNHO,,3870-325,TORREIRA,-8.708756105522784,40.76220568958626
pt.ine.add.PTCONT.328268,R AREIAS,22,3870-342,TORREIRA,-8.708756105522784,40.76220568958626
pt.ine.add.PTCONT.328269,R AREIAS,22,3870-342,TORREIRA,-8.708756105522784,40.76220568958626
pt.ine.add.PTCONT.328270,R AREIAS,22,3870-342,TORREIRA,-8.708756105522784,40.76220568958626
pt.ine.add.PTCONT.328271,R AREIAS,22,3870-342,TORREIRA,-8.708756105522784,40.76220568958626
pt.ine.add.PTCONT.328272,R AREIAS,22,3870-342,TORREIRA,-8.708756105522784,40.76220568958626
pt.ine.add.PTCONT.328273,R AREIAS,22,3870-342,TORREIRA,-8.708756105522784,40.76220568958626
pt.ine.add.PTCONT.328274,R ANTÓNIO DA CRUZ BARBOSA,48,3870-327,TORREIRA,-8.700951075969696,40.76215430764203
pt.ine.add.PTCONT.328275,R ANTÓNIO DA CRUZ BARBOSA,48,3870-327,TORREIRA,-8.700951075969696,40.76215430764203
pt.ine.add.PTCONT.328276,R ANTÓNIO DA CRUZ BARBOSA,48,3870-327,TORREIRA,-8.700951075969696,40.76215430764203
pt.ine.add.PTCONT.328277,R ANTÓNIO DA CRUZ BARBOSA,48,3870-327,TORREIRA,-8.700951075969696,40.76215430764203
pt.ine.add.PTCONT.328278,R ANTÓNIO DA CRUZ BARBOSA,48,3870-327,TORREIRA,-8.700951075969696,40.76215430764203
pt.ine.add.PTCONT.328279,R ANTÓNIO DA CRUZ BARBOSA,48,3870-327,TORREIRA,-8.700951075969696,40.76215430764203
pt.ine.add.PTCONT.328280,R MARIA AUGUSANTA CRUZ BARBOSA,9,3870-355,TORREIRA,-8.706140288070916,40.762380796549415
pt.ine.add.PTCONT.328281,R 10 DE JUNHO,,3870-325,TORREIRA,-8.708450645991904,40.76111761491904
pt.ine.add.PTCONT.328282,EN 327,3S,3870-304,TORREIRA,-8.696891386418258,40.76805443626057
pt.ine.add.PTCONT.328283,R MARIA AUGUSANTA CRUZ BARBOSA,47,3870-355,TORREIRA,-8.70649742355991,40.76259514127245
pt.ine.add.PTCONT.328284,R 10 DE JUNHO,,3870-325,TORREIRA,-8.708450645991904,40.76111761491904
pt.ine.add.PTCONT.328285,R 10 DE JUNHO,,3870-325,TORREIRA,-8.708450645991904,40.76111761491904
pt.ine.add.PTCONT.328286,R 10 DE JUNHO,,3870-325,TORREIRA,-8.708450645991904,40.76111761491904
pt.ine.add.PTCONT.328287,R 10 DE JUNHO,,3870-325,TORREIRA,-8.708450645991904,40.76111761491904
pt.ine.add.PTCONT.328288,R PROF FIRMINO ARESTA,,3870-356,TORREIRA,-8.704488491472103,40.7631093816809
pt.ine.add.PTCONT.328289,LG 30 DE OUTUBRO,33,3870-324,TORREIRA,-8.703932764856301,40.76044666888976
pt.ine.add.PTCONT.328290,LG 30 DE OUTUBRO,33,3870-324,TORREIRA,-8.703932764856301,40.76044666888976
pt.ine.add.PTCONT.328291,LG 30 DE OUTUBRO,33,3870-324,TORREIRA,-8.703932764856301,40.76044666888976
pt.ine.add.PTCONT.328292,LG 30 DE OUTUBRO,33,3870-324,TORREIRA,-8.703932764856301,40.76044666888976
pt.ine.add.PTCONT.328293,TV CHAPIM CARVOEIRO,A25,3870-413,TORREIRA,-8.704576344079944,40.75815622761403
pt.ine.add.PTCONT.328294,URB TORREIRINHA,,3870-366,TORREIRA,-8.709832662230806,40.75659023431873
pt.ine.add.PTCONT.328299,AV 12 DE JULHO,,3870-391,TORREIRA,-8.705518131744038,40.75750320410159
pt.ine.add.PTCONT.328300,AV 12 DE JULHO,,3870-391,TORREIRA,-8.705518131744038,40.75750320410159
pt.ine.add.PTCONT.328301,AV 12 DE JULHO,,3870-391,TORREIRA,-8.705518131744038,40.75750320410159
pt.ine.add.PTCONT.328302,AV 12 DE JULHO,,3870-391,TORREIRA,-8.705518131744038,40.75750320410159
pt.ine.add.PTCONT.328303,AV 12 DE JULHO,,3870-391,TORREIRA,-8.705518131744038,40.75750320410159
pt.ine.add.PTCONT.328304,AV 12 DE JULHO,,3870-391,TORREIRA,-8.705518131744038,40.75750320410159
pt.ine.add.PTCONT.328305,AV 12 DE JULHO,,3870-391,TORREIRA,-8.705518131744038,40.75750320410159
pt.ine.add.PTCONT.328306,AV 12 DE JULHO,,3870-391,TORREIRA,-8.705518131744038,40.75750320410159
pt.ine.add.PTCONT.328307,AV 12 DE JULHO,,3870-391,TORREIRA,-8.705518131744038,40.75750320410159
pt.ine.add.PTCONT.328308,AV 12 DE JULHO,,3870-391,TORREIRA,-8.705518131744038,40.75750320410159
pt.ine.add.PTCONT.328309,AV 12 DE JULHO,,3870-391,TORREIRA,-8.705518131744038,40.75750320410159
pt.ine.add.PTCONT.328310,AV 12 DE JULHO,,3870-391,TORREIRA,-8.705518131744038,40.75750320410159
pt.ine.add.PTCONT.328311,AV 12 DE JULHO,,3870-391,TORREIRA,-8.705518131744038,40.75750320410159
pt.ine.add.PTCONT.328312,AV 12 DE JULHO,,3870-391,TORREIRA,-8.705518131744038,40.75750320410159
pt.ine.add.PTCONT.328995,R SENHOR APARECIDO,7,3870-032,BUNHEIRO,-8.630879290388298,40.781703363397
pt.ine.add.PTCONT.329000,CANTO DA CORGA,6,3870-164,MURTOSA,-8.653184841327263,40.743523047597705
pt.ine.add.PTCONT.329021,R GALRICHOS,85,3870-347,TORREIRA,-8.707294768244243,40.756161646183934
pt.ine.add.PTCONT.329077,AV HINTZE RIBEIRO,86,3870-323,TORREIRA,-8.709075804806542,40.760826338460994
pt.ine.add.PTCONT.329114,R PADRE MANUEL RUELA POMBO,36,3870-050,BUNHEIRO,-8.657068708609874,40.75866084479026
pt.ine.add.PTCONT.329120,R MESTRAS,15,3870-032,BUNHEIRO,-8.633270758976115,40.77991905199169
pt.ine.add.PTCONT.329155,AV 12 DE JULHO,,3870-391,TORREIRA,-8.705518131744038,40.75750320410159
pt.ine.add.PTCONT.329756,CANTO DOS POCINHOS,,3870-202,MURTOSA,-8.638091705929698,40.728209535851455
pt.ine.add.PTCONT.329757,R D DINIS,55,3870-162,MURTOSA,-8.636495730302205,40.731620399489394
pt.ine.add.PTCONT.329758,CAM MOINHO,37,3870-303,TORREIRA,-8.678981707041805,40.7997207726446
pt.ine.add.PTCONT.329759,R S PAIO,135,3870-304,TORREIRA,-8.699369471457706,40.772553773339375
pt.ine.add.PTCONT.330744,AV ENG DUARTE PACHECO,,3870-322,TORREIRA,-8.700575684960107,40.76118362023427
pt.ine.add.PTCONT.330745,AV ENG DUARTE PACHECO,,3870-322,TORREIRA,-8.700575684960107,40.76118362023427
pt.ine.add.PTCONT.330746,AV ENG DUARTE PACHECO,,3870-322,TORREIRA,-8.700575684960107,40.76118362023427
pt.ine.add.PTCONT.330747,AV ENG DUARTE PACHECO,60,3870-322,TORREIRA,-8.700575684960107,40.76118362023427
pt.ine.add.PTCONT.330748,AV ENG DUARTE PACHECO,60,3870-322,TORREIRA,-8.700575684960107,40.76118362023427
pt.ine.add.PTCONT.330749,AV DESCOBRIMENTOS,65,3870-321,TORREIRA,-8.70407731412025,40.75934735054378
pt.ine.add.PTCONT.330750,EN 327,90,3870-301,TORREIRA,-8.698850874697673,40.7435243609114
pt.ine.add.PTCONT.330751,R 1 DE NOVEMBRO,,3870-326,TORREIRA,-8.707082041969057,40.76171875589744
pt.ine.add.PTCONT.330752,R ARRAIS JOÃO FAUSTINO,58,3870-332,TORREIRA,-8.710550017241005,40.760116586129136
pt.ine.add.PTCONT.330753,R BRANQUEIRA,,3870-335,TORREIRA,-8.708996387236718,40.758485449282546
pt.ine.add.PTCONT.330754,R BRANQUEIRA,,3870-335,TORREIRA,-8.708996387236718,40.758485449282546
pt.ine.add.PTCONT.330851,TV LAGOINHA,22,3870-024,BUNHEIRO,-8.643064953491164,40.768728074713394
pt.ine.add.PTCONT.330852,TV LAGOINHA,22,3870-024,BUNHEIRO,-8.643064953491164,40.768728074713394
pt.ine.add.PTCONT.330853,R FACHO,48,3870-020,BUNHEIRO,-8.640366051752327,40.78918115930276
pt.ine.add.PTCONT.330854,TV ESTREPAL,21,3870-020,BUNHEIRO,-8.636533187778012,40.78838750240405
pt.ine.add.PTCONT.330855,R PROF RUELA RAMOS,,3870-057,BUNHEIRO,-8.630000519965133,40.78777646856695
pt.ine.add.PTCONT.330856,R FORMIGA,31,3870-041,BUNHEIRO,-8.632231307764336,40.78471775263808
pt.ine.add.PTCONT.330857,EN 327,,3870-301,TORREIRA,-8.70456896594495,40.71717460306511
pt.ine.add.PTCONT.330858,EN 327,60,3870-301,TORREIRA,-8.70548439464135,40.71765633811231
pt.ine.add.PTCONT.330859,R ARRAIS JOÃO FAUSTINO,58,3870-332,TORREIRA,-8.710550017241005,40.760116586129136
pt.ine.add.PTCONT.330860,R ARRAIS JOÃO FAUSTINO,58,3870-332,TORREIRA,-8.710550017241005,40.760116586129136
pt.ine.add.PTCONT.330861,R BRANQUEIRA,6,3870-335,TORREIRA,-8.706642322581894,40.75878533029016
pt.ine.add.PTCONT.330986,R BREJA DE CIMA,75,3870-013,BUNHEIRO,-8.63583106155931,40.781690902223815
pt.ine.add.PTCONT.330987,R CÓNEGO MANUEL NEDIO DE SOUSA,44,3870-049,BUNHEIRO,-8.649804902961815,40.76421363119804
pt.ine.add.PTCONT.330988,R ARCEBISPO CANGRANOR,170,3870-039,BUNHEIRO,-8.652476313387215,40.76354427847289
pt.ine.add.PTCONT.331090,R PESCADORES,3,3870-104,MURTOSA,-8.632666408332728,40.75775149073667
pt.ine.add.PTCONT.331200,AV SANTO ANTÓNIO,10,3870-121,MURTOSA,-8.64081121481397,40.75116933683379
pt.ine.add.PTCONT.331199,R RATO,251,3870-130,MURTOSA,-8.633788767878773,40.75108295004034
pt.ine.add.PTCONT.331201,R DR GUERRA JUNQUEIRO,7,3870-133,MURTOSA,-8.631067428621,40.74977999698757
pt.ine.add.PTCONT.331202,VLA CONSTRUCAO NAVAL,J2,3870-278,MURTOSA,-8.638049435524538,40.747669512178646
pt.ine.add.PTCONT.331316,R D JOÃO DE CASTRO,28 A,3870-163,MURTOSA,-8.648270751992333,40.73884448295647
pt.ine.add.PTCONT.331317,R AGRO,16,3870-112,MURTOSA,-8.645977738476667,40.73933195912324
pt.ine.add.PTCONT.331318,R MARTIM MONIZ,13,3870-170,MURTOSA,-8.637063084826355,40.7409200851775
pt.ine.add.PTCONT.331431,R D AFONSO HENRIQUES,,3870-161,MURTOSA,-8.638178056255828,40.741194366188104
pt.ine.add.PTCONT.331432,R FERREIRA DE CASTRO,,3870-099,MURTOSA,-8.632686008218013,40.73821960597721
pt.ine.add.PTCONT.331433,R ANTÓNIO JOSE FREITAS GUIMARÃES,12,3870-208,MURTOSA,-8.651503931134158,40.7481411586021
pt.ine.add.PTCONT.331570,R 9 DE ABRIL,,3870-155,MURTOSA,-8.642922681084862,40.739255443831006
pt.ine.add.PTCONT.331571,R ALFREDO BELO,4,3870-157,MURTOSA,-8.647743859694236,40.73653255048554
pt.ine.add.PTCONT.331572,R BALSA,18,3870-197,MURTOSA,-8.647344256606356,40.73537268717206
pt.ine.add.PTCONT.331573,R PADRE AMERICO,10,3870-118,MURTOSA,-8.636660612678849,40.73307849073107
pt.ine.add.PTCONT.331688,R VITORINO TAVARES SOUSA,93,3870-062,BUNHEIRO,-8.639561839585118,40.78313338655316
pt.ine.add.PTCONT.331746,R FEITEIRA,35,3870-018,BUNHEIRO,-8.665211804070433,40.76106393025664
pt.ine.add.PTCONT.331761,CARREIRO DA TOMADIA,14,3870-019,BUNHEIRO,-8.640842071427608,40.75989501295682
pt.ine.add.PTCONT.331884,R 1 DE DEZEMBRO,1,3870-123,MURTOSA,-8.644841598271894,40.75381720336825
pt.ine.add.PTCONT.331888,TV CHÃO DO SENHOR,5,3870-144,MURTOSA,-8.649012730891076,40.74140759046211
pt.ine.add.PTCONT.331925,R CELEIRO,5,3870-025,BUNHEIRO,-8.640995265880397,40.778462534605
pt.ine.add.PTCONT.332042,R 1 DE NOVEMBRO,,3870-326,TORREIRA,-8.707082041969057,40.76171875589744
pt.ine.add.PTCONT.332043,R 10 DE JUNHO,44,3870-325,TORREIRA,-8.70830056764346,40.76431511658949
pt.ine.add.PTCONT.332044,R 10 DE JUNHO,44,3870-325,TORREIRA,-8.70830056764346,40.76431511658949
pt.ine.add.PTCONT.332045,R 10 DE JUNHO,44,3870-325,TORREIRA,-8.70830056764346,40.76431511658949
pt.ine.add.PTCONT.332046,R 10 DE JUNHO,44,3870-325,TORREIRA,-8.70830056764346,40.76431511658949
pt.ine.add.PTCONT.332047,R 10 DE JUNHO,44,3870-325,TORREIRA,-8.70830056764346,40.76431511658949
pt.ine.add.PTCONT.333549,R PASSADEIRAS,69,3870-028,BUNHEIRO,-8.631954944423223,40.77188333973662
pt.ine.add.PTCONT.333550,R REGUEIRA NOVA,23,3870-052,BUNHEIRO,-8.674871800785235,40.75913695243295
pt.ine.add.PTCONT.333551,TV BESTIDA,3,3870-036,BUNHEIRO,-8.675095929347108,40.76048664285702
pt.ine.add.PTCONT.333553,TV LAGOINHA,12,3870-024,BUNHEIRO,-8.643248809162989,40.769537707104774
pt.ine.add.PTCONT.333554,AV S MATEUS,233,3870-059,BUNHEIRO,-8.645934281830263,40.76912058226839
pt.ine.add.PTCONT.333557,R DR ANTÓNIO TAVARES AFONSO E CUNHA,51,3870-034,BUNHEIRO,-8.641656352825938,40.77816246045456
pt.ine.add.PTCONT.333560,BC CASAL,7,3870-014,BUNHEIRO,-8.64245576007267,40.774259798639285
pt.ine.add.PTCONT.333561,R BREJA DE CIMA,63,3870-013,BUNHEIRO,-8.636013808618904,40.78078961325604
pt.ine.add.PTCONT.333563,R LAGOINHA,5,3870-024,BUNHEIRO,-8.645221066043868,40.77033041176869
pt.ine.add.PTCONT.333564,R ÁLVARES CABRAL,79,3870-126,MURTOSA,-8.64525305627585,40.75289667607985
pt.ine.add.PTCONT.333565,R GERMANO CRUZ,16,3870-281,MURTOSA,-8.635167880586598,40.74709675921622
pt.ine.add.PTCONT.333566,R GERMANO CRUZ,18,3870-281,MURTOSA,-8.635240681810915,40.74733057198655
pt.ine.add.PTCONT.333567,LG FEIRA,11,3870-207,MURTOSA,-8.65057532681328,40.7490188082703
pt.ine.add.PTCONT.333568,R RUI DO VOUGA,22,3870-216,MURTOSA,-8.655674007543382,40.75144518767197
pt.ine.add.PTCONT.333569,R RUI DO VOUGA,,3870-216,MURTOSA,-8.65494411750496,40.75047595337972
pt.ine.add.PTCONT.333570,R 9 DE ABRIL,3,3870-155,MURTOSA,-8.64903144761988,40.74382984753193
pt.ine.add.PTCONT.333571,CAM PASCOAS,4,3870-251,MURTOSA,-8.646044391766168,40.741844054561675
pt.ine.add.PTCONT.333572,R 9 DE ABRIL,32,3870-155,MURTOSA,-8.647658046002135,40.74229612628692
pt.ine.add.PTCONT.333573,R PESCADORES,39,3870-104,MURTOSA,-8.63169637836576,40.75947563338776
pt.ine.add.PTCONT.333574,AV 29 DE OUTUBRO,24,3870-206,MURTOSA,-8.651680816186598,40.74957215482589
pt.ine.add.PTCONT.333575,R DR GUERRA JUNQUEIRO,10,3870-133,MURTOSA,-8.64162280684199,40.75045437094752
pt.ine.add.PTCONT.333576,R PERCURSORES,7B,3870-211,MURTOSA,-8.652764178411166,40.748801859351914
pt.ine.add.PTCONT.333577,R MARTIM MONIZ,16,3870-170,MURTOSA,-8.636457466235232,40.74067959315926
pt.ine.add.PTCONT.333578,R 25 DE ABRIL,59,3870-151,MURTOSA,-8.635304691177085,40.74009929028506
pt.ine.add.PTCONT.333579,CANTO DOS POCINHOS,23,3870-202,MURTOSA,-8.637917013665204,40.72858851033802
pt.ine.add.PTCONT.333580,R FEITAL,,3870-021,BUNHEIRO,-8.641297632777817,40.76528697574059
pt.ine.add.PTCONT.333581,EN 327,411,3870-304,TORREIRA,-8.682975985218688,40.786905846919765
pt.ine.add.PTCONT.333582,EN 327,691,3870-304,TORREIRA,-8.673552189749786,40.80381654020227
pt.ine.add.PTCONT.333583,R SANTO ESTEVÃO,16,3870-260,MURTOSA,-8.634239648550214,40.74331870032602
pt.ine.add.PTCONT.333584,R 10 DE JUNHO,33,3870-325,TORREIRA,-8.708789968557962,40.76338516773734
pt.ine.add.PTCONT.333585,EN 327,,3870-301,TORREIRA,-8.702741126994734,40.717949063362695
pt.ine.add.PTCONT.333586,EN 327,,3870-301,TORREIRA,-8.70271377338421,40.7175169578296
pt.ine.add.PTCONT.333587,AV ENG DUARTE PACHECO,,3870-322,TORREIRA,-8.699733125340405,40.76237641258114
pt.ine.add.PTCONT.333588,R ANTÓNIO DA CRUZ BARBOSA,68,3870-327,TORREIRA,-8.700637683527885,40.76290325938367
pt.ine.add.PTCONT.333589,R ANTÓNIO DA CRUZ BARBOSA,68,3870-327,TORREIRA,-8.700637683527885,40.76290325938367
pt.ine.add.PTCONT.333590,R ANTÓNIO DA CRUZ BARBOSA,68,3870-327,TORREIRA,-8.700637683527885,40.76290325938367
pt.ine.add.PTCONT.333591,R ANTÓNIO DA CRUZ BARBOSA,68,3870-327,TORREIRA,-8.700637683527885,40.76290325938367
pt.ine.add.PTCONT.333592,R MARINHEIROS,33,3870-348,TORREIRA,-8.712357026778376,40.7595492241621
pt.ine.add.PTCONT.333593,R ANTÓNIO DA CRUZ BARBOSA,68,3870-327,TORREIRA,-8.700637683527885,40.76290325938367
pt.ine.add.PTCONT.333594,R ANTÓNIO DA CRUZ BARBOSA,68,3870-327,TORREIRA,-8.700637683527885,40.76290325938367
pt.ine.add.PTCONT.333595,R ANTÓNIO DA CRUZ BARBOSA,68,3870-327,TORREIRA,-8.700637683527885,40.76290325938367
pt.ine.add.PTCONT.333596,R ANTÓNIO DA CRUZ BARBOSA,68,3870-327,TORREIRA,-8.700637683527885,40.76290325938367
pt.ine.add.PTCONT.333597,R ANTÓNIO DA CRUZ BARBOSA,68,3870-327,TORREIRA,-8.700637683527885,40.76290325938367
pt.ine.add.PTCONT.333598,R PROF FIRMINO ARESTA,23,3870-356,TORREIRA,-8.708454643415271,40.76295460288931
pt.ine.add.PTCONT.333599,R PROF FIRMINO ARESTA,37,3870-356,TORREIRA,-8.706429385328807,40.7629466719562
pt.ine.add.PTCONT.333600,R MARIA AUGUSANTA CRUZ BARBOSA,25,3870-355,TORREIRA,-8.706002429220126,40.76287675270017
pt.ine.add.PTCONT.333601,EN 327,,3870-301,TORREIRA,-8.704033786920489,40.7542597692273
pt.ine.add.PTCONT.333602,R 1 DE NOVEMBRO,2,3870-326,TORREIRA,-8.70603014783673,40.761967116091576
pt.ine.add.PTCONT.333603,R 1 DE NOVEMBRO,2,3870-326,TORREIRA,-8.70603014783673,40.761967116091576
pt.ine.add.PTCONT.333604,R 1 DE NOVEMBRO,2,3870-326,TORREIRA,-8.70603014783673,40.761967116091576
pt.ine.add.PTCONT.333605,R 1 DE NOVEMBRO,2,3870-326,TORREIRA,-8.70603014783673,40.761967116091576
pt.ine.add.PTCONT.333606,R 1 DE NOVEMBRO,2,3870-326,TORREIRA,-8.70603014783673,40.761967116091576
pt.ine.add.PTCONT.333607,EN 327,59,3870-301,TORREIRA,-8.708965611752989,40.71922390539472
pt.ine.add.PTCONT.333608,R 1 DE NOVEMBRO,2,3870-326,TORREIRA,-8.70603014783673,40.761967116091576
pt.ine.add.PTCONT.333609,R 1 DE NOVEMBRO,2,3870-326,TORREIRA,-8.70603014783673,40.761967116091576
pt.ine.add.PTCONT.333610,R 1 DE NOVEMBRO,2,3870-326,TORREIRA,-8.70603014783673,40.761967116091576
pt.ine.add.PTCONT.333611,R 1 DE NOVEMBRO,2,3870-326,TORREIRA,-8.70603014783673,40.761967116091576
pt.ine.add.PTCONT.333612,R 1 DE NOVEMBRO,2,3870-326,TORREIRA,-8.70603014783673,40.761967116091576
pt.ine.add.PTCONT.333613,R BRANQUEIRA,,3870-335,TORREIRA,-8.707665828657198,40.75799680900094
pt.ine.add.PTCONT.333614,R BRANQUEIRA,,3870-335,TORREIRA,-8.707665828657198,40.75799680900094
pt.ine.add.PTCONT.333615,AV DESCOBRIMENTOS,,3870-321,TORREIRA,-8.705510436717983,40.75936726628672
pt.ine.add.PTCONT.333616,R BRANQUEIRA,120C,3870-335,TORREIRA,-8.707629062778391,40.75785291287577
pt.ine.add.PTCONT.333617,R BRANQUEIRA,120C,3870-335,TORREIRA,-8.707629062778391,40.75785291287577
pt.ine.add.PTCONT.334355,R SALVADORES DO NATHALIE,18,3870-410,TORREIRA,-8.707549499855604,40.763742541521054
pt.ine.add.PTCONT.334372,R ANTÓNIO DA CRUZ BARBOSA,68,3870-327,TORREIRA,-8.700637683527885,40.76290325938367
pt.ine.add.PTCONT.334376,R CALIFA,18,3870-304,TORREIRA,-8.693997432411434,40.78588927629313
pt.ine.add.PTCONT.334397,R PADRE MANUEL JOSE COSTEIRA,10,3870-108,MURTOSA,-8.640267966181344,40.75603440850558
pt.ine.add.PTCONT.334549,TV CHÃO DO SENHOR,39,3870-144,MURTOSA,-8.64928752920213,40.74326138864958
pt.ine.add.PTCONT.334564,R AURÉLIO PATROCINIO NUNES,8,3870-276,MURTOSA,-8.644107826955647,40.75332183414584
pt.ine.add.PTCONT.334975,CANTO DA MACEDA,1E,3870-162,MURTOSA,-8.635540754447995,40.73056196974726
pt.ine.add.PTCONT.334976,BC COVAL,14,3870-148,MURTOSA,-8.636926985835695,40.73072702247746
pt.ine.add.PTCONT.334977,EN 327,,3870-303,TORREIRA,-8.671018913312427,40.81589491056152
pt.ine.add.PTCONT.334978,CAM PAZ,18,3870-303,TORREIRA,-8.678682746680744,40.79938900569764
pt.ine.add.PTCONT.334979,EN 327,739,3870-304,TORREIRA,-8.672316230024187,40.8077754654879
