id,street,house,postcode,city,lon,lat
pt.ine.add.PTCONT.5427000,R STO ANTONIO,9,3525-042,CANAS DE SENHORIM,-7.892705673477131,40.494729680239246
pt.ine.add.PTCONT.5427084,R FIGUEIRA DO LEITE,7,3525-020,CANAS DE SENHORIM,-7.901109625215628,40.500069053620344
pt.ine.add.PTCONT.5427085,R MATADOURO,,3525-058,CANAS DE SENHORIM,-7.912963084542549,40.500821678936475
pt.ine.add.PTCONT.5427086,R SENHORA VISO,14,3525-436,CARVALHAL REDONDO,-7.905091052144461,40.54013288917842
pt.ine.add.PTCONT.5427087,BR FLORES,50,3525-455,CARVALHAL REDONDO,-7.89125257365036,40.54131146714458
pt.ine.add.PTCONT.5427193,R EIRAS,7,3520-011,NELAS,-7.859343864594461,40.544716328953925
pt.ine.add.PTCONT.5427194,R ALF ABILIO RODRIGUES FERREIRA,11,3520-011,NELAS,-7.860909259328028,40.542945976621255
pt.ine.add.PTCONT.5427195,R ALF ABILIO RODRIGUES FERREIRA,,3520-011,NELAS,-7.860626904058012,40.54271117236666
pt.ine.add.PTCONT.5427196,AV LIBERDADE,,3520-011,NELAS,-7.858784467424192,40.540050238094594
pt.ine.add.PTCONT.5427197,R AUGUSTOS,,3520-038,NELAS,-7.853028300626034,40.53621816343205
pt.ine.add.PTCONT.5427289,R ENG ADELINO AMARO DA COSTA,7,3520-006,NELAS,-7.84665418232195,40.53630159574371
pt.ine.add.PTCONT.5427461,R ALBINO PAIS,,3520-033,NELAS,-7.853511307632739,40.53076209156184
pt.ine.add.PTCONT.5427462,R SHELL,20,3520-074,NELAS,-7.852167249642029,40.530425633421466
pt.ine.add.PTCONT.5427556,R FONTE NOVA,,3520-094,NELAS,-7.838698978567527,40.51467774141754
pt.ine.add.PTCONT.5427557,BC MONSENHOR MOREIRA,7,3520-107,NELAS,-7.853395660885512,40.5131563187237
pt.ine.add.PTCONT.5427558,R VALINHO,2,3520-021,NELAS,-7.854121340375605,40.51172621717878
pt.ine.add.PTCONT.5427559,AV S CRISTÓVÃO,,3520-112,SANTAR NLS,-7.899710129669616,40.58384292463338
pt.ine.add.PTCONT.5427652,R CRUZEIRO MARTINHO,,3520-137,SANTAR NLS,-7.898750800813436,40.57443046159249
pt.ine.add.PTCONT.5427653,R MIRAGAIA,5,3520-125,SANTAR NLS,-7.892080100133297,40.57059849224642
pt.ine.add.PTCONT.5427654,AV D DUARTE DE BRAGANÇA,,3520-156,SANTAR NLS,-7.896934260499535,40.567087445969555
pt.ine.add.PTCONT.5427751,R EIRAS,,3520-212,SENHORIM,-7.792700242254479,40.53653346376169
pt.ine.add.PTCONT.5427752,R SOUTINHO,,3520-218,SENHORIM,-7.8241532793716875,40.53971067741511
pt.ine.add.PTCONT.5427753,TV VALE ESPORAO,,3520-218,SENHORIM,-7.827866599394891,40.53818963950091
pt.ine.add.PTCONT.5427754,R PAZ,4,3520-218,SENHORIM,-7.82431710613933,40.53745077561723
pt.ine.add.PTCONT.5427849,R PRADO,20,3520-225,VILAR SECO NLS,-7.860749963193936,40.564783498213124
pt.ine.add.PTCONT.5427850,R COR SERPA,10,3520-225,VILAR SECO NLS,-7.855234165273123,40.559394196041524
pt.ine.add.PTCONT.5427851,R CASTANHAL,20,3520-225,VILAR SECO NLS,-7.865410845301263,40.559706394443154
pt.ine.add.PTCONT.5427852,CANTO DO RARO,10,3520-225,VILAR SECO NLS,-7.86678056157284,40.55969154946232
pt.ine.add.PTCONT.5427945,R CASTANHAL,15,3520-225,VILAR SECO NLS,-7.864974910027831,40.559471245461125
pt.ine.add.PTCONT.5427946,R SACADURA BOTTE,39,3525-529,AGUIEIRA,-7.9227727903086,40.5289997897486
pt.ine.add.PTCONT.5427947,R CASTELAO DE CIMA,,3525-621,LAPA DO LOBO,-7.911823989918031,40.481277738106314
pt.ine.add.PTCONT.5427948,R LUIS ALBERTO GARCIA,2,3525-641,LAPA DO LOBO,-7.915876761914489,40.47893500660411
pt.ine.add.PTCONT.5428062,R PONTE,,3525-622,LAPA DO LOBO,-7.913975907929669,40.472339431865244
pt.ine.add.PTCONT.5428063,R CIMO DO POVO,21,3525-614,LAPA DO LOBO,-7.917309731762856,40.473381330992744
pt.ine.add.PTCONT.5428064,ALMAS,19,3525-609,LAPA DO LOBO,-7.917203342428188,40.47346218136356
pt.ine.add.PTCONT.5428065,R NASCIMENTO DOUREIRO,10,3520-227,MOREIRA NLS,-7.922640663826602,40.54859518706018
pt.ine.add.PTCONT.5428066,CC S PEDRO,1,3520-228,MOREIRA NLS,-7.930102064701834,40.54065682286912
pt.ine.add.PTCONT.5428067,R PARAISO,23,3520-228,MOREIRA NLS,-7.932080599695123,40.538228838149735
pt.ine.add.PTCONT.5428399,QTA CHIQUELHA,297,3525-211,CANAS DE SENHORIM,-7.869024302424046,40.484429826650796
pt.ine.add.PTCONT.5428400,R ESCOLA,296,3525-352,CANAS DE SENHORIM,-7.889501127182718,40.493633314833254
pt.ine.add.PTCONT.5428401,R ESCOLA,190,3525-352,CANAS DE SENHORIM,-7.885027180196316,40.49133642206682
pt.ine.add.PTCONT.5428402,R CALVARIO,36,3525-362,CANAS DE SENHORIM,-7.883876470582686,40.48992009545071
pt.ine.add.PTCONT.5428403,R DIREITA,106,3525-362,CANAS DE SENHORIM,-7.884129891102218,40.48837170908456
pt.ine.add.PTCONT.5428404,R DIREITA,,3525-362,CANAS DE SENHORIM,-7.883976825237742,40.48829933585737
pt.ine.add.PTCONT.5428405,R DIREITA,31,3525-362,CANAS DE SENHORIM,-7.883170738126142,40.48938725157796
pt.ine.add.PTCONT.5428480,R PACO,17,3525-060,CANAS DE SENHORIM,-7.902723080401519,40.50431382635328
pt.ine.add.PTCONT.5428554,R EIRAS,,3525-515,AGUIEIRA,-7.924234410147087,40.52578752531676
pt.ine.add.PTCONT.5428566,R FREIXIEIRO,,3525-056,CANAS DE SENHORIM,-7.8994442238566105,40.510854165346785
pt.ine.add.PTCONT.5428572,R CARVALHAS,4,3520-225,VILAR SECO NLS,-7.8645332915579464,40.56065892048362
pt.ine.add.PTCONT.5428607,BR CABECO,,3525-453,CARVALHAL REDONDO,-7.904103055218395,40.532161199867375
pt.ine.add.PTCONT.5428627,R PRADO,20,3520-225,VILAR SECO NLS,-7.860749963193936,40.564783498213124
pt.ine.add.PTCONT.5428686,ESTR PROGRESSO,21,3520-214,SENHORIM,-7.822975864639873,40.54162565928147
pt.ine.add.PTCONT.5428697,R NOVA,,3525-642,LAPA DO LOBO,-7.918703989065552,40.47251039694054
pt.ine.add.PTCONT.5428711,R DR TIAGO MARQUES,12,3525-074,CANAS DE SENHORIM,-7.905142351086455,40.50060839774472
pt.ine.add.PTCONT.5428743,R ESTAÇÃO,229,3525-018,CANAS DE SENHORIM,-7.906730029244257,40.49154306725244
pt.ine.add.PTCONT.5428744,R ESTAÇÃO,229,3525-018,CANAS DE SENHORIM,-7.906730029244257,40.49154306725244
pt.ine.add.PTCONT.5429165,R CORREDOURA,16,3525-413,CARVALHAL REDONDO,-7.901511150144406,40.53423627093729
pt.ine.add.PTCONT.5429188,TV CABECO,,3520-021,NELAS,-7.853717700532471,40.51516529738276
pt.ine.add.PTCONT.5429198,R ERVEDAL,,3520-126,SANTAR NLS,-7.89132607144636,40.57338855756377
pt.ine.add.PTCONT.5429199,R NSA SRA DE FÁTIMA,,3520-144,SANTAR NLS,-7.899475118354702,40.5699112711468
pt.ine.add.PTCONT.5429200,R SOITO,62,3520-130,SANTAR NLS,-7.895337214602408,40.57123561256504
pt.ine.add.PTCONT.5429210,AV DR ARNALDO SANTOS ALMEIDA,8,3520-114,SANTAR NLS,-7.879646870296859,40.57633526839597
pt.ine.add.PTCONT.5429220,R BARREIRO,1,3520-011,NELAS,-7.861434798654553,40.54142531162298
pt.ine.add.PTCONT.5429221,R FARNEZ,10,3520-029,NELAS,-7.851183990294022,40.536934105697874
pt.ine.add.PTCONT.5429226,R FLORES,71,3520-051,NELAS,-7.846481991962677,40.53793113576998
pt.ine.add.PTCONT.5429240,QTA TOIRAL,,3520-039,NELAS,-7.8633902829317,40.53359524354095
pt.ine.add.PTCONT.5429243,BC MANUAI,3,3525-207,CANAS DE SENHORIM,-7.865693045507796,40.488735765133015
pt.ine.add.PTCONT.5429244,R 1 DE MAIO,2,3525-009,CANAS DE SENHORIM,-7.8974217765650945,40.50886887227827
pt.ine.add.PTCONT.5429245,TV RUA 1 DE MAIO,,3525-082,CANAS DE SENHORIM,-7.897668377561203,40.50920257446405
pt.ine.add.PTCONT.5429246,R 1 DE MAIO,18,3525-009,CANAS DE SENHORIM,-7.8990380623714245,40.508899173498655
pt.ine.add.PTCONT.5429247,R 1 DE MAIO,26,3525-009,CANAS DE SENHORIM,-7.899557035694564,40.50894525046225
pt.ine.add.PTCONT.5429258,R CONTENCAS,42,3525-360,CANAS DE SENHORIM,-7.883299046918143,40.489774762091756
pt.ine.add.PTCONT.5429259,R FREIXIEIRO,,3525-056,CANAS DE SENHORIM,-7.900109628512265,40.509504700242935
pt.ine.add.PTCONT.5429260,R FREIXIEIRO,79 81,3525-056,CANAS DE SENHORIM,-7.898444438593432,40.50996060584015
pt.ine.add.PTCONT.5429261,R 1 MAIO,33,3525-009,CANAS DE SENHORIM,-7.899310113528666,40.50870160556672
pt.ine.add.PTCONT.5429279,R COMÉRCIO,52,3525-052,CANAS DE SENHORIM,-7.899603499918065,40.498949349816925
pt.ine.add.PTCONT.5429291,R SOITO,,3525-067,CANAS DE SENHORIM,-7.902746303496971,40.50787100464162
pt.ine.add.PTCONT.5429292,R S SEBASTIÃO,12,3525-043,CANAS DE SENHORIM,-7.901248986160076,40.500708717136924
pt.ine.add.PTCONT.5429307,R SALGUEIRAL,19,3525-419,CARVALHAL REDONDO,-7.902816190788304,40.540798811857066
pt.ine.add.PTCONT.5429325,R MONDEGO,,3520-063,NELAS,-7.849457664391945,40.526456656790735
pt.ine.add.PTCONT.5429326,R ENG ALBERTO CARDOSO VILHENA,12,3520-090,NELAS,-7.855374512508699,40.52828110680079
pt.ine.add.PTCONT.5429340,R S MIGUEL,44-46,3520-072,NELAS,-7.855919696701789,40.53058778700257
pt.ine.add.PTCONT.5429341,R SERRA DA ESTRELA,,3520-076,NELAS,-7.848408757766617,40.52332921660264
pt.ine.add.PTCONT.5429342,R MIMOSAS,N 25,3520-039,NELAS,-7.865546822395922,40.489915136679926
pt.ine.add.PTCONT.5430028,AV 9 DE JULHO,,3525-601,LAPA DO LOBO,-7.919264150760772,40.474357551899054
pt.ine.add.PTCONT.5430029,CC S PEDRO,9,3520-228,MOREIRA NLS,-7.9300670061852845,40.54053969176732
pt.ine.add.PTCONT.5430038,R CANADA,26,3525-617,LAPA DO LOBO,-7.91901622505187,40.47444714743051
pt.ine.add.PTCONT.5430039,R CARVALHAS,20,3525-610,LAPA DO LOBO,-7.916331732662679,40.47314535923024
pt.ine.add.PTCONT.5430056,TV HENRIQUE LOUREIRO,1,3520-225,VILAR SECO NLS,-7.862235775760714,40.559428834596716
pt.ine.add.PTCONT.5430070,R NOGUEIRA,4,3520-225,VILAR SECO NLS,-7.8695232521380545,40.56184110289696
pt.ine.add.PTCONT.5430093,R EIRAS,47,3525-515,AGUIEIRA,-7.924942409320957,40.52581581903547
pt.ine.add.PTCONT.5430105,AV FORTUNATO ALMEIDA,5,3520-300,VILAR SECO NLS,-7.863402487126392,40.55998088802515
pt.ine.add.PTCONT.5430129,R FORMOSA,16,3520-212,SENHORIM,-7.794345106476647,40.53804218900057
pt.ine.add.PTCONT.5430142,BC QUELHA,11,3520-227,MOREIRA NLS,-7.917944071852611,40.55166635912522
pt.ine.add.PTCONT.5430157,R MOAGEM,10,3520-224,SENHORIM,-7.770489121300948,40.540410227370714
pt.ine.add.PTCONT.5430158,R VALE,38,3520-304,VILAR SECO NLS,-7.86430784035385,40.557983819015384
pt.ine.add.PTCONT.5430201,LAGES,4,3525-605,LAPA DO LOBO,-7.916365284942406,40.47371276548639
pt.ine.add.PTCONT.5430202,R AMOREIRAS,71,3520-226,MOREIRA NLS,-7.921198082389532,40.5455847682585
pt.ine.add.PTCONT.5430225,R CRUZEIRO,27,3525-632,LAPA DO LOBO,-7.917213000307567,40.4741286026495
pt.ine.add.PTCONT.5430379,R DIREITA,116,3525-428,CARVALHAL REDONDO,-7.904056271355275,40.53550209357773
pt.ine.add.PTCONT.5430415,R QUELHA,2,3520-111,SANTAR NLS,-7.885253921375298,40.57390700152332
pt.ine.add.PTCONT.5430502,R DR ALMEIDA HENRIQUES,17,3520-034,NELAS,-7.850167750873775,40.5344011195912
pt.ine.add.PTCONT.5430527,R CHÃO DO AMIEIRO,66,3525-266,CANAS DE SENHORIM,-7.934316057338521,40.504723700323666
pt.ine.add.PTCONT.5430530,R PRADOS,29,3525-269,CANAS DE SENHORIM,-7.93272034036202,40.5057385548006
pt.ine.add.PTCONT.5430548,R POÇO SANTO,1,3520-223,SENHORIM,-7.81842349005634,40.535714854848976
pt.ine.add.PTCONT.5430577,AV SALGUEIRO,15,3525-501,AGUIEIRA,-7.915679141323866,40.52554660987635
pt.ine.add.PTCONT.5430994,BR CORREDOURA,19,3525-413,CARVALHAL REDONDO,-7.902077346392645,40.5343364632892
pt.ine.add.PTCONT.5431013,R DR AUGUSTO ROSADO,,3520-037,NELAS,-7.853583093636987,40.530528126044864
pt.ine.add.PTCONT.5431014,R DR AUGUSTO ROSADO,30,3520-037,NELAS,-7.8534897993563275,40.53025773969691
pt.ine.add.PTCONT.5431015,R TORCADAS,,3520-021,NELAS,-7.8545147166697,40.51930969397999
pt.ine.add.PTCONT.5431029,R ERVEDAL,,3520-126,SANTAR NLS,-7.891325390739832,40.57357766725216
pt.ine.add.PTCONT.5431030,BC DR MANUEL CASIMIRO AMARAL REIS,16,3520-138,SANTAR NLS,-7.894203422322926,40.571260289333345
pt.ine.add.PTCONT.5431046,R ESTREMADOURO,4,3520-140,SANTAR NLS,-7.890708670841024,40.57102787696565
pt.ine.add.PTCONT.5431047,R ALF ABILIO RODRIGUES FERREIRA,2,3520-011,NELAS,-7.8606845391712366,40.54305351102017
pt.ine.add.PTCONT.5431057,R CARVALHAL,,3520-051,NELAS,-7.845255060062968,40.540539634066484
pt.ine.add.PTCONT.5431067,LG JOÃO PEREIRA RUIVO,,3520-060,NELAS,-7.852031129735914,40.53475687597169
pt.ine.add.PTCONT.5431068,LG JOÃO PEREIRA RUIVO,,3520-060,NELAS,-7.852031129735914,40.53475687597169
pt.ine.add.PTCONT.5431069,LG JOÃO PEREIRA RUIVO,,3520-060,NELAS,-7.852031129735914,40.53475687597169
pt.ine.add.PTCONT.5431070,LG JOÃO PEREIRA RUIVO,,3520-060,NELAS,-7.852031129735914,40.53475687597169
pt.ine.add.PTCONT.5431071,LG JOÃO PEREIRA RUIVO,,3520-060,NELAS,-7.852031129735914,40.53475687597169
pt.ine.add.PTCONT.5431072,LG JOÃO PEREIRA RUIVO,,3520-060,NELAS,-7.852031129735914,40.53475687597169
pt.ine.add.PTCONT.5431073,LG JOÃO PEREIRA RUIVO,,3520-060,NELAS,-7.852031129735914,40.53475687597169
pt.ine.add.PTCONT.5431074,R FLORES,24,3520-051,NELAS,-7.847823382215785,40.536142392234794
pt.ine.add.PTCONT.5431093,R PARCERIA,,3525-356,CANAS DE SENHORIM,-7.886455706751992,40.487764327216844
pt.ine.add.PTCONT.5431094,R LAGE DO QUARTO,,3525-028,CANAS DE SENHORIM,-7.899298666800594,40.51199755531747
pt.ine.add.PTCONT.5431104,R PASSAL,9,3525-062,CANAS DE SENHORIM,-7.907462305629642,40.505340787170354
pt.ine.add.PTCONT.5431105,R DIREITA,204,3525-362,CANAS DE SENHORIM,-7.886343927538493,40.48608007401451
pt.ine.add.PTCONT.5431106,R ARQ KEIL AMARAL,59,3525-013,CANAS DE SENHORIM,-7.902506450919326,40.502116076223025
pt.ine.add.PTCONT.5431116,R ESCOLA,149,3525-352,CANAS DE SENHORIM,-7.885793577790828,40.49141911337224
pt.ine.add.PTCONT.5431117,R DR EDUARDO MARIA DOS SANTOS,70,3525-072,CANAS DE SENHORIM,-7.8983730263183585,40.5067545407289
pt.ine.add.PTCONT.5431118,BR OPERÁRIOS,4,3525-302,CANAS DE SENHORIM,-7.8970784978889075,40.51591938972325
pt.ine.add.PTCONT.5431119,BR ENGENHEIROS,6,3525-301,CANAS DE SENHORIM,-7.892627899533712,40.509903621330054
pt.ine.add.PTCONT.5431120,R 1 DE JULHO,,3525-367,CANAS DE SENHORIM,-7.8954125181515105,40.50652335452082
pt.ine.add.PTCONT.5431121,R FLORES,22,3525-036,CANAS DE SENHORIM,-7.898863618967136,40.50138831765155
pt.ine.add.PTCONT.5431122,R ESTRADA,45,3525-019,CANAS DE SENHORIM,-7.903819406382178,40.50110107790064
pt.ine.add.PTCONT.5431123,R ESTRADA,45,3525-019,CANAS DE SENHORIM,-7.903819406382178,40.50110107790064
pt.ine.add.PTCONT.5431129,R SOITO,42,3525-067,CANAS DE SENHORIM,-7.90360065631852,40.50644084658093
pt.ine.add.PTCONT.5431130,R DR ABILIO MONTEIRO,65,3525-070,CANAS DE SENHORIM,-7.896006412772375,40.50538989450806
pt.ine.add.PTCONT.5431131,R DR ABILIO MONTEIRO,65,3525-070,CANAS DE SENHORIM,-7.896006412772375,40.50538989450806
pt.ine.add.PTCONT.5431132,R DR ABILIO MONTEIRO,65,3525-070,CANAS DE SENHORIM,-7.896006412772375,40.50538989450806
pt.ine.add.PTCONT.5431133,R DR ABILIO MONTEIRO,65,3525-070,CANAS DE SENHORIM,-7.896006412772375,40.50538989450806
pt.ine.add.PTCONT.5431134,R DR ABILIO MONTEIRO,65,3525-070,CANAS DE SENHORIM,-7.896006412772375,40.50538989450806
pt.ine.add.PTCONT.5431135,R LAGE DA PEREIRA,62,3525-025,CANAS DE SENHORIM,-7.900316933191825,40.49732080994208
pt.ine.add.PTCONT.5431136,R BALCHA,3,3525-411,CARVALHAL REDONDO,-7.903698401394102,40.53660904175293
pt.ine.add.PTCONT.5431140,R DR ABILIO MONTEIRO,65,3525-070,CANAS DE SENHORIM,-7.896006412772375,40.50538989450806
pt.ine.add.PTCONT.5431141,LG CARVALHEDO,26,3525-406,CARVALHAL REDONDO,-7.905478414972793,40.54019515225909
pt.ine.add.PTCONT.5431142,R CUMIEIRA,21,3520-047,NELAS,-7.845204360377995,40.53583871978812
pt.ine.add.PTCONT.5431146,R EIRAS,33,3525-423,CARVALHAL REDONDO,-7.903656970101115,40.538374007798794
pt.ine.add.PTCONT.5431147,R ENFERMARIA,4,3520-049,NELAS,-7.851492366152568,40.5329469623659
pt.ine.add.PTCONT.5431157,R PADRAO,,3520-066,NELAS,-7.846317097430293,40.53231139080247
pt.ine.add.PTCONT.5431158,BC PULQUERIAS,5,3520-062,NELAS,-7.853630900811723,40.53038415602073
pt.ine.add.PTCONT.5431167,R PICOTO,,3520-021,NELAS,-7.847557285016839,40.51262873282166
pt.ine.add.PTCONT.5431168,LG COMÉRCIO,7,3520-021,NELAS,-7.8524419237034335,40.512676721073724
pt.ine.add.PTCONT.5431169,LG COMÉRCIO,7,3520-021,NELAS,-7.8524419237034335,40.512676721073724
pt.ine.add.PTCONT.5431170,LG COMÉRCIO,7,3520-021,NELAS,-7.8524419237034335,40.512676721073724
pt.ine.add.PTCONT.5431171,R DIREITA,21,3520-021,NELAS,-7.852750835951849,40.51216416415079
pt.ine.add.PTCONT.5431739,R DIREITA,12,3520-125,SANTAR NLS,-7.8921985152897784,40.57050868628602
pt.ine.add.PTCONT.5431732,R S BARTOLOMEU,,3520-223,SENHORIM,-7.817623648371939,40.53763981644001
pt.ine.add.PTCONT.5431733,CANTO DO MONETO,15,3525-603,LAPA DO LOBO,-7.917579282219821,40.473904150002745
pt.ine.add.PTCONT.5431740,R OLIVAL,,3520-223,SENHORIM,-7.818492496895679,40.53610227242838
pt.ine.add.PTCONT.5431741,ALMAS,16,3525-609,LAPA DO LOBO,-7.916967411646281,40.47348875677188
pt.ine.add.PTCONT.5431750,R EMIGRANTES,,3520-228,MOREIRA NLS,-7.94252859893759,40.53759815808547
pt.ine.add.PTCONT.5431758,R CASA GUARDA,,3525-611,LAPA DO LOBO,-7.922312579999625,40.472444990674475
pt.ine.add.PTCONT.5431773,R FONTE DO ALCAIDE,,3520-216,SENHORIM,-7.810594794809091,40.541303592782334
pt.ine.add.PTCONT.5431774,R FLORES,12,3520-220,SENHORIM,-7.8146989190388805,40.51216464231255
pt.ine.add.PTCONT.5431786,R DR EURICO AMARAL,,3520-225,VILAR SECO NLS,-7.866342405292888,40.560014729725154
pt.ine.add.PTCONT.5431787,R BOTICA,12,3520-225,VILAR SECO NLS,-7.864714323547552,40.55967776250943
pt.ine.add.PTCONT.5431788,AV VILA NOVA DAS AMOREIRAS,201,3525-502,AGUIEIRA,-7.919619557650272,40.525941187971746
pt.ine.add.PTCONT.5431803,R PROF SAMPAIO,37,3525-528,AGUIEIRA,-7.922676487422049,40.52582972555187
pt.ine.add.PTCONT.5431833,R DIREITA,9,3520-224,SENHORIM,-7.76811216183043,40.54121322242074
pt.ine.add.PTCONT.5431854,R DIREITA,17,3520-224,SENHORIM,-7.767710583768035,40.54125697977149
pt.ine.add.PTCONT.5431870,ESTR S JOÃO,,3520-212,SENHORIM,-7.790990849306049,40.5361231749404
pt.ine.add.PTCONT.5431897,R S JOSE,8,3520-219,SENHORIM,-7.784597657009762,40.52392884168658
pt.ine.add.PTCONT.5431912,R LABOEIRO,,3520-213,SENHORIM,-7.818218704919055,40.5391183149396
pt.ine.add.PTCONT.5431929,R AMOREIRAS,71,3520-226,MOREIRA NLS,-7.921244649152134,40.545791976416425
pt.ine.add.PTCONT.5432109,AV VILA NOVA DAS AMOREIRAS,124,3525-502,AGUIEIRA,-7.9147656463551765,40.52702176760352
pt.ine.add.PTCONT.5432123,LG JOÃO PEREIRA RUIVO,,3520-060,NELAS,-7.852031129735914,40.53475687597169
pt.ine.add.PTCONT.5432217,R DR JOSE MADEIRA LOBO,39,3525-073,CANAS DE SENHORIM,-7.903747078819291,40.5050182843747
pt.ine.add.PTCONT.5432262,R FONTE,40,3525-259,CANAS DE SENHORIM,-7.930291633971044,40.5051849884952
pt.ine.add.PTCONT.5432263,R DIREITA,6,3525-265,CANAS DE SENHORIM,-7.931931551258513,40.50517884949304
pt.ine.add.PTCONT.5432321,AV VILA NOVA DAS AMOREIRAS,222,3525-502,AGUIEIRA,-7.921224123106272,40.52607922185494
pt.ine.add.PTCONT.5432776,R FONTE DA MOIRA,4,3520-111,SANTAR NLS,-7.884414398635469,40.57737223277657
pt.ine.add.PTCONT.5432777,R 25 DE ABRIL,2,3520-111,SANTAR NLS,-7.883723402922833,40.57580382346233
pt.ine.add.PTCONT.5432778,R FONTE,34,3520-111,SANTAR NLS,-7.885612459652472,40.57596097592734
pt.ine.add.PTCONT.5432779,AV 25 ABRIL,1,3520-134,SANTAR NLS,-7.888312396731217,40.57398556530857
pt.ine.add.PTCONT.5432780,AV 25 DE ABRIL,,3520-134,SANTAR NLS,-7.888312396731217,40.57398556530857
pt.ine.add.PTCONT.5432781,AV 25 DE ABRIL,,3520-134,SANTAR NLS,-7.888312396731217,40.57398556530857
pt.ine.add.PTCONT.5432782,AV 25 DE ABRIL,,3520-134,SANTAR NLS,-7.888312396731217,40.57398556530857
pt.ine.add.PTCONT.5432783,R PADRE ANTUNES,13,3520-111,SANTAR NLS,-7.885431798845303,40.57370926664268
pt.ine.add.PTCONT.5432784,R CAMPONESES,8,3520-136,SANTAR NLS,-7.891413275751768,40.572127999129876
pt.ine.add.PTCONT.5432797,R EIRAS,4,3520-011,NELAS,-7.859733747372156,40.544636204097756
pt.ine.add.PTCONT.5432798,R FARNEZ,4A,3520-029,NELAS,-7.850868816421635,40.53609583924991
pt.ine.add.PTCONT.5432812,QTA FLORES,9,3520-052,NELAS,-7.844241775385244,40.5373582203426
pt.ine.add.PTCONT.5432825,QTA PESO,,3520-053,NELAS,-7.858689605030232,40.53147692311933
pt.ine.add.PTCONT.5432826,R SACADURA CABRAL,,3520-070,NELAS,-7.848241488019025,40.53496372353936
pt.ine.add.PTCONT.5432827,R SACADURA CABRAL,,3520-070,NELAS,-7.848241488019025,40.53496372353936
pt.ine.add.PTCONT.5432828,R CAPELA,20,3525-350,CANAS DE SENHORIM,-7.888399356823524,40.48520191225747
pt.ine.add.PTCONT.5432829,R LAGE DO QUARTO,,3525-028,CANAS DE SENHORIM,-7.899452271837517,40.51193482828105
pt.ine.add.PTCONT.5432830,R 1 DE MAIO,6,3525-009,CANAS DE SENHORIM,-7.897976238066887,40.508888012533674
pt.ine.add.PTCONT.5432845,R POCAS,,3525-041,CANAS DE SENHORIM,-7.899104217659995,40.51362713670926
pt.ine.add.PTCONT.5432853,LG S BARBARA,32,3525-303,CANAS DE SENHORIM,-7.8964784582042755,40.51542286657843
pt.ine.add.PTCONT.5432854,R DR ABILIO MONTEIRO,79,3525-070,CANAS DE SENHORIM,-7.896491799006414,40.50491360322989
pt.ine.add.PTCONT.5432855,R DR ABILIO MONTEIRO,79,3525-070,CANAS DE SENHORIM,-7.896491799006414,40.50491360322989
pt.ine.add.PTCONT.5432856,R DR ABILIO MONTEIRO,79,3525-070,CANAS DE SENHORIM,-7.896491799006414,40.50491360322989
pt.ine.add.PTCONT.5432857,R DR ABILIO MONTEIRO,79,3525-070,CANAS DE SENHORIM,-7.896491799006414,40.50491360322989
pt.ine.add.PTCONT.5432858,R DR ABILIO MONTEIRO,79,3525-070,CANAS DE SENHORIM,-7.896491799006414,40.50491360322989
pt.ine.add.PTCONT.5432859,R DR ABILIO MONTEIRO,79,3525-070,CANAS DE SENHORIM,-7.896491799006414,40.50491360322989
pt.ine.add.PTCONT.5432873,R COMÉRCIO,130,3525-052,CANAS DE SENHORIM,-7.900542505553636,40.500320065145324
pt.ine.add.PTCONT.5432879,R DR EMILIANO CAMPOS,5,3520-052,NELAS,-7.845425190696574,40.536640745429445
pt.ine.add.PTCONT.5432885,R FONTE GRANDE,,3520-093,NELAS,-7.841562466294401,40.531894251240224
pt.ine.add.PTCONT.5432905,R VASCO GAMA,7,3520-079,NELAS,-7.851983895483296,40.53193808672929
pt.ine.add.PTCONT.5432906,R PADEIRAS,30,3520-065,NELAS,-7.852939851951908,40.53194941392148
pt.ine.add.PTCONT.5432913,R BOTICA,,3520-041,NELAS,-7.851158671543752,40.531710942263764
pt.ine.add.PTCONT.5432938,R SOITO,,3520-130,SANTAR NLS,-7.894062447287981,40.57105287592592
pt.ine.add.PTCONT.5433649,R MIRAGAIA,2,3520-125,SANTAR NLS,-7.891773319194553,40.570525809414605
pt.ine.add.PTCONT.5433650,TV CORETO,19,3520-225,VILAR SECO NLS,-7.8629664847487195,40.55976374194245
pt.ine.add.PTCONT.5433689,R SERRA,,3520-220,SENHORIM,-7.815531669351,40.51322056290638
pt.ine.add.PTCONT.5433700,R S CATARINA,40,3525-625,LAPA DO LOBO,-7.918319872902334,40.470933729586875
pt.ine.add.PTCONT.5433715,R IGREJA,S,3520-216,SENHORIM,-7.815051886345693,40.53983907321462
pt.ine.add.PTCONT.5433716,R PRINCIPAL,,3520-216,SENHORIM,-7.813662467105709,40.53911481342878
pt.ine.add.PTCONT.5433717,R FLORES,17,3520-227,MOREIRA NLS,-7.916680230051425,40.551853110439495
pt.ine.add.PTCONT.5433745,TV CABINE,14,3520-225,VILAR SECO NLS,-7.866935233243695,40.55939473067694
pt.ine.add.PTCONT.5433746,R CANAVAL,5,3520-225,VILAR SECO NLS,-7.8634644504887,40.55925160257632
pt.ine.add.PTCONT.5433747,QTA ESCOSA,1,3525-646,LAPA DO LOBO,-7.910554999660278,40.48341859520162
pt.ine.add.PTCONT.5433756,R HENRIQUE LOUREIRO,15,3520-301,VILAR SECO NLS,-7.8620240810795625,40.55922121594018
pt.ine.add.PTCONT.5433757,R REVERENDO ISIDORO MARTINS,5,3520-225,VILAR SECO NLS,-7.861932130760132,40.55859963371936
pt.ine.add.PTCONT.5433808,R ARCO,2,3520-224,SENHORIM,-7.768350047595064,40.5408807766038
pt.ine.add.PTCONT.5433809,R BOCAS,24,3520-225,VILAR SECO NLS,-7.863008638474425,40.55808885270909
pt.ine.add.PTCONT.5433823,R MALHADOURA,3,3520-304,VILAR SECO NLS,-7.863091902508356,40.55793595703271
pt.ine.add.PTCONT.5433837,R FLORES,,3520-222,SENHORIM,-7.793172404042299,40.52251352797953
pt.ine.add.PTCONT.5433867,R AMOREIRS,60,3520-226,MOREIRA NLS,-7.921480520142338,40.54586445138374
pt.ine.add.PTCONT.5433985,AV IGREJA,13,3525-023,CANAS DE SENHORIM,-7.903893560208689,40.50011063032435
pt.ine.add.PTCONT.5433990,R BAIRRO,,3520-220,SENHORIM,-7.813000950167884,40.51193481691865
pt.ine.add.PTCONT.5434069,R CAMPO DE FUTEBOL,60,3525-363,CANAS DE SENHORIM,-7.878766967010683,40.49050332182759
pt.ine.add.PTCONT.5434078,R ESCOLA,174,3525-352,CANAS DE SENHORIM,-7.883625339392365,40.49084711188355
pt.ine.add.PTCONT.5434148,R SANTO ANTÓNIO,34,3525-427,CARVALHAL REDONDO,-7.902793274072994,40.538966642304764
pt.ine.add.PTCONT.5434159,BC ST ANTÓNIO,4,3520-226,MOREIRA NLS,-7.918794923752217,40.54770559491833
pt.ine.add.PTCONT.5434577,R ANTÓNIO LOBO ANTUNES,9,3520-082,NELAS,-7.86140152016952,40.52628724063722
pt.ine.add.PTCONT.5434588,QTA FONTE DO OURO,,3520-021,NELAS,-7.865593125803985,40.51983116717077
pt.ine.add.PTCONT.5434589,AV SA CARNEIRO,,3520-111,SANTAR NLS,-7.886822995166481,40.5775755091612
pt.ine.add.PTCONT.5434590,R TAIPA,,3520-131,SANTAR NLS,-7.891825314049169,40.572489072164466
pt.ine.add.PTCONT.5434591,BC SOITO,1,3520-130,SANTAR NLS,-7.8928440922422025,40.57160867672751
pt.ine.add.PTCONT.5434592,R SOITO,37,3520-130,SANTAR NLS,-7.8947825592039615,40.57112640611033
pt.ine.add.PTCONT.5434600,R 5 DE OUTUBRO,,3520-111,SANTAR NLS,-7.885583401033899,40.57423189837621
pt.ine.add.PTCONT.5434611,R D AFONSO HENRIQUES,27,3520-048,NELAS,-7.851192520785981,40.53489891849646
pt.ine.add.PTCONT.5434612,R FLORES,,3520-051,NELAS,-7.8451643304593865,40.53967489555569
pt.ine.add.PTCONT.5434632,R DR JOÃO VITORINO MONTEIRO,14,3520-052,NELAS,-7.845234065207583,40.5371715846442
pt.ine.add.PTCONT.5434633,R FLORES,47,3520-051,NELAS,-7.847490982600108,40.536591838259646
pt.ine.add.PTCONT.5434634,R DR ARNALDO SANTOS ALMEIDA,21,3520-052,NELAS,-7.844105784844323,40.53604310018946
pt.ine.add.PTCONT.5434635,R DR ARNALDO SANTOS ALMEIDA,,3520-052,NELAS,-7.844518391270099,40.536161200931716
pt.ine.add.PTCONT.5434636,R CUMIEIRA,13,3520-047,NELAS,-7.84543976705479,40.535992396961944
pt.ine.add.PTCONT.5434637,R LAGE DO QUARTO,297,3525-028,CANAS DE SENHORIM,-7.900557646020075,40.516430744890464
pt.ine.add.PTCONT.5434665,R BELA VISTA,66,3525-203,CANAS DE SENHORIM,-7.867549200913575,40.48763237807992
pt.ine.add.PTCONT.5434666,R ESTRADA,21,3525-019,CANAS DE SENHORIM,-7.902978924142409,40.501945915350454
pt.ine.add.PTCONT.5434677,R DIREITA,187,3525-362,CANAS DE SENHORIM,-7.885823718470328,40.4864211683824
pt.ine.add.PTCONT.5434678,R FREIXIEIRO,78,3525-056,CANAS DE SENHORIM,-7.899046322913686,40.50991679951531
pt.ine.add.PTCONT.5434679,R 1 DE JULHO,18,3525-367,CANAS DE SENHORIM,-7.8950091258468635,40.50716190719267
pt.ine.add.PTCONT.5434680,R ARQ KEIL AMARAL,,3525-013,CANAS DE SENHORIM,-7.901270068931134,40.50143819724866
pt.ine.add.PTCONT.5434681,R ARQ KEIL AMARAL,,3525-013,CANAS DE SENHORIM,-7.901270068931134,40.50143819724866
pt.ine.add.PTCONT.5434682,R ARQ KEIL AMARAL,,3525-013,CANAS DE SENHORIM,-7.901270068931134,40.50143819724866
pt.ine.add.PTCONT.5434683,R ARQ KEIL AMARAL,,3525-013,CANAS DE SENHORIM,-7.901270068931134,40.50143819724866
pt.ine.add.PTCONT.5434684,R TAPADA,43,3525-032,CANAS DE SENHORIM,-7.897489567460927,40.49961145950715
pt.ine.add.PTCONT.5434685,AV PEDRAS ALTAS,9,3525-040,CANAS DE SENHORIM,-7.8962696389297795,40.49763678146552
pt.ine.add.PTCONT.5434686,TV CENTRO,,3525-087,CANAS DE SENHORIM,-7.901863881687888,40.50028669504875
pt.ine.add.PTCONT.5434692,R FONTE,B0,3525-307,CANAS DE SENHORIM,-7.897743118776005,40.51482208864261
pt.ine.add.PTCONT.5434693,R SOITO,48,3525-067,CANAS DE SENHORIM,-7.903872806809131,40.50620724641389
pt.ine.add.PTCONT.5434694,R DR JOSE MADEIRA LOBO,34,3525-073,CANAS DE SENHORIM,-7.9033704734917265,40.50474737433764
pt.ine.add.PTCONT.5434695,R ARQ KEIL AMARAL,,3525-013,CANAS DE SENHORIM,-7.901270068931134,40.50143819724866
pt.ine.add.PTCONT.5434696,R LARANJEIRAS,44,3525-039,CANAS DE SENHORIM,-7.902377206122389,40.501962726394034
pt.ine.add.PTCONT.5434697,R FUTURO,21,3525-057,CANAS DE SENHORIM,-7.895340743442092,40.5001203667421
pt.ine.add.PTCONT.5434698,TV CARVALHEDO,15,3525-446,CARVALHAL REDONDO,-7.90523306488556,40.540025105206695
pt.ine.add.PTCONT.5434699,R FONTE,,3525-415,CARVALHAL REDONDO,-7.902230592967685,40.537830845624356
pt.ine.add.PTCONT.5434700,R DIREITA,75,3525-428,CARVALHAL REDONDO,-7.902229851033822,40.5380469724865
pt.ine.add.PTCONT.5434707,R CHAFARIZ,,3525-050,CANAS DE SENHORIM,-7.902194071139416,40.50032337688705
pt.ine.add.PTCONT.5434708,BC TANOEIROS,3,3525-011,CANAS DE SENHORIM,-7.901489664162047,40.499331372505296
pt.ine.add.PTCONT.5434709,R SENHORA VISO,6,3525-436,CARVALHAL REDONDO,-7.904760604641286,40.540114225903814
pt.ine.add.PTCONT.5434710,R SOITINHO,2,3525-436,CARVALHAL REDONDO,-7.902825015644486,40.54003834166292
pt.ine.add.PTCONT.5434722,R FONTE DA CRUZ,31,3525-022,CANAS DE SENHORIM,-7.906006702409648,40.49617043246532
pt.ine.add.PTCONT.5434723,AV CARLOS AFONSO PAIVA,1,3525-414,CARVALHAL REDONDO,-7.904510786574394,40.533737944475554
pt.ine.add.PTCONT.5434724,R STO ANTONIO,30,3525-427,CARVALHAL REDONDO,-7.902722667971274,40.53890346412086
pt.ine.add.PTCONT.5434725,R D AFONSO HENRIQUES,,3520-048,NELAS,-7.850507043822986,40.535113372326926
pt.ine.add.PTCONT.5434734,R DR EURICO AMARAL,9,3520-050,NELAS,-7.8564122152613445,40.528490719545644
pt.ine.add.PTCONT.5434743,R VILAR,12,3520-080,NELAS,-7.853260914282291,40.531373849414535
pt.ine.add.PTCONT.5434744,R VILAR,12,3520-080,NELAS,-7.853260914282291,40.531373849414535
pt.ine.add.PTCONT.5434745,R FONTE NOVA,21,3520-094,NELAS,-7.839015947931223,40.515047768959086
pt.ine.add.PTCONT.5434746,R PICOTO,2A,3520-021,NELAS,-7.8478177408988525,40.512422252346525
pt.ine.add.PTCONT.5435386,LG ASSOCIAÇÃO,7,3520-228,MOREIRA NLS,-7.92997385288367,40.540116276746225
pt.ine.add.PTCONT.5435387,R FONTE,5,3520-228,MOREIRA NLS,-7.929369807967352,40.540790614188545
pt.ine.add.PTCONT.5435411,R S CATARINA,5,3525-625,LAPA DO LOBO,-7.9186339244394,40.47229413611648
pt.ine.add.PTCONT.5435420,AV S PEDRO,,3520-128,SANTAR NLS,-7.897055137741268,40.56965420342204
pt.ine.add.PTCONT.5435436,R CASTANHAL,18,3520-225,VILAR SECO NLS,-7.865351808888232,40.5597062576353
pt.ine.add.PTCONT.5435445,R CABINE,24,3520-225,VILAR SECO NLS,-7.867582816294795,40.5598554916416
pt.ine.add.PTCONT.5435457,R QUEBRA COSTAS,8,3520-212,SENHORIM,-7.795725923811726,40.53808225048387
pt.ine.add.PTCONT.5435467,R ESCOLA,8,3520-212,SENHORIM,-7.797769979396216,40.53767395549971
pt.ine.add.PTCONT.5435468,R OUTEIRO,5,3520-225,VILAR SECO NLS,-7.862991583346338,40.55939458292935
pt.ine.add.PTCONT.5435489,R CERNADA,2,3520-224,SENHORIM,-7.769016670973647,40.53984726657223
pt.ine.add.PTCONT.5435505,LG FONTE,,3520-222,SENHORIM,-7.795009938461738,40.52279365808041
pt.ine.add.PTCONT.5435506,R PONTE,,3525-622,LAPA DO LOBO,-7.913929091248658,40.472231277683385
pt.ine.add.PTCONT.5435522,R FUNDO DAS LAGES,6,3525-633,LAPA DO LOBO,-7.9158233058494005,40.47356766072021
pt.ine.add.PTCONT.5435523,R 23 AGOSTO,147,3520-227,MOREIRA NLS,-7.923285519071279,40.55001920238774
pt.ine.add.PTCONT.5435534,R AMOREIRAS,56,3520-226,MOREIRA NLS,-7.919529536567788,40.54686045374496
pt.ine.add.PTCONT.5435535,BC TAVARES,1,3520-226,MOREIRA NLS,-7.918772346825699,40.54738136100399
pt.ine.add.PTCONT.5435536,BC TAVARES,6,3520-226,MOREIRA NLS,-7.9188782776661935,40.54748061614557
pt.ine.add.PTCONT.5435549,TV LUGAR DE PEDRINHO,16,3520-302,VILAR SECO NLS,-7.864775063150862,40.56220839508087
pt.ine.add.PTCONT.5435550,R FUNDO LAGES,1,3525-633,LAPA DO LOBO,-7.915810933033064,40.47374774644746
pt.ine.add.PTCONT.5435551,LG EIRAS,5,3520-226,MOREIRA NLS,-7.9210675758474345,40.54579165158612
pt.ine.add.PTCONT.5435565,AV 9 DE JULHO,71,3525-601,LAPA DO LOBO,-7.919831836946669,40.47383628473699
pt.ine.add.PTCONT.5435739,AV IGREJA,,3525-023,CANAS DE SENHORIM,-7.904224423262094,40.499949188744225
pt.ine.add.PTCONT.5435743,R ARQ KEIL AMARAL,,3525-013,CANAS DE SENHORIM,-7.901270068931134,40.50143819724866
pt.ine.add.PTCONT.5435768,R ARY SANTOS,9,3525-202,CANAS DE SENHORIM,-7.86535142474435,40.48862690915108
pt.ine.add.PTCONT.5435824,R BARQUEIRA,39,3520-046,NELAS,-7.850855248724262,40.53089071442193
pt.ine.add.PTCONT.5435860,R PASSAL,11,3525-062,CANAS DE SENHORIM,-7.907686222288371,40.50541326735108
pt.ine.add.PTCONT.5435859,TV CASAL,,3525-086,CANAS DE SENHORIM,-7.906531250642418,40.505050792726564
pt.ine.add.PTCONT.5435872,R CHÃO MONTEIRO,79,3525-364,CANAS DE SENHORIM,-7.882644517736004,40.48816137495996
pt.ine.add.PTCONT.5435873,R CHÃO MONTEIRO,76,3525-364,CANAS DE SENHORIM,-7.882844292590954,40.488359927027126
pt.ine.add.PTCONT.5435891,R VALA,39,3520-021,NELAS,-7.8523677806942835,40.51065032976304
pt.ine.add.PTCONT.5435893,R DR AURÉLIO GONÇALVES SANTOS,,3520-039,NELAS,-7.867534204398542,40.53031788824759
pt.ine.add.PTCONT.5435899,R LAMEIRA,74,3525-543,CANAS DE SENHORIM,-7.935051831879676,40.50325708282081
pt.ine.add.PTCONT.5435900,R CAPELA,,3525-257,CANAS DE SENHORIM,-7.931887158974806,40.50424221036253
pt.ine.add.PTCONT.5435907,BC ST ANTÓNIO,5,3520-226,MOREIRA NLS,-7.918771542981504,40.547633508874384
pt.ine.add.PTCONT.5435921,R SANTO ANTÓNIO,39,3525-427,CARVALHAL REDONDO,-7.903606191082598,40.53941852712474
pt.ine.add.PTCONT.5435928,R FONTAÍNHAS,2,3520-227,MOREIRA NLS,-7.921485450361465,40.55179897454695
pt.ine.add.PTCONT.5436352,R DR ABEL PAIS CABRAL,,3520-032,NELAS,-7.8508391767006085,40.531908279960376
pt.ine.add.PTCONT.5436363,R FONTE DO CASTANHEIRO,9,3520-054,NELAS,-7.853773610658061,40.53012334582555
pt.ine.add.PTCONT.5436364,AV ANTÓNIO MONTEIRO,,3520-036,NELAS,-7.8531401610155305,40.52635757336668
pt.ine.add.PTCONT.5436365,AV ANTÓNIO MONTEIRO,,3520-036,NELAS,-7.8531401610155305,40.52635757336668
pt.ine.add.PTCONT.5436366,AV ANTÓNIO MONTEIRO,,3520-036,NELAS,-7.8531401610155305,40.52635757336668
pt.ine.add.PTCONT.5436367,AV ANTÓNIO MONTEIRO,,3520-036,NELAS,-7.8531401610155305,40.52635757336668
pt.ine.add.PTCONT.5436368,AV ANTÓNIO MONTEIRO,,3520-036,NELAS,-7.8531401610155305,40.52635757336668
pt.ine.add.PTCONT.5436398,R EIRAS,,3520-011,NELAS,-7.858616682224314,40.54356192100978
pt.ine.add.PTCONT.5436399,R MESTRE ZE,02,3520-011,NELAS,-7.859127098493824,40.542869721699255
pt.ine.add.PTCONT.5436400,BR TOICAS,23,3520-045,NELAS,-7.847024758695096,40.537977507615274
pt.ine.add.PTCONT.5436415,R MIMOSAS,54,3525-204,CANAS DE SENHORIM,-7.865949175158275,40.48958286694261
pt.ine.add.PTCONT.5436416,R 1 DE MAIO,32,3525-009,CANAS DE SENHORIM,-7.899981622419915,40.5089911347272
pt.ine.add.PTCONT.5436417,CHALET,,3525-301,CANAS DE SENHORIM,-7.891624609253885,40.513305565732146
pt.ine.add.PTCONT.5436436,R ESCOLA,208,3525-352,CANAS DE SENHORIM,-7.886463471450173,40.4920869458637
pt.ine.add.PTCONT.5436437,R DR EDUARDO MARIA DOS SANTOS,40,3525-072,CANAS DE SENHORIM,-7.89671946964706,40.507273483124685
pt.ine.add.PTCONT.5436438,R DR EDUARDO MARIA DOS SANTOS,40,3525-072,CANAS DE SENHORIM,-7.89671946964706,40.507273483124685
pt.ine.add.PTCONT.5436439,R FOJO,65,3525-055,CANAS DE SENHORIM,-7.901432749748287,40.50215895580609
pt.ine.add.PTCONT.5436469,R PACO,122,3525-060,CANAS DE SENHORIM,-7.901608997761226,40.50579749085045
pt.ine.add.PTCONT.5436470,R LINHA,16,3525-029,CANAS DE SENHORIM,-7.897790150457567,40.49799109843559
pt.ine.add.PTCONT.5436485,R COMÉRCIO,,3525-052,CANAS DE SENHORIM,-7.898637710471504,40.49850612941542
pt.ine.add.PTCONT.5436486,R CHOES,,3525-440,CARVALHAL REDONDO,-7.897102877665863,40.54261132867584
pt.ine.add.PTCONT.5436487,R DIREITA,5,3525-428,CARVALHAL REDONDO,-7.900939009307564,40.539278118423425
pt.ine.add.PTCONT.5436488,R BALCHA,16,3525-411,CARVALHAL REDONDO,-7.903662592241135,40.536726040198154
pt.ine.add.PTCONT.5436497,TV ABOLEIROS,3,3525-439,CARVALHAL REDONDO,-7.909524933249645,40.53790822804699
pt.ine.add.PTCONT.5436498,BC AMARAIS,10,3525-451,CARVALHAL REDONDO,-7.902784307731943,40.53813813252703
pt.ine.add.PTCONT.5436499,R FONTE RENDEIRO,614,3520-068,NELAS,-7.853303928321622,40.53238255297833
pt.ine.add.PTCONT.5436500,R SACADURA CABRAL,17,3520-070,NELAS,-7.848467191644205,40.53462207659253
pt.ine.add.PTCONT.5436501,R FONTE GRANDE,,3520-093,NELAS,-7.841939752540162,40.53198525607377
pt.ine.add.PTCONT.5436502,R FONTE GRANDE,,3520-093,NELAS,-7.8417859314558624,40.532074921861906
pt.ine.add.PTCONT.5436511,TV SERRANOS,1,3520-110,NELAS,-7.852524251436918,40.532551763999145
pt.ine.add.PTCONT.5436521,AV ANTÓNIO MONTEIRO,,3520-036,NELAS,-7.8531401610155305,40.52635757336668
pt.ine.add.PTCONT.5436522,AV ANTÓNIO MONTEIRO,,3520-036,NELAS,-7.8531401610155305,40.52635757336668
pt.ine.add.PTCONT.5436523,AV ANTÓNIO MONTEIRO,,3520-036,NELAS,-7.8531401610155305,40.52635757336668
pt.ine.add.PTCONT.5436524,AV ANTÓNIO MONTEIRO,,3520-036,NELAS,-7.8531401610155305,40.52635757336668
pt.ine.add.PTCONT.5436525,AV ANTÓNIO MONTEIRO,,3520-036,NELAS,-7.8531401610155305,40.52635757336668
pt.ine.add.PTCONT.5436526,R DR AURELIO GONCALVES SANTOS,9,3520-021,NELAS,-7.8510099268574445,40.51651853085035
pt.ine.add.PTCONT.5436527,R POMAR,12,3520-021,NELAS,-7.856494686102709,40.51129966408621
pt.ine.add.PTCONT.5436528,R MONDEGO,,3520-063,NELAS,-7.84566426045002,40.52488935533036
pt.ine.add.PTCONT.5436529,LG D DINIS,8,3520-021,NELAS,-7.8531564579604165,40.51393020219712
pt.ine.add.PTCONT.5436530,R PADRE ANTÓNIO CASANOVA,4,3520-021,NELAS,-7.85419605956945,40.51362653310323
pt.ine.add.PTCONT.5437293,CANTO DO MONETO,,3525-603,LAPA DO LOBO,-7.917638070933412,40.473958292304154
pt.ine.add.PTCONT.5437303,R OLIVAL,6,3520-228,MOREIRA NLS,-7.92998723433963,40.539593990127486
pt.ine.add.PTCONT.5437321,R MOITA,,3520-225,VILAR SECO NLS,-7.859891592065845,40.55808152342707
pt.ine.add.PTCONT.5437349,R FLORES,4,3520-220,SENHORIM,-7.8150530983759126,40.512120590766806
pt.ine.add.PTCONT.5437369,R CASTANHAL,1,3520-225,VILAR SECO NLS,-7.865587058345566,40.55993193535093
pt.ine.add.PTCONT.5437370,AV SALGUEIRO,28,3525-501,AGUIEIRA,-7.916435789429846,40.52512477880652
pt.ine.add.PTCONT.5437379,QTA BARREIRO,,3520-224,SENHORIM,-7.775766851468685,40.540156510594066
pt.ine.add.PTCONT.5437380,R EIRAS,65,3525-515,AGUIEIRA,-7.925450118997869,40.52573568422693
pt.ine.add.PTCONT.5437381,R 23 DE AGOSTO,64,3520-227,MOREIRA NLS,-7.918982590929925,40.55179436307921
pt.ine.add.PTCONT.5437412,R DR EURICO AMARAL,11,3520-225,VILAR SECO NLS,-7.865485669571401,40.55870697832191
pt.ine.add.PTCONT.5437413,R INF D HENRIQUE,67,3525-527,AGUIEIRA,-7.91903521777434,40.52413903301234
pt.ine.add.PTCONT.5437427,R CASTELAO,,3525-631,LAPA DO LOBO,-7.912497815418649,40.48079273258397
pt.ine.add.PTCONT.5437440,LG LUIS FERNANDES,,3520-212,SENHORIM,-7.7961208508859645,40.53700276273333
pt.ine.add.PTCONT.5437441,R EMIGRANTES,5,3525-637,LAPA DO LOBO,-7.915434816710692,40.477016015873744
pt.ine.add.PTCONT.5437455,R EIRAS,8,3520-212,SENHORIM,-7.793042396555112,40.53656148728384
pt.ine.add.PTCONT.5437467,R NOVA,,3520-222,SENHORIM,-7.7906957530125185,40.52453242083599
pt.ine.add.PTCONT.5437468,R NASCIMENTO LOUREIRO,1,3520-227,MOREIRA NLS,-7.9219147646160755,40.550430950094515
pt.ine.add.PTCONT.5437484,R VILA FONSECA,6,3525-644,LAPA DO LOBO,-7.915087265502421,40.475088195475
pt.ine.add.PTCONT.5437496,R FLORES,4,3520-219,SENHORIM,-7.783992466180961,40.52229704540124
pt.ine.add.PTCONT.5437517,BC SAMPAIOS,2,3520-226,MOREIRA NLS,-7.918688590601768,40.547732413634584
pt.ine.add.PTCONT.5437527,R APEADEIRO,6,3525-626,LAPA DO LOBO,-7.919534205334356,40.47472727459308
pt.ine.add.PTCONT.5437721,R FONTE DO OUTEIRO,1,3520-021,NELAS,-7.853675624414526,40.5139314587469
pt.ine.add.PTCONT.5437744,R LAGE DO QUARTO,20,3525-028,CANAS DE SENHORIM,-7.900282339378987,40.51073878689009
pt.ine.add.PTCONT.5437798,CANTO DO MONETO,10,3525-603,LAPA DO LOBO,-7.917497081875528,40.473795931306185
pt.ine.add.PTCONT.5437843,R CHÃO MONTEIRO,,3525-364,CANAS DE SENHORIM,-7.882066340056352,40.48822315851506
pt.ine.add.PTCONT.5437865,R PRADOS,44,3525-269,CANAS DE SENHORIM,-7.9326588845476955,40.50656694503616
pt.ine.add.PTCONT.5437900,TV CAPELA,2,3520-212,SENHORIM,-7.794253265446375,40.53752861562147
pt.ine.add.PTCONT.5437960,R FREIXIEIRO,,3525-056,CANAS DE SENHORIM,-7.8986663850977825,40.510600439041795
pt.ine.add.PTCONT.5437961,R FREIXIEIRO,73,3525-056,CANAS DE SENHORIM,-7.898243045839474,40.51019433687293
pt.ine.add.PTCONT.5437962,LG S BARBARA,40,3525-303,CANAS DE SENHORIM,-7.896231935554776,40.51506214621245
pt.ine.add.PTCONT.5437963,R CENTRAL,13,3525-304,CANAS DE SENHORIM,-7.897532021152375,40.51445243777127
pt.ine.add.PTCONT.5437964,R PACO,,3525-060,CANAS DE SENHORIM,-7.902259732379073,40.50525846866629
pt.ine.add.PTCONT.5438054,R DR ABILIO MONTEIRO,,3525-070,CANAS DE SENHORIM,-7.899486271298043,40.50213702654925
pt.ine.add.PTCONT.5438055,R COMÉRCIO,26,3525-052,CANAS DE SENHORIM,-7.898532011762219,40.49837083378868
pt.ine.add.PTCONT.5438056,R COMÉRCIO,26,3525-052,CANAS DE SENHORIM,-7.898532011762219,40.49837083378868
pt.ine.add.PTCONT.5438057,R COMÉRCIO,26,3525-052,CANAS DE SENHORIM,-7.898532011762219,40.49837083378868
pt.ine.add.PTCONT.5438058,R COMÉRCIO,26,3525-052,CANAS DE SENHORIM,-7.898532011762219,40.49837083378868
pt.ine.add.PTCONT.5438059,R DR TIAGO MARQUES,,3525-074,CANAS DE SENHORIM,-7.90707519802243,40.4976494147589
pt.ine.add.PTCONT.5438060,R ESTRADA,43,3525-019,CANAS DE SENHORIM,-7.90374831746099,40.50119099089021
pt.ine.add.PTCONT.5438061,R COMÉRCIO,73,3525-052,CANAS DE SENHORIM,-7.900263458806195,40.49913979493145
pt.ine.add.PTCONT.5438154,R CRUZEIRO,44,3525-430,CARVALHAL REDONDO,-7.902235966410265,40.53970396841253
pt.ine.add.PTCONT.5438245,R EIRAS,S,3520-011,NELAS,-7.8594376053498785,40.54488765234097
pt.ine.add.PTCONT.5438246,R FLORES,15,3520-011,NELAS,-7.860997064270527,40.54166742567358
pt.ine.add.PTCONT.5438247,LG JOÃO PEREIRA RUIVO,,3520-060,NELAS,-7.852372586633845,40.534955823721866
pt.ine.add.PTCONT.5438248,LG JOÃO PEREIRA RUIVO,,3520-060,NELAS,-7.852372586633845,40.534955823721866
pt.ine.add.PTCONT.5438249,LG JOÃO PEREIRA RUIVO,,3520-060,NELAS,-7.852372586633845,40.534955823721866
pt.ine.add.PTCONT.5438250,LG JOÃO PEREIRA RUIVO,,3520-060,NELAS,-7.852372586633845,40.534955823721866
pt.ine.add.PTCONT.5438251,LG JOÃO PEREIRA RUIVO,,3520-060,NELAS,-7.852372586633845,40.534955823721866
pt.ine.add.PTCONT.5438252,LG JOÃO PEREIRA RUIVO,,3520-060,NELAS,-7.852372586633845,40.534955823721866
pt.ine.add.PTCONT.5438253,LG JOÃO PEREIRA RUIVO,,3520-060,NELAS,-7.852372586633845,40.534955823721866
pt.ine.add.PTCONT.5438254,LG JOÃO PEREIRA RUIVO,,3520-060,NELAS,-7.852372586633845,40.534955823721866
pt.ine.add.PTCONT.5438364,R D AFONSO HENRIQUES,62,3520-048,NELAS,-7.848758342026788,40.535550344110035
pt.ine.add.PTCONT.5438365,R CUMIEIRA,12,3520-047,NELAS,-7.845983055598133,40.53591270017767
pt.ine.add.PTCONT.5438366,R RESTAURACAO,27,3520-069,NELAS,-7.856856996230529,40.5351377337367
pt.ine.add.PTCONT.5438462,R ABADES,2,3520-031,NELAS,-7.85133985196863,40.533539470339335
pt.ine.add.PTCONT.5438463,R MORGADAS,,3520-064,NELAS,-7.849213677725149,40.5311388427606
pt.ine.add.PTCONT.5438464,AV JOÃO XXIII,,3520-059,NELAS,-7.8546519452266965,40.53177344547263
pt.ine.add.PTCONT.5438465,AV JOÃO XXIII,,3520-059,NELAS,-7.8546519452266965,40.53177344547263
pt.ine.add.PTCONT.5438466,AV JOÃO XXIII,,3520-059,NELAS,-7.8546519452266965,40.53177344547263
pt.ine.add.PTCONT.5438467,AV JOÃO XXIII,,3520-059,NELAS,-7.8546519452266965,40.53177344547263
pt.ine.add.PTCONT.5438537,AV JOÃO XXIII,,3520-059,NELAS,-7.8546519452266965,40.53177344547263
pt.ine.add.PTCONT.5438538,AV JOÃO XXIII,,3520-059,NELAS,-7.8546519452266965,40.53177344547263
pt.ine.add.PTCONT.5438539,AV JOÃO XXIII,,3520-059,NELAS,-7.8546519452266965,40.53177344547263
pt.ine.add.PTCONT.5438540,AV JOÃO XXIII,,3520-059,NELAS,-7.8546519452266965,40.53177344547263
pt.ine.add.PTCONT.5438541,AV JOÃO XXIII,,3520-059,NELAS,-7.8546519452266965,40.53177344547263
pt.ine.add.PTCONT.5438542,AV JOÃO XXIII,,3520-059,NELAS,-7.8546519452266965,40.53177344547263
pt.ine.add.PTCONT.5438543,AV JOÃO XXIII,,3520-059,NELAS,-7.8546519452266965,40.53177344547263
pt.ine.add.PTCONT.5438544,AV JOÃO XXIII,,3520-059,NELAS,-7.8546519452266965,40.53177344547263
pt.ine.add.PTCONT.5438545,R DR AUGUSTO ROSADO,20,3520-037,NELAS,-7.853430414473597,40.53034764951867
pt.ine.add.PTCONT.5438670,R BARQUEIRA,95,3520-046,NELAS,-7.851940675657212,40.53098341423203
pt.ine.add.PTCONT.5438671,R JOÃO PEREIRA ABREU,7,3520-021,NELAS,-7.852035680912305,40.51389146008498
pt.ine.add.PTCONT.5438672,R POMBAL,17,3520-021,NELAS,-7.853952197990559,40.51268037926044
pt.ine.add.PTCONT.5438767,R SOITO,4,3520-130,SANTAR NLS,-7.894191933261459,40.571170212624075
pt.ine.add.PTCONT.5438768,R ANJOS DE PORTUGAL,12,3520-121,SANTAR NLS,-7.89582435560433,40.57039912166154
pt.ine.add.PTCONT.5438769,R ANJOS DE PORTUGAL,,3520-121,SANTAR NLS,-7.895978224729953,40.57030037933859
pt.ine.add.PTCONT.5438770,R CRUZEIRO MARTINHO,,3520-137,SANTAR NLS,-7.898856587423217,40.574574760794476
pt.ine.add.PTCONT.5438771,R COMISSAO DE MORADORES,4,3520-111,SANTAR NLS,-7.8853649113614575,40.57583437129647
pt.ine.add.PTCONT.5438889,R IGREJA,14,3520-216,SENHORIM,-7.812408032700543,40.5409825747736
pt.ine.add.PTCONT.5438890,R IGREJA,3,3520-216,SENHORIM,-7.815926425017983,40.539616343877086
pt.ine.add.PTCONT.5438891,R PASSAL,,3520-216,SENHORIM,-7.812502278809881,40.53983202678841
pt.ine.add.PTCONT.5438892,R ESCOLA,,3520-212,SENHORIM,-7.799431212470951,40.538291127635276
pt.ine.add.PTCONT.5438893,R SOITO,10,3520-223,SENHORIM,-7.816678634372496,40.535286838592526
pt.ine.add.PTCONT.5438980,R PACO,12,3520-224,SENHORIM,-7.7674019675180865,40.541571189745724
pt.ine.add.PTCONT.5438981,R MOAGEM,,3520-224,SENHORIM,-7.770641308550767,40.54064484339125
pt.ine.add.PTCONT.5438982,R CASTANHAL,6,3520-225,VILAR SECO NLS,-7.864703235593312,40.55949763055281
pt.ine.add.PTCONT.5438983,R CASTANHAL,10,3520-225,VILAR SECO NLS,-7.864938661812404,40.55967828345646
pt.ine.add.PTCONT.5438984,CANTO DO RARO,22,3520-225,VILAR SECO NLS,-7.867276538646828,40.55967468112181
pt.ine.add.PTCONT.5439077,R SOITO,20,3520-225,VILAR SECO NLS,-7.86534796676864,40.55770706961751
pt.ine.add.PTCONT.5439078,AV 9 DE JULHO,40,3525-601,LAPA DO LOBO,-7.915414734165088,40.47958252904193
pt.ine.add.PTCONT.5439079,R EMIGRANTES,31,3525-637,LAPA DO LOBO,-7.915462880551706,40.475629230166895
pt.ine.add.PTCONT.5439080,R PENEDO DA SAUDADE,12,3525-635,LAPA DO LOBO,-7.9193793618102255,40.47521328254712
pt.ine.add.PTCONT.5439161,R CIMO DO POVO,10,3525-614,LAPA DO LOBO,-7.9174042422133235,40.473327474705265
pt.ine.add.PTCONT.5439162,R S CATARINA,,3525-625,LAPA DO LOBO,-7.918555163691203,40.47110527019408
pt.ine.add.PTCONT.5439163,BC QUELHA,19,3520-227,MOREIRA NLS,-7.91806218862991,40.551648568377985
pt.ine.add.PTCONT.5439164,R NASCIMENTO DOUREIRO,8,3520-227,MOREIRA NLS,-7.9227576469407515,40.54893760274369
pt.ine.add.PTCONT.5439253,R NASCIMENTO LOUREIRO,18,3520-227,MOREIRA NLS,-7.92257538691588,40.54682101725982
pt.ine.add.PTCONT.5439254,R PEDRA TABULEIRA,,3520-226,MOREIRA NLS,-7.930737083449899,40.545376736261595
pt.ine.add.PTCONT.5439449,R LAGE DO QUARTO,211,3525-028,CANAS DE SENHORIM,-7.900627033354922,40.513423086431686
pt.ine.add.PTCONT.5439539,R LAGE DO QUARTO,109,3525-028,CANAS DE SENHORIM,-7.9009726881042175,40.512415177991045
pt.ine.add.PTCONT.5439562,QTA CADAVAL,,3520-227,MOREIRA NLS,-7.927288731479216,40.54966618981311
pt.ine.add.PTCONT.5439589,CANTO DO SOITO,8,3520-225,VILAR SECO NLS,-7.866777676148158,40.55744021488456
pt.ine.add.PTCONT.5439615,R S PEDRO,32,3525-436,CARVALHAL REDONDO,-7.917271866435528,40.54408261440496
pt.ine.add.PTCONT.5439652,R CRAMELADA,24,3525-510,AGUIEIRA,-7.914598493837325,40.52761580575932
pt.ine.add.PTCONT.5439673,R CHÃO DO CASTANHEIRO,3,3525-613,LAPA DO LOBO,-7.916415580393773,40.47274027117906
pt.ine.add.PTCONT.5439697,R S PEDRO,38,3520-226,MOREIRA NLS,-7.916046457243693,40.54337790227297
pt.ine.add.PTCONT.5439709,R FONTAÍNHAS,4,3520-227,MOREIRA NLS,-7.921744416586885,40.55204259244025
pt.ine.add.PTCONT.5440126,AV SA CARNEIRO,,3520-111,SANTAR NLS,-7.886823952827746,40.57731435795404
pt.ine.add.PTCONT.5440127,R ERVEDAL,36,3520-126,SANTAR NLS,-7.891397869450721,40.57312755435732
pt.ine.add.PTCONT.5440128,LG 1 DE MAIO,,3520-132,SANTAR NLS,-7.895563120496006,40.57080382312178
pt.ine.add.PTCONT.5440146,R QUELHA,,3520-111,SANTAR NLS,-7.88526553180684,40.57396105817143
pt.ine.add.PTCONT.5440147,R APRIGIO BARBOSA,7,3520-011,NELAS,-7.862907275583851,40.545120951839976
pt.ine.add.PTCONT.5440148,R APRIGIO BARBOSA,7,3520-011,NELAS,-7.862907275583851,40.545120951839976
pt.ine.add.PTCONT.5440149,R ALF ABILIO RODRIGUES FERREIRA,,3520-011,NELAS,-7.860920298177981,40.543135114666775
pt.ine.add.PTCONT.5440178,R DR ARNALDO SANTOS ALMEIDA,17,3520-052,NELAS,-7.844022118059048,40.53628603517896
pt.ine.add.PTCONT.5440179,R DR JOÃO VITORINO MONTEIRO,6,3520-052,NELAS,-7.845353254114105,40.53690172125239
pt.ine.add.PTCONT.5440180,R LAGE DO QUARTO,229,3525-028,CANAS DE SENHORIM,-7.900608577747986,40.51535020154076
pt.ine.add.PTCONT.5440190,R POMBAL,16,3520-068,NELAS,-7.853542185897701,40.53185181394795
pt.ine.add.PTCONT.5440191,R POMBAL,16,3520-068,NELAS,-7.853542185897701,40.53185181394795
pt.ine.add.PTCONT.5440192,R POMBAL,22,3520-068,NELAS,-7.853542185897701,40.53185181394795
pt.ine.add.PTCONT.5440193,R POMBAL,16,3520-068,NELAS,-7.853542185897701,40.53185181394795
pt.ine.add.PTCONT.5440194,R POMBAL,22,3520-068,NELAS,-7.853542185897701,40.53185181394795
pt.ine.add.PTCONT.5440195,R POMBAL,16,3520-068,NELAS,-7.853542185897701,40.53185181394795
pt.ine.add.PTCONT.5440196,R POMBAL,16,3520-068,NELAS,-7.853542185897701,40.53185181394795
pt.ine.add.PTCONT.5440197,R POMBAL,16,3520-068,NELAS,-7.853542185897701,40.53185181394795
pt.ine.add.PTCONT.5440198,R POMBAL,16,3520-068,NELAS,-7.853542185897701,40.53185181394795
pt.ine.add.PTCONT.5440199,R SACADURA CABRAL,,3520-070,NELAS,-7.848419103562203,40.534829081095815
pt.ine.add.PTCONT.5440200,R SACADURA CABRAL,,3520-070,NELAS,-7.848419103562203,40.534829081095815
pt.ine.add.PTCONT.5440201,R LAGE,33,3525-356,CANAS DE SENHORIM,-7.885784632836633,40.48742969241704
pt.ine.add.PTCONT.5440202,R PARQUE,G,3525-309,CANAS DE SENHORIM,-7.896952746234896,40.514766443855365
pt.ine.add.PTCONT.5440216,CAM POLVORINHO CASA RUSTICA,39,3525-310,CANAS DE SENHORIM,-7.897947517153611,40.51710987168451
pt.ine.add.PTCONT.5440224,R 1 DE JULHO,,3525-367,CANAS DE SENHORIM,-7.8953061137050335,40.50658617338914
pt.ine.add.PTCONT.5440225,R PACO,,3525-060,CANAS DE SENHORIM,-7.9022955269708595,40.505141469977914
pt.ine.add.PTCONT.5440226,R DIREITA,13,3525-046,CANAS DE SENHORIM,-7.901521524104222,40.50035805276055
pt.ine.add.PTCONT.5440227,TV CENTRO,11,3525-087,CANAS DE SENHORIM,-7.901840628079591,40.500187589046135
pt.ine.add.PTCONT.5440234,AV BOMBEIROS VOLUNTARIOS,104,3525-001,CANAS DE SENHORIM,-7.90313079269461,40.498929406548804
pt.ine.add.PTCONT.5440235,R LADEIRA,15,3525-355,CANAS DE SENHORIM,-7.88816654921779,40.48435490876341
pt.ine.add.PTCONT.5440236,R LADEIRA,15,3525-355,CANAS DE SENHORIM,-7.88816654921779,40.48435490876341
pt.ine.add.PTCONT.5440248,R ADRIANO SANTOS,81,3525-011,CANAS DE SENHORIM,-7.900557443176231,40.49941054910194
pt.ine.add.PTCONT.5440249,R ABOLEIROS,69,3525-439,CARVALHAL REDONDO,-7.906347121923418,40.538694505781855
pt.ine.add.PTCONT.5440250,R ABOLEIROS,,3525-439,CARVALHAL REDONDO,-7.9057560271886524,40.53896350462379
pt.ine.add.PTCONT.5440251,BR CABECO,10,3525-453,CARVALHAL REDONDO,-7.903827192723835,40.52999036139446
pt.ine.add.PTCONT.5440252,AV ARTUR ALFEU ORDAZ MANGAS,,3520-052,NELAS,-7.844365878436269,40.53594469165282
pt.ine.add.PTCONT.5440260,R ALBUGADA,6,3525-440,CARVALHAL REDONDO,-7.896259887023547,40.54399642588125
pt.ine.add.PTCONT.5440261,R SENHORIM,2,3520-075,NELAS,-7.845100754830213,40.53522609812684
pt.ine.add.PTCONT.5440262,R ENG ADELINO AMARO DA COSTA,4,3520-006,NELAS,-7.847342782655835,40.53535773961449
pt.ine.add.PTCONT.5440263,R FLORES,19,3520-051,NELAS,-7.848419103562203,40.534829081095815
pt.ine.add.PTCONT.5440264,R SACADURA CABRAL,,3520-070,NELAS,-7.848419103562203,40.534829081095815
pt.ine.add.PTCONT.5440265,R SACADURA CABRAL,,3520-070,NELAS,-7.848419103562203,40.534829081095815
pt.ine.add.PTCONT.5440266,R SACADURA CABRAL,,3520-070,NELAS,-7.848419103562203,40.534829081095815
pt.ine.add.PTCONT.5440297,R PADRE ANTÓNIO CASANOVA,15,3520-021,NELAS,-7.854305422613095,40.51286133962669
pt.ine.add.PTCONT.5440298,TV POMBAL,8,3520-021,NELAS,-7.853836935083941,40.5120227078602
pt.ine.add.PTCONT.5440299,AV S CRISTÓVÃO,,3520-112,SANTAR NLS,-7.897237275640385,40.58504460864347
pt.ine.add.PTCONT.5441004,R SACADURA BOTTE,,3525-529,AGUIEIRA,-7.922782959361807,40.52952211932435
pt.ine.add.PTCONT.5441038,R MOITA,1,3520-225,VILAR SECO NLS,-7.860944456588791,40.55757971100902
pt.ine.add.PTCONT.5441039,EN 234,,3520-225,VILAR SECO NLS,-7.838199774250673,40.55588492528191
pt.ine.add.PTCONT.5441100,R S SILVESTRE,13,3520-212,SENHORIM,-7.791092039684831,40.53711406146994
pt.ine.add.PTCONT.5441101,R 23 AGOSTO,122,3520-227,MOREIRA NLS,-7.921157496167666,40.550969883162054
pt.ine.add.PTCONT.5441115,R DIREITA,11,3520-212,SENHORIM,-7.795205216479138,40.538350888903224
pt.ine.add.PTCONT.5441116,R LAGINHA,4,3520-227,MOREIRA NLS,-7.917885907218914,40.55139609095135
pt.ine.add.PTCONT.5441129,TV PURIFICACAO,5,3520-212,SENHORIM,-7.795183690950241,40.537936580576286
pt.ine.add.PTCONT.5441137,R FLORES,12,3520-212,SENHORIM,-7.795177543478493,40.53681089566817
pt.ine.add.PTCONT.5441147,R FLORES,29,3520-222,SENHORIM,-7.7916074028437405,40.52394977059065
pt.ine.add.PTCONT.5441148,R DIREITA,46,3520-224,SENHORIM,-7.766944308958542,40.54107444741404
pt.ine.add.PTCONT.5441149,R ARCO,5,3520-224,SENHORIM,-7.76819737918335,40.54073620932563
pt.ine.add.PTCONT.5441162,QTA VALE,,3520-224,SENHORIM,-7.785990255959117,40.53763916747674
pt.ine.add.PTCONT.5441173,LG BANDA,3,3520-225,VILAR SECO NLS,-7.863849388570553,40.55747845395405
pt.ine.add.PTCONT.5441188,TV VALE ESPORAO,,3520-218,SENHORIM,-7.827689342938278,40.53823419778859
pt.ine.add.PTCONT.5441200,R JOSE SERPA,5,3520-225,VILAR SECO NLS,-7.863955051177921,40.5605765270277
pt.ine.add.PTCONT.5441384,AV JOÃO XXIII,,3520-059,NELAS,-7.854577066764356,40.53275484829425
pt.ine.add.PTCONT.5441387,R DR JOÃO VITORINO MONTEIRO,,3520-052,NELAS,-7.843621857502474,40.53604188878327
pt.ine.add.PTCONT.5441396,QUINTAL OU RAINHA,8,3520-011,NELAS,-7.8632904470554275,40.54377104728182
pt.ine.add.PTCONT.5441442,R MATADOURO,6,3520-225,VILAR SECO NLS,-7.867636166399128,40.55531693632459
pt.ine.add.PTCONT.5441450,AV VILA NOVA DAS AMOREIRAS,,3525-502,AGUIEIRA,-7.921307498486178,40.5258362297647
pt.ine.add.PTCONT.5441463,R BARQUEIRA,27,3520-046,NELAS,-7.850726256038104,40.53069228148985
pt.ine.add.PTCONT.5441493,R ESCOLA,74,3525-258,CANAS DE SENHORIM,-7.929837691962846,40.50313996445486
pt.ine.add.PTCONT.5441494,LG SANTO ANTÓNIO,4,3525-254,CANAS DE SENHORIM,-7.931768348164766,40.50452117091965
pt.ine.add.PTCONT.5441495,R ESTAÇÃO,23,3525-018,CANAS DE SENHORIM,-7.903271461315833,40.499190843232405
pt.ine.add.PTCONT.5441506,BC ST ANTÓNIO,3,3520-226,MOREIRA NLS,-7.918865869864901,40.54766970515787
pt.ine.add.PTCONT.5441567,ESTR PROGRESSO,5,3520-213,SENHORIM,-7.822365520727354,40.53831906140633
pt.ine.add.PTCONT.5441606,R NSA SRA DE FÁTIMA,134,3525-516,AGUIEIRA,-7.922196810172067,40.5282603000071
pt.ine.add.PTCONT.5441607,R EIRAS,1,3525-515,AGUIEIRA,-7.925415743389088,40.52540242378551
pt.ine.add.PTCONT.5441608,R ABOLEIROS,3,3525-439,CARVALHAL REDONDO,-7.909763275913833,40.53722428247553
pt.ine.add.PTCONT.5441609,R APEADEIRO,10,3525-626,LAPA DO LOBO,-7.91955727665253,40.47488941528362
pt.ine.add.PTCONT.5441723,R CASA DA GUARDA,,3525-611,LAPA DO LOBO,-7.922453127610216,40.47275143226222
pt.ine.add.PTCONT.5441724,R SANTA,,3525-631,LAPA DO LOBO,-7.908682371896621,40.482631501440125
pt.ine.add.PTCONT.5441725,R 23 DE AGOSTO,108,3520-227,MOREIRA NLS,-7.920141598635242,40.55115712696069
pt.ine.add.PTCONT.5441838,R LADEIRA,12,3525-355,CANAS DE SENHORIM,-7.888248518813128,40.48451718018503
pt.ine.add.PTCONT.5441839,R FONTE,55,3525-307,CANAS DE SENHORIM,-7.898000467180467,40.51456441645487
pt.ine.add.PTCONT.5441840,CHALE SOBREIRO,,3525-301,CANAS DE SENHORIM,-7.891408667446673,40.51429570655177
pt.ine.add.PTCONT.5441841,BC LAGINHA,1,3520-227,MOREIRA NLS,-7.918536782186106,40.550911013821676
pt.ine.add.PTCONT.5441842,BC JUVENTUDE,5,3520-227,MOREIRA NLS,-7.918878030699373,40.55126285489291
pt.ine.add.PTCONT.5441843,R OLIVAL,11,3520-228,MOREIRA NLS,-7.929762662516244,40.539692653947476
pt.ine.add.PTCONT.5441923,R PACO,143,3525-060,CANAS DE SENHORIM,-7.901104799343565,40.50831799056482
pt.ine.add.PTCONT.5441924,R DR ABILIO MONTEIRO,200,3525-070,CANAS DE SENHORIM,-7.8997100750251725,40.502236538191596
pt.ine.add.PTCONT.5441925,R S SEBASTIÃO,18,3525-043,CANAS DE SENHORIM,-7.901272394080985,40.5007627965307
pt.ine.add.PTCONT.5442012,R CHAFARIZ,2,3525-050,CANAS DE SENHORIM,-7.902406939743009,40.50017071010573
pt.ine.add.PTCONT.5442096,R FIGUEIRA DO LEITE,17,3525-020,CANAS DE SENHORIM,-7.901144519487641,40.50021321016885
pt.ine.add.PTCONT.5442097,R LAGE DE ABRIL,60,3525-026,CANAS DE SENHORIM,-7.900471436883618,40.496987920838734
pt.ine.add.PTCONT.5442098,R VALE GAMAIO,,3525-045,CANAS DE SENHORIM,-7.89545062587102,40.49572595294121
pt.ine.add.PTCONT.5442099,BR COCARINHAS,11,3525-454,CARVALHAL REDONDO,-7.909317621510068,40.53990701371401
pt.ine.add.PTCONT.5442100,R SOITINHO,41,3525-436,CARVALHAL REDONDO,-7.904335665067724,40.540113385321256
pt.ine.add.PTCONT.5442101,TV CARVALHEDO,11,3525-446,CARVALHAL REDONDO,-7.905150834677426,40.539907873520896
pt.ine.add.PTCONT.5442194,TV ABOLEIROS,6,3525-448,CARVALHAL REDONDO,-7.906781401470763,40.5394247903135
pt.ine.add.PTCONT.5442195,BR FLORES,,3525-455,CARVALHAL REDONDO,-7.89280279533985,40.54353001525444
pt.ine.add.PTCONT.5442196,R EIRAS,,3525-423,CARVALHAL REDONDO,-7.903138259640301,40.538183864278146
pt.ine.add.PTCONT.5442197,R DIREITA,125,3525-428,CARVALHAL REDONDO,-7.903082783919824,40.537148138807765
pt.ine.add.PTCONT.5442198,R DIREITA,169,3525-428,CARVALHAL REDONDO,-7.903655612203269,40.535312186256675
pt.ine.add.PTCONT.5442199,R FONTE DO PASSO,9,3525-453,CARVALHAL REDONDO,-7.902906905777492,40.526458429379
pt.ine.add.PTCONT.5442285,ESTR CARVALHAL,4,3520-011,NELAS,-7.865292506300997,40.5419926487099
pt.ine.add.PTCONT.5442286,AV DR FRANCISCO SA CARNEIRO,,3520-071,NELAS,-7.850492403031283,40.53578873745594
pt.ine.add.PTCONT.5442287,AV DR FRANCISCO SA CARNEIRO,,3520-071,NELAS,-7.850492403031283,40.53578873745594
pt.ine.add.PTCONT.5442288,AV DR FRANCISCO SA CARNEIRO,,3520-071,NELAS,-7.850492403031283,40.53578873745594
pt.ine.add.PTCONT.5442289,AV DR FRANCISCO SA CARNEIRO,1,3520-071,NELAS,-7.850492403031283,40.53578873745594
pt.ine.add.PTCONT.5442290,AV DR FRANCISCO SA CARNEIRO,,3520-071,NELAS,-7.850492403031283,40.53578873745594
pt.ine.add.PTCONT.5442291,R CUMIEIRA,,3520-047,NELAS,-7.843093629960977,40.535365163327725
pt.ine.add.PTCONT.5442376,R 3,4,3520-045,NELAS,-7.847599916465118,40.53873537888555
pt.ine.add.PTCONT.5442377,R ENG ADELINO AMARO DA COSTA,,3520-006,NELAS,-7.846917798417658,40.53537469846882
pt.ine.add.PTCONT.5442378,R ENG ADELINO AMARO DA COSTA,,3520-006,NELAS,-7.846917798417658,40.53537469846882
pt.ine.add.PTCONT.5442379,R ENG ADELINO AMARO DA COSTA,,3520-006,NELAS,-7.846917798417658,40.53537469846882
pt.ine.add.PTCONT.5442380,R ENG ADELINO AMARO DA COSTA,,3520-006,NELAS,-7.846917798417658,40.53537469846882
pt.ine.add.PTCONT.5442381,R ENG ADELINO AMARO DA COSTA,,3520-006,NELAS,-7.846917798417658,40.53537469846882
pt.ine.add.PTCONT.5442382,R RESTAURACAO,17,3520-069,NELAS,-7.85660072645484,40.5351923352424
pt.ine.add.PTCONT.5442770,R ERVEDAL,,3520-126,SANTAR NLS,-7.891278865022651,40.57337945346319
pt.ine.add.PTCONT.5442771,LG FEIRA,,3520-141,SANTAR NLS,-7.896931380127199,40.571265898536474
pt.ine.add.PTCONT.5442772,R FONTE,16,3520-111,SANTAR NLS,-7.884887118832138,40.57409532504888
pt.ine.add.PTCONT.5442871,ESTR S JOÃO,,3520-212,SENHORIM,-7.790385533192002,40.53446439889752
pt.ine.add.PTCONT.5442872,R PAZ,,3520-218,SENHORIM,-7.824164076484244,40.537360313154046
pt.ine.add.PTCONT.5442967,R S JOSE,14,3520-219,SENHORIM,-7.784295548102888,40.523018389223004
pt.ine.add.PTCONT.5442968,R CRUZEIRO,18,3520-225,VILAR SECO NLS,-7.863367305536652,40.56286250408296
pt.ine.add.PTCONT.5443063,,,3520-225,VILAR SECO NLS,-7.864847702027129,40.56767478180232
pt.ine.add.PTCONT.5443064,TV ALAMBIQUE,4,3520-225,VILAR SECO NLS,-7.865444904204047,40.56004867511696
pt.ine.add.PTCONT.5443065,LG FRANCISCO DAVID,6,3520-225,VILAR SECO NLS,-7.863211599569584,40.55753099765309
pt.ine.add.PTCONT.5443137,R CANAIS,,3525-636,LAPA DO LOBO,-7.914789915647293,40.47587110805567
pt.ine.add.PTCONT.5443167,R LAGE DE ABRIL,60,3525-026,CANAS DE SENHORIM,-7.900471436883618,40.496987920838734
pt.ine.add.PTCONT.5443173,R NSA SRA DE FÁTIMA,19,3525-516,AGUIEIRA,-7.920206920750553,40.52679778156732
pt.ine.add.PTCONT.5443192,AV DR FRANCISCO SA CARNEIRO,,3520-071,NELAS,-7.850492403031283,40.53578873745594
pt.ine.add.PTCONT.5443222,R TERREIRO,8,3520-225,VILAR SECO NLS,-7.861587360441001,40.55918416915257
pt.ine.add.PTCONT.5443263,LAMEIRAS,,3525-009,CANAS DE SENHORIM,-7.900386938496344,40.50437218336289
pt.ine.add.PTCONT.5443331,LG SANTO ANTÓNIO,1,3520-213,SENHORIM,-7.82278034626083,40.53795095742101
pt.ine.add.PTCONT.5443371,R CORREDOURA,24,3525-413,CARVALHAL REDONDO,-7.901659474290698,40.53572245125695
pt.ine.add.PTCONT.5443733,BR CORREDOURA,1,3525-413,CARVALHAL REDONDO,-7.902527306018083,40.53391411045976
pt.ine.add.PTCONT.5443743,R DR ABEL PAIS CABRAL,27,3520-032,NELAS,-7.850581150493011,40.53152041922885
pt.ine.add.PTCONT.5443756,R POMBAL,19,3520-068,NELAS,-7.853591865016831,40.531257580882695
pt.ine.add.PTCONT.5443757,R POMBAL,19,3520-068,NELAS,-7.853591865016831,40.531257580882695
pt.ine.add.PTCONT.5443758,R POMBAL,19,3520-068,NELAS,-7.853591865016831,40.531257580882695
pt.ine.add.PTCONT.5443759,R DR AUGUSTO ROSADO,33,3520-037,NELAS,-7.853455291481066,40.53004152767903
pt.ine.add.PTCONT.5443776,R SERRA DA ESTRELA,61,3520-076,NELAS,-7.8453382792615205,40.521088280097516
pt.ine.add.PTCONT.5443777,R PERO CABEÇO,12,3520-111,SANTAR NLS,-7.88424715096508,40.57788517378529
pt.ine.add.PTCONT.5443778,R ERVEDAL,,3520-126,SANTAR NLS,-7.8914694401298116,40.57292958766273
pt.ine.add.PTCONT.5443779,R SOITO,,3520-130,SANTAR NLS,-7.893789453813161,40.57143953839915
pt.ine.add.PTCONT.5443807,R MESTRE ZE,8,3520-011,NELAS,-7.85926761347041,40.5431492202008
pt.ine.add.PTCONT.5443808,LOTEAM VALE DE SENHORIM,,3520-056,NELAS,-7.851169191977739,40.540464163205456
pt.ine.add.PTCONT.5443809,R D AFONSO HENRIQUES,,3520-048,NELAS,-7.85159577968108,40.53443162362501
pt.ine.add.PTCONT.5443810,R D AFONSO HENRIQUES,,3520-048,NELAS,-7.85159577968108,40.53443162362501
pt.ine.add.PTCONT.5443811,R D AFONSO HENRIQUES,3,3520-048,NELAS,-7.85159577968108,40.53443162362501
pt.ine.add.PTCONT.5443812,R D AFONSO HENRIQUES,,3520-048,NELAS,-7.85159577968108,40.53443162362501
pt.ine.add.PTCONT.5443813,R D AFONSO HENRIQUES,,3520-048,NELAS,-7.85159577968108,40.53443162362501
pt.ine.add.PTCONT.5443814,R D AFONSO HENRIQUES,,3520-048,NELAS,-7.85159577968108,40.53443162362501
pt.ine.add.PTCONT.5443815,R D AFONSO HENRIQUES,,3520-048,NELAS,-7.85159577968108,40.53443162362501
pt.ine.add.PTCONT.5443826,QTA FLORES,47,3520-052,NELAS,-7.845712998246714,40.538343471298084
pt.ine.add.PTCONT.5443835,AV ANTÓNIO JOÃO PAIS MIRANDA,119,3525-012,CANAS DE SENHORIM,-7.904026028140486,40.50971965416117
pt.ine.add.PTCONT.5443836,R LADEIRA,20,3525-355,CANAS DE SENHORIM,-7.8883547640095335,40.48449038893374
pt.ine.add.PTCONT.5443851,R OLIVAIS,126,3525-366,CANAS DE SENHORIM,-7.88720074845313,40.48399264073924
pt.ine.add.PTCONT.5443852,R FAROL,75,3525-053,CANAS DE SENHORIM,-7.897495283604874,40.5013495144574
pt.ine.add.PTCONT.5443863,R LAGE DO QUARTO,28,3525-028,CANAS DE SENHORIM,-7.900304877996913,40.511045015547374
pt.ine.add.PTCONT.5443864,R PACO,22,3525-060,CANAS DE SENHORIM,-7.902617395231209,40.504169529212696
pt.ine.add.PTCONT.5443865,R ROSSIO,3,3525-064,CANAS DE SENHORIM,-7.901576979110646,40.50138478009827
pt.ine.add.PTCONT.5443866,R ARQ KEIL AMARAL,BL 3,3525-013,CANAS DE SENHORIM,-7.901576979110646,40.50138478009827
pt.ine.add.PTCONT.5443867,R ROSSIO,,3525-064,CANAS DE SENHORIM,-7.901576979110646,40.50138478009827
pt.ine.add.PTCONT.5443868,R ARQ KEIL AMARAL,BL 3,3525-013,CANAS DE SENHORIM,-7.901576979110646,40.50138478009827
pt.ine.add.PTCONT.5443869,R ROSSIO,,3525-064,CANAS DE SENHORIM,-7.901576979110646,40.50138478009827
pt.ine.add.PTCONT.5443870,R ROSSIO,,3525-064,CANAS DE SENHORIM,-7.901576979110646,40.50138478009827
pt.ine.add.PTCONT.5443871,R ARQ KEIL AMARAL,BL 3,3525-013,CANAS DE SENHORIM,-7.901576979110646,40.50138478009827
pt.ine.add.PTCONT.5443872,R DR ABILIO MONTEIRO,,3525-070,CANAS DE SENHORIM,-7.89681005241539,40.504995302990594
pt.ine.add.PTCONT.5443873,R CHAFARIZ,,3525-050,CANAS DE SENHORIM,-7.902312595633553,40.500161516328546
pt.ine.add.PTCONT.5443885,AV IGREJA,8,3525-023,CANAS DE SENHORIM,-7.9032562223170535,40.500199418564044
pt.ine.add.PTCONT.5443886,AV IGREJA,8,3525-023,CANAS DE SENHORIM,-7.9032562223170535,40.500199418564044
pt.ine.add.PTCONT.5443892,R DIREITA,151,3525-428,CARVALHAL REDONDO,-7.9030973897733725,40.5363286810653
pt.ine.add.PTCONT.5443893,AV D MARIA II,6,3520-086,NELAS,-7.8495092931167045,40.53660581503042
pt.ine.add.PTCONT.5443894,AV D MARIA II,,3520-086,NELAS,-7.8495092931167045,40.53660581503042
pt.ine.add.PTCONT.5443904,R GAGO COUTINHO,47,3520-057,NELAS,-7.851613536912739,40.533008821795526
pt.ine.add.PTCONT.5443905,R POMBAL,44,3520-068,NELAS,-7.853872988984507,40.53177156567304
pt.ine.add.PTCONT.5443906,R POMBAL,44,3520-068,NELAS,-7.853872988984507,40.53177156567304
pt.ine.add.PTCONT.5443923,R POMBAL,19,3520-068,NELAS,-7.853591865016831,40.531257580882695
pt.ine.add.PTCONT.5443938,R FONTE DO OUTEIRO,25,3520-021,NELAS,-7.854617104491924,40.514528086524294
pt.ine.add.PTCONT.5444687,AV VISC DE TAVEIRO,27,3520-147,SANTAR NLS,-7.89203405894898,40.570265200228626
pt.ine.add.PTCONT.5444688,R SACADURA BOTTE,78,3525-529,AGUIEIRA,-7.922642715408586,40.529080601174
pt.ine.add.PTCONT.5444697,TV CORETO,2,3520-225,VILAR SECO NLS,-7.86286079854647,40.55961940982136
pt.ine.add.PTCONT.5444698,TV COR SERPA,7,3520-225,VILAR SECO NLS,-7.859992914563571,40.559297479942494
pt.ine.add.PTCONT.5444699,R COR SERPA,15,3520-225,VILAR SECO NLS,-7.855495151654943,40.55909764825695
pt.ine.add.PTCONT.5444700,R COR SERPA,7,3520-225,VILAR SECO NLS,-7.855046665657934,40.55905154316631
pt.ine.add.PTCONT.5444707,R VIDEIRA,23,3525-512,AGUIEIRA,-7.9228432360706025,40.529116987684155
pt.ine.add.PTCONT.5444716,AV VISC DE TAVEIRO,,3520-147,SANTAR NLS,-7.890626992102799,40.56421069331866
pt.ine.add.PTCONT.5444746,R NOVA,5,3520-216,SENHORIM,-7.813363223758178,40.539987503178004
pt.ine.add.PTCONT.5444747,R EIRAS,51,3525-515,AGUIEIRA,-7.92502499116215,40.52582497314394
pt.ine.add.PTCONT.5444748,R 23 AGOSTO,2,3520-227,MOREIRA NLS,-7.913461362153935,40.55418842045262
pt.ine.add.PTCONT.5444756,R ESCOLA,10,3520-224,SENHORIM,-7.767703635310569,40.54253571383593
pt.ine.add.PTCONT.5444769,R 23 AGOSTO,81,3520-227,MOREIRA NLS,-7.918900752835353,40.55154206219877
pt.ine.add.PTCONT.5444778,R FORMOSA,20,3520-212,SENHORIM,-7.79402482557615,40.538356436219374
pt.ine.add.PTCONT.5444779,R CRUZEIRO,4,3520-224,SENHORIM,-7.76803850281107,40.54173529855559
pt.ine.add.PTCONT.5444797,R DIREITA,,3520-212,SENHORIM,-7.795408588271832,40.537811163412066
pt.ine.add.PTCONT.5444798,R FLORES,,3520-212,SENHORIM,-7.794964588118433,40.53690933134809
pt.ine.add.PTCONT.5444799,R PADARIA,24,3520-225,VILAR SECO NLS,-7.864259531730089,40.558253865972944
pt.ine.add.PTCONT.5444812,R LAGINHA,23,3520-227,MOREIRA NLS,-7.918347803338895,40.55093767868989
pt.ine.add.PTCONT.5444820,R BOCAS,28,3520-225,VILAR SECO NLS,-7.863351258241206,40.55803562132715
pt.ine.add.PTCONT.5444855,R JOSE MORAIS PADUA,4,3520-225,VILAR SECO NLS,-7.86288328747119,40.55696289547758
pt.ine.add.PTCONT.5444856,R S SILVESTRE,44,3520-227,MOREIRA NLS,-7.918304464737617,40.54972187858863
pt.ine.add.PTCONT.5445041,R COMÉRCIO,168,3525-052,CANAS DE SENHORIM,-7.900586490558808,40.501247710419406
pt.ine.add.PTCONT.5445049,R CUMIEIRA,,3520-047,NELAS,-7.843897123645984,40.53516005431085
pt.ine.add.PTCONT.5445058,R D AFONSO HENRIQUES,,3520-048,NELAS,-7.85159577968108,40.53443162362501
pt.ine.add.PTCONT.5445059,R MOINHOS VELHOS,,3520-112,SANTAR NLS,-7.8990804135369626,40.584904273033494
pt.ine.add.PTCONT.5445096,AV VISC DE TAVEIRO,2,3520-147,SANTAR NLS,-7.886673409817338,40.573279667980806
pt.ine.add.PTCONT.5445109,R MEDRONHEIROS,3,3525-441,CARVALHAL REDONDO,-7.9027087047317455,40.53953381048062
pt.ine.add.PTCONT.5445110,R POMBAL,44,3520-068,NELAS,-7.853872988984507,40.53177156567304
pt.ine.add.PTCONT.5445148,R ARQ KEIL AMARAL,BL 3,3525-013,CANAS DE SENHORIM,-7.901576979110646,40.50138478009827
pt.ine.add.PTCONT.5445213,R ENFERMARIA,23 25,3520-049,NELAS,-7.852111088632633,40.532568770685636
pt.ine.add.PTCONT.5445218,R CHÃO DA LAGE,,3525-612,LAPA DO LOBO,-7.914369180201286,40.474699604525725
pt.ine.add.PTCONT.5445224,R DR AURÉLIO GONÇALVES SANTOS,,3520-039,NELAS,-7.862567796090121,40.526803282689976
pt.ine.add.PTCONT.5445231,R SANTO ANTÓNIO,44,3525-427,CARVALHAL REDONDO,-7.903358158424272,40.53946306092663
pt.ine.add.PTCONT.5445258,R ASSOCIAÇÃO,55,3525-256,CANAS DE SENHORIM,-7.932307460114146,40.50176645502737
pt.ine.add.PTCONT.5445280,R MATADOURO QTA DO QUARTO,,3525-058,CANAS DE SENHORIM,-7.910902295257536,40.49970106447362
pt.ine.add.PTCONT.5445282,R ESCOLA,237,3525-352,CANAS DE SENHORIM,-7.8892793555591565,40.49298445721199
pt.ine.add.PTCONT.5445283,R ESCOLA,237,3525-352,CANAS DE SENHORIM,-7.8892793555591565,40.49298445721199
pt.ine.add.PTCONT.5445284,R ROSSIO,57,3525-064,CANAS DE SENHORIM,-7.902512741566621,40.500278986140586
pt.ine.add.PTCONT.5445285,R ROSSIO,57,3525-064,CANAS DE SENHORIM,-7.902512741566621,40.500278986140586
pt.ine.add.PTCONT.5445683,LG FEIRA,,3520-141,SANTAR NLS,-7.897239687811208,40.57090631660668
pt.ine.add.PTCONT.5445684,R SOITO,,3520-130,SANTAR NLS,-7.894616813155305,40.57124313289536
pt.ine.add.PTCONT.5445685,R CARREIRA,,3520-122,SANTAR NLS,-7.893977602324194,40.57166506037096
pt.ine.add.PTCONT.5445686,R NSA SRA DE FÁTIMA,9,3520-144,SANTAR NLS,-7.9008710835190685,40.569193661987356
pt.ine.add.PTCONT.5445695,R FONTE,,3520-111,SANTAR NLS,-7.884887285224464,40.57405029895889
pt.ine.add.PTCONT.5445696,R 5 DE OUTUBRO,16,3520-111,SANTAR NLS,-7.885867003279187,40.57418747924129
pt.ine.add.PTCONT.5445710,R APRIGIO BARBOSA,,3520-011,NELAS,-7.861315968398867,40.54454087820222
pt.ine.add.PTCONT.5445711,LOTEAM VALE DE SENHORIM,7,3520-056,NELAS,-7.851383887776879,40.53993337191407
pt.ine.add.PTCONT.5445712,R FARNEZ,FRACAO A,3520-029,NELAS,-7.851457388751113,40.53647549990592
pt.ine.add.PTCONT.5445713,R FARNEZ,FRACAO A,3520-029,NELAS,-7.851457388751113,40.53647549990592
pt.ine.add.PTCONT.5445719,QTA FLORES,2,3520-052,NELAS,-7.845549558755431,40.53791981362878
pt.ine.add.PTCONT.5445720,AV ARTUR ALFEU ORDAZ MANGAS,9,3520-052,NELAS,-7.844907701550315,40.536207199344084
pt.ine.add.PTCONT.5445721,R ARTUR ALFEU ORDAZ MANGAS,9,3520-052,NELAS,-7.844907701550315,40.536207199344084
pt.ine.add.PTCONT.5445723,QTA VITÓRIA,,3525-258,CANAS DE SENHORIM,-7.892715334255223,40.51845891785901
pt.ine.add.PTCONT.5445737,QTA PESO,,3520-053,NELAS,-7.858406018397322,40.53155729745484
pt.ine.add.PTCONT.5445738,R DIREITA,73,3525-362,CANAS DE SENHORIM,-7.882856589117625,40.48822487230564
pt.ine.add.PTCONT.5445747,R ESCOLA,202,3525-352,CANAS DE SENHORIM,-7.8861692786334014,40.49189720388306
pt.ine.add.PTCONT.5445748,R ESTRADA,26,3525-019,CANAS DE SENHORIM,-7.903238615868725,40.50190140516126
pt.ine.add.PTCONT.5445749,R ESTRADA,40,3525-019,CANAS DE SENHORIM,-7.903581777547988,40.50159590346961
pt.ine.add.PTCONT.5445755,R POCAS,,3525-041,CANAS DE SENHORIM,-7.899077425639042,40.514545631683674
pt.ine.add.PTCONT.5445756,R ARQ KEIL AMARAL,46,3525-013,CANAS DE SENHORIM,-7.901350448148886,40.502077742157105
pt.ine.add.PTCONT.5445757,LG PELOURINHO,3,3525-007,CANAS DE SENHORIM,-7.902536508205541,40.503674070814334
pt.ine.add.PTCONT.5445772,R COMÉRCIO,,3525-052,CANAS DE SENHORIM,-7.900740007687665,40.5012029921679
pt.ine.add.PTCONT.5445773,R BARREIRO,48,3525-047,CANAS DE SENHORIM,-7.897815096234336,40.49760391660047
pt.ine.add.PTCONT.5445774,R BARREIRO,48,3525-047,CANAS DE SENHORIM,-7.897815096234336,40.49760391660047
pt.ine.add.PTCONT.5445775,R NOVA,FRACCAO A,3525-040,CANAS DE SENHORIM,-7.895186245011394,40.49710323697826
pt.ine.add.PTCONT.5445776,R LAGE DA PEREIRA,,3525-025,CANAS DE SENHORIM,-7.9025733290148805,40.49981082585787
pt.ine.add.PTCONT.5445789,R DR ABILIO MONTEIRO,4,3525-070,CANAS DE SENHORIM,-7.898666338070611,40.50383738708769
pt.ine.add.PTCONT.5445790,R DR ABILIO MONTEIRO,4,3525-070,CANAS DE SENHORIM,-7.898666338070611,40.50383738708769
pt.ine.add.PTCONT.5445791,R DR ABILIO MONTEIRO,4,3525-070,CANAS DE SENHORIM,-7.898666338070611,40.50383738708769
pt.ine.add.PTCONT.5445792,R DR ABILIO MONTEIRO,4,3525-070,CANAS DE SENHORIM,-7.898666338070611,40.50383738708769
pt.ine.add.PTCONT.5445793,R DR ABILIO MONTEIRO,4,3525-070,CANAS DE SENHORIM,-7.898666338070611,40.50383738708769
pt.ine.add.PTCONT.5445794,R SOITINHO,44,3525-436,CARVALHAL REDONDO,-7.903945350036736,40.540343596232745
pt.ine.add.PTCONT.5445795,AV CIMO DO POVO,,3525-429,CARVALHAL REDONDO,-7.899980191566114,40.54005965283978
pt.ine.add.PTCONT.5445796,AV D MARIA II,28,3520-086,NELAS,-7.848566826896923,40.5361802467961
pt.ine.add.PTCONT.5445804,R GAGO COUTINHO,,3520-057,NELAS,-7.851499471704047,40.533431795280755
pt.ine.add.PTCONT.5445805,R GAGO COUTINHO,,3520-057,NELAS,-7.851499471704047,40.533431795280755
pt.ine.add.PTCONT.5445806,R GAGO COUTINHO,,3520-057,NELAS,-7.851499471704047,40.533431795280755
pt.ine.add.PTCONT.5445818,R FONTE,4,3525-415,CARVALHAL REDONDO,-7.902419788332692,40.53773216468377
pt.ine.add.PTCONT.5445819,R VALE COVO,,3520-039,NELAS,-7.8620878520623805,40.525829578966544
pt.ine.add.PTCONT.5445820,AV ANTÓNIO JOAQUIM HENRIQUES,,3520-035,NELAS,-7.852466360080833,40.52945378196977
pt.ine.add.PTCONT.5445821,AV ANTÓNIO JOAQUIM HENRIQUES,,3520-035,NELAS,-7.852466360080833,40.52945378196977
pt.ine.add.PTCONT.5445822,AV ANTÓNIO JOAQUIM HENRIQUES,,3520-035,NELAS,-7.852466360080833,40.52945378196977
pt.ine.add.PTCONT.5445823,AV ANTÓNIO JOAQUIM HENRIQUES,,3520-035,NELAS,-7.852466360080833,40.52945378196977
pt.ine.add.PTCONT.5445824,AV ANTÓNIO JOAQUIM HENRIQUES,,3520-035,NELAS,-7.852466360080833,40.52945378196977
pt.ine.add.PTCONT.5445825,AV ANTÓNIO JOAQUIM HENRIQUES,,3520-035,NELAS,-7.852466360080833,40.52945378196977
pt.ine.add.PTCONT.5445833,TV LENTISQUEIRA,7,3520-021,NELAS,-7.848632708205518,40.515017810717886
pt.ine.add.PTCONT.5445834,R PICOTO,3,3520-021,NELAS,-7.847828356787058,40.51270144537154
pt.ine.add.PTCONT.5445835,TV POCINHA,,3520-021,NELAS,-7.850837446385292,40.51262778617791
pt.ine.add.PTCONT.5446990,QTA ESTRADA,,3520-094,NELAS,-7.8431445698194935,40.537238402642046
pt.ine.add.PTCONT.5446991,QTA ESTRADA,,3520-094,NELAS,-7.8431445698194935,40.537238402642046
pt.ine.add.PTCONT.5446455,TV MIRAGAIA,,3520-143,SANTAR NLS,-7.892162118697973,40.57077876924936
pt.ine.add.PTCONT.5446487,R MOITA,2,3520-225,VILAR SECO NLS,-7.860103971599081,40.558118046723145
pt.ine.add.PTCONT.5446503,AV DR ARNALDO SANTOS ALMEIDA,1A,3520-114,SANTAR NLS,-7.877366963968708,40.57957214538942
pt.ine.add.PTCONT.5446504,R EIRAS,12,3525-515,AGUIEIRA,-7.923844740587833,40.52585886324126
pt.ine.add.PTCONT.5446540,R NOVA,,3520-216,SENHORIM,-7.814143211927043,40.53979154166503
pt.ine.add.PTCONT.5446541,R PACO,15,3520-224,SENHORIM,-7.76719973174897,40.54185871984686
pt.ine.add.PTCONT.5446555,R NOVA,12,3520-224,SENHORIM,-7.765985789013996,40.543673944211186
pt.ine.add.PTCONT.5446556,R DR EURICO AMARAL,32,3520-225,VILAR SECO NLS,-7.8649873998969335,40.55930017355354
pt.ine.add.PTCONT.5446589,R ESCOLA,2,3525-618,LAPA DO LOBO,-7.9171826653587525,40.47623582060711
pt.ine.add.PTCONT.5446620,R CRAVOS,11,3520-222,SENHORIM,-7.793939901856961,40.522425729661954
pt.ine.add.PTCONT.5446621,BARROCAL,,3520-225,VILAR SECO NLS,-7.866130652497768,40.5509008603088
pt.ine.add.PTCONT.5446652,R CANCELINHA,10,3520-228,MOREIRA NLS,-7.933041071607929,40.54072498664271
pt.ine.add.PTCONT.5446891,R S SILVESTRE,14,3520-212,SENHORIM,-7.7923449619952025,40.536766555265345
pt.ine.add.PTCONT.5446909,R DR ABILIO MONTEIRO,4,3525-070,CANAS DE SENHORIM,-7.898666338070611,40.50383738708769
pt.ine.add.PTCONT.5446988,QTA ESTRADA,,3520-094,NELAS,-7.8431445698194935,40.537238402642046
pt.ine.add.PTCONT.5446989,QTA ESTRADA,,3520-094,NELAS,-7.8431445698194935,40.537238402642046
pt.ine.add.PTCONT.5446992,QTA ESTRADA,,3520-094,NELAS,-7.8431445698194935,40.537238402642046
pt.ine.add.PTCONT.5446993,QTA ESTRADA,,3520-094,NELAS,-7.8431445698194935,40.537238402642046
pt.ine.add.PTCONT.5446999,R DA TAPADA,5,3525-003,CANAS DE SENHORIM,-7.898577002811993,40.499001303701256
pt.ine.add.PTCONT.5447034,R DR AURÉLIO GONÇALVES SANTOS,9,3520-039,NELAS,-7.861811809960463,40.52697261208632
pt.ine.add.PTCONT.5447043,R LARANJEIRAS,23,3525-263,CANAS DE SENHORIM,-7.928897176091695,40.50205765771197
pt.ine.add.PTCONT.5447094,R NSA SRA DE FÁTIMA,31,3525-516,AGUIEIRA,-7.9204902149426495,40.52678029244658
pt.ine.add.PTCONT.5447142,R SERRA DA ESTRELA,,3520-076,NELAS,-7.854273030383394,40.52922401653167
pt.ine.add.PTCONT.5447143,R SERRA DA ESTRELA,,3520-076,NELAS,-7.854273030383394,40.52922401653167
pt.ine.add.PTCONT.5447144,R SERRA DA ESTRELA,,3520-076,NELAS,-7.854273030383394,40.52922401653167
pt.ine.add.PTCONT.5447145,R SERRA DA ESTRELA,,3520-076,NELAS,-7.854273030383394,40.52922401653167
pt.ine.add.PTCONT.5447146,R SERRA DA ESTRELA,,3520-076,NELAS,-7.854273030383394,40.52922401653167
pt.ine.add.PTCONT.5447147,R SERRA DA ESTRELA,,3520-076,NELAS,-7.854273030383394,40.52922401653167
pt.ine.add.PTCONT.5447148,R DR EURICO AMARAL,,3520-050,NELAS,-7.8619931061138795,40.52298366154327
pt.ine.add.PTCONT.5447149,LG GEN JOSE TAVARES,,3520-044,NELAS,-7.851430502750517,40.531621551717976
pt.ine.add.PTCONT.5447150,LG GEN JOSE TAVARES,,3520-044,NELAS,-7.851430502750517,40.531621551717976
pt.ine.add.PTCONT.5447236,R COLOQUIO,15,3520-021,NELAS,-7.853914111719254,40.51332867470162
pt.ine.add.PTCONT.5447237,R VALA,15,3520-021,NELAS,-7.8520772068676745,40.51242368400865
pt.ine.add.PTCONT.5447325,AV SA CARNEIRO,27,3520-111,SANTAR NLS,-7.886856280277813,40.5781609235649
pt.ine.add.PTCONT.5447326,R SOITO,,3520-130,SANTAR NLS,-7.894416150424696,40.57121570258422
pt.ine.add.PTCONT.5447327,AV 21 DE MARCO,7,3520-133,SANTAR NLS,-7.896107204293044,40.57056179760745
pt.ine.add.PTCONT.5447328,R RAINHA STA ISABEL,2,3520-111,SANTAR NLS,-7.8851588778879655,40.57405988749303
pt.ine.add.PTCONT.5447438,R CAPELA,9,3520-224,SENHORIM,-7.773984870392674,40.54007894307438
pt.ine.add.PTCONT.5447535,R MOINHOS,14,3520-217,SENHORIM,-7.818340903899152,40.5306626312321
pt.ine.add.PTCONT.5447536,R MIMOSAS,7,3520-224,SENHORIM,-7.764023219748037,40.53992147692418
pt.ine.add.PTCONT.5447537,EN 231-1,9,3520-225,VILAR SECO NLS,-7.8704871515551185,40.562950950689746
pt.ine.add.PTCONT.5447646,R FORNO,15,3520-225,VILAR SECO NLS,-7.862641498145209,40.55836715846572
pt.ine.add.PTCONT.5447647,TV LADEIRA,3,3520-225,VILAR SECO NLS,-7.86307951663329,40.558080013078865
pt.ine.add.PTCONT.5447648,AV VILA NOVA DAS AMOREIRAS,100,3525-502,AGUIEIRA,-7.913761102193015,40.52745212263651
pt.ine.add.PTCONT.5447757,R EIRAS,58,3525-515,AGUIEIRA,-7.924824088833143,40.52591466487894
pt.ine.add.PTCONT.5447758,LAGES,10,3525-605,LAPA DO LOBO,-7.916247420373974,40.473694533511036
pt.ine.add.PTCONT.5447759,ALMAS,38,3525-609,LAPA DO LOBO,-7.917037039158175,40.473840099480725
pt.ine.add.PTCONT.5447760,AV 9 DE JULHO,97,3525-601,LAPA DO LOBO,-7.921204921477506,40.4721908126669
pt.ine.add.PTCONT.5447852,R 23 AGOSTO,93,3520-227,MOREIRA NLS,-7.919220428888993,40.55125448393551
pt.ine.add.PTCONT.5447853,R PADRE JOAQUIM LOUREIRO PINTO,8,3520-227,MOREIRA NLS,-7.91906778442024,40.550993046719036
pt.ine.add.PTCONT.5447854,R AMEIXOAL,3,3520-227,MOREIRA NLS,-7.920497453876699,40.5506264679274
pt.ine.add.PTCONT.5447855,R NASCIMENTO DOUREIRO,6,3520-227,MOREIRA NLS,-7.922603104725222,40.54927952390271
pt.ine.add.PTCONT.5447935,BC MANUAI,1,3525-207,CANAS DE SENHORIM,-7.865421048674398,40.4889152438831
pt.ine.add.PTCONT.5447936,R BELA VISTA,100,3525-203,CANAS DE SENHORIM,-7.866241243875888,40.48731417560805
pt.ine.add.PTCONT.5447937,TV ESCOLA,192,3525-368,CANAS DE SENHORIM,-7.884813868889823,40.49160612654764
pt.ine.add.PTCONT.5448033,R CAPELA,,3525-350,CANAS DE SENHORIM,-7.888860344071038,40.48492371907389
pt.ine.add.PTCONT.5448034,R POCAS,,3525-041,CANAS DE SENHORIM,-7.899940933392148,40.513926005698565
pt.ine.add.PTCONT.5448035,R CANTINA,,3525-305,CANAS DE SENHORIM,-7.895984749332538,40.5148905369853
pt.ine.add.PTCONT.5448036,R CENTRAL,18,3525-304,CANAS DE SENHORIM,-7.897318875404572,40.51466813227193
pt.ine.add.PTCONT.5448037,BR ENGENHEIROS,8,3525-301,CANAS DE SENHORIM,-7.892168593332306,40.5096685244675
pt.ine.add.PTCONT.5448038,R 1 DE JULHO,16,3525-367,CANAS DE SENHORIM,-7.895021847424697,40.50690077694153
pt.ine.add.PTCONT.5448116,R PACO,55,3525-060,CANAS DE SENHORIM,-7.902355163771229,40.50495247569168
pt.ine.add.PTCONT.5448117,R FLORES,7,3525-036,CANAS DE SENHORIM,-7.89861688368229,40.501099644333536
pt.ine.add.PTCONT.5448118,R COMÉRCIO,,3525-052,CANAS DE SENHORIM,-7.898426376235241,40.498217527372134
pt.ine.add.PTCONT.5448119,R COMÉRCIO,,3525-052,CANAS DE SENHORIM,-7.898296394673735,40.49828030121713
pt.ine.add.PTCONT.5448120,R DIREITA,2,3525-046,CANAS DE SENHORIM,-7.901250939418577,40.500141380468186
pt.ine.add.PTCONT.5448216,R FONTE DA CRUZ,,3525-022,CANAS DE SENHORIM,-7.9058604692728425,40.49755697849385
pt.ine.add.PTCONT.5448217,R SOITINHO,38,3525-436,CARVALHAL REDONDO,-7.903815465491939,40.540355498470376
pt.ine.add.PTCONT.5448218,R DIREITA,187,3525-428,CARVALHAL REDONDO,-7.902471194518906,40.53306749513491
pt.ine.add.PTCONT.5448219,R APRIGIO BARBOSA,,3520-011,NELAS,-7.861421591364751,40.54469421727405
pt.ine.add.PTCONT.5448302,AV LIBERDADE,,3520-011,NELAS,-7.860231551882751,40.54414208753273
pt.ine.add.PTCONT.5448303,AV PROF DR FORTUNATO ALMEIDA,,3520-056,NELAS,-7.846653481956958,40.539237335418555
pt.ine.add.PTCONT.5448304,BR TOICAS,19A,3520-045,NELAS,-7.847061126561503,40.53775246411323
pt.ine.add.PTCONT.5448305,AV D MARIA II,,3520-086,NELAS,-7.847448076393961,40.538356779284854
pt.ine.add.PTCONT.5448306,AV D MARIA II,,3520-086,NELAS,-7.847448076393961,40.538356779284854
pt.ine.add.PTCONT.5448307,AV D MARIA II,,3520-086,NELAS,-7.847448076393961,40.538356779284854
pt.ine.add.PTCONT.5448308,AV D MARIA II,,3520-086,NELAS,-7.847448076393961,40.538356779284854
pt.ine.add.PTCONT.5448309,AV D MARIA II,,3520-086,NELAS,-7.847448076393961,40.538356779284854
pt.ine.add.PTCONT.5448420,QTA PESO,,3520-053,NELAS,-7.857419929281636,40.53313989081962
pt.ine.add.PTCONT.5448421,QTA PESO,,3520-053,NELAS,-7.857419929281636,40.53313989081962
pt.ine.add.PTCONT.5448422,QTA PESO,,3520-053,NELAS,-7.857419929281636,40.53313989081962
pt.ine.add.PTCONT.5448423,QTA PESO,,3520-053,NELAS,-7.857419929281636,40.53313989081962
pt.ine.add.PTCONT.5448424,QTA PESO,,3520-053,NELAS,-7.857419929281636,40.53313989081962
pt.ine.add.PTCONT.5448425,QTA PESO,,3520-053,NELAS,-7.857419929281636,40.53313989081962
pt.ine.add.PTCONT.5448426,QTA PESO,,3520-053,NELAS,-7.857419929281636,40.53313989081962
pt.ine.add.PTCONT.5448427,QTA PESO,,3520-053,NELAS,-7.857419929281636,40.53313989081962
pt.ine.add.PTCONT.5448428,QTA PESO,,3520-053,NELAS,-7.857419929281636,40.53313989081962
pt.ine.add.PTCONT.5448429,QTA PESO,,3520-053,NELAS,-7.857419929281636,40.53313989081962
pt.ine.add.PTCONT.5448430,QTA PESO,,3520-053,NELAS,-7.857419929281636,40.53313989081962
pt.ine.add.PTCONT.5448431,QTA PESO,,3520-053,NELAS,-7.857419929281636,40.53313989081962
pt.ine.add.PTCONT.5448539,R SACADURA CABRAL,,3520-070,NELAS,-7.850553195967979,40.53255596625884
pt.ine.add.PTCONT.5448540,R SACADURA CABRAL,,3520-070,NELAS,-7.850553195967979,40.53255596625884
pt.ine.add.PTCONT.5448541,R SACADURA CABRAL,,3520-070,NELAS,-7.850553195967979,40.53255596625884
pt.ine.add.PTCONT.5448542,R SACADURA CABRAL,,3520-070,NELAS,-7.850553195967979,40.53255596625884
pt.ine.add.PTCONT.5448642,R SACADURA CABRAL,,3520-070,NELAS,-7.850553195967979,40.53255596625884
pt.ine.add.PTCONT.5448643,R SACADURA CABRAL,,3520-070,NELAS,-7.850553195967979,40.53255596625884
pt.ine.add.PTCONT.5448644,R SACADURA CABRAL,,3520-070,NELAS,-7.850553195967979,40.53255596625884
pt.ine.add.PTCONT.5448645,R SACADURA CABRAL,,3520-070,NELAS,-7.850553195967979,40.53255596625884
pt.ine.add.PTCONT.5448646,R SACADURA CABRAL,,3520-070,NELAS,-7.850553195967979,40.53255596625884
pt.ine.add.PTCONT.5448647,R SACADURA CABRAL,,3520-070,NELAS,-7.850553195967979,40.53255596625884
pt.ine.add.PTCONT.5448738,R CASTANHAL,21,3520-225,VILAR SECO NLS,-7.865352203559871,40.559607200141755
pt.ine.add.PTCONT.5448745,R DIREITA,136,3525-428,CARVALHAL REDONDO,-7.902873593850281,40.532744104830265
pt.ine.add.PTCONT.5448749,AV VILA NOVA DAS AMOREIRAS,154,3525-502,AGUIEIRA,-7.916914461575072,40.52673763621319
pt.ine.add.PTCONT.5448759,R SOITO,8,3520-227,MOREIRA NLS,-7.922927971567214,40.55109919210496
pt.ine.add.PTCONT.5448794,R MONSENHOR MOREIRA,30,3520-107,NELAS,-7.852771096085021,40.51296569228255
pt.ine.add.PTCONT.5448797,AV D MARIA II,,3520-086,NELAS,-7.847448076393961,40.538356779284854
pt.ine.add.PTCONT.5448813,QTA PESO,,3520-053,NELAS,-7.857419929281636,40.53313989081962
pt.ine.add.PTCONT.5448827,R FLORES,11,3520-212,SENHORIM,-7.794834571721077,40.53694497212563
pt.ine.add.PTCONT.5448836,R LAMEIRA,91,3525-357,CANAS DE SENHORIM,-7.88513848044452,40.48673489015648
pt.ine.add.PTCONT.5448848,R SACADURA CABRAL,,3520-070,NELAS,-7.850553195967979,40.53255596625884
pt.ine.add.PTCONT.5448866,AV ANTÓNIO MARQUES,9,3520-039,NELAS,-7.859887943009239,40.489226491188234
pt.ine.add.PTCONT.5448889,R DR AURÉLIO GONÇALVES SANTOS,49,3520-039,NELAS,-7.867008059962885,40.52906493319223
pt.ine.add.PTCONT.5448895,R DIREITA,70,3525-265,CANAS DE SENHORIM,-7.93308821447372,40.505018759987806
pt.ine.add.PTCONT.5448896,R ESCOLA,73,3525-258,CANAS DE SENHORIM,-7.929780907398221,40.50241042674296
pt.ine.add.PTCONT.5448948,ZN INDUSTRIAL 1,,3520-224,SENHORIM,-7.838127983651033,40.545339511523196
pt.ine.add.PTCONT.5448964,R CRAMELADA,36,3525-510,AGUIEIRA,-7.915626725686399,40.52715847194443
pt.ine.add.PTCONT.5448968,LG POÇO SANTO,10,3520-223,SENHORIM,-7.818732388942899,40.53528343930824
pt.ine.add.PTCONT.5449015,R CMDT ARMANDO MONTEIRO RIBEIRO PEREIRA,,3520-010,NELAS,-7.855139644154609,40.533710770113395
pt.ine.add.PTCONT.5449016,R CMDT ARMANDO MONTEIRO RIBEIRO PEREIRA,,3520-010,NELAS,-7.855139644154609,40.533710770113395
pt.ine.add.PTCONT.5449017,R CMDT ARMANDO MONTEIRO RIBEIRO PEREIRA,,3520-010,NELAS,-7.855139644154609,40.533710770113395
pt.ine.add.PTCONT.5449018,R CMDT ARMANDO MONTEIRO RIBEIRO PEREIRA,,3520-010,NELAS,-7.855139644154609,40.533710770113395
pt.ine.add.PTCONT.5449019,R CMDT ARMANDO MONTEIRO RIBEIRO PEREIRA,,3520-010,NELAS,-7.855139644154609,40.533710770113395
pt.ine.add.PTCONT.5449020,R PESO,B,3520-053,NELAS,-7.856570622654205,40.53302079176699
pt.ine.add.PTCONT.5449132,R GAGO COUTINHO,54,3520-057,NELAS,-7.8513064434430975,40.53306210535378
pt.ine.add.PTCONT.5449237,R PADEIRAS,23 20,3520-065,NELAS,-7.852987586530814,40.531823454728745
pt.ine.add.PTCONT.5449322,AV ANTÓNIO JOAQUIM HENRIQUES,52 54,3520-035,NELAS,-7.8520051430123186,40.529677794751755
pt.ine.add.PTCONT.5449323,AV ANTÓNIO JOAQUIM HENRIQUES,52 54,3520-035,NELAS,-7.8520051430123186,40.529677794751755
pt.ine.add.PTCONT.5449324,R JOÃO PEREIRA ABREU,1,3520-021,NELAS,-7.852849865268175,40.513884432150114
pt.ine.add.PTCONT.5449325,R VALA,5,3520-021,NELAS,-7.852312773109731,40.51252331584008
pt.ine.add.PTCONT.5449326,R POMAR,3,3520-021,NELAS,-7.856627024642745,40.510678609235256
pt.ine.add.PTCONT.5449417,R PROF BIDARRA,,3520-021,NELAS,-7.864534909552627,40.49225419797372
pt.ine.add.PTCONT.5449418,R CASQUILHOS,,3520-123,SANTAR NLS,-7.8906799174341,40.57245065304336
pt.ine.add.PTCONT.5449419,R CASQUILHOS,,3520-123,SANTAR NLS,-7.8906799174341,40.57245065304336
pt.ine.add.PTCONT.5449420,R CASQUILHOS,,3520-123,SANTAR NLS,-7.8906799174341,40.57245065304336
pt.ine.add.PTCONT.5449421,R CASQUILHOS,,3520-123,SANTAR NLS,-7.8906799174341,40.57245065304336
pt.ine.add.PTCONT.5449422,LG FEIRA,8,3520-141,SANTAR NLS,-7.897147933832176,40.57013167375143
pt.ine.add.PTCONT.5449423,LG 1 DE MAIO,,3520-132,SANTAR NLS,-7.895610166514439,40.570857951623424
pt.ine.add.PTCONT.5449519,R DIREITA,30,3520-125,SANTAR NLS,-7.892351034474821,40.57078816840494
pt.ine.add.PTCONT.5449520,R CAPELA,2,3520-224,SENHORIM,-7.775961067743028,40.53914851423802
pt.ine.add.PTCONT.5449521,R FORMOSA,,3520-212,SENHORIM,-7.7944498406813505,40.53833967204535
pt.ine.add.PTCONT.5449522,R S SILVESTRE,,3520-212,SENHORIM,-7.78951155665023,40.53688423901264
pt.ine.add.PTCONT.5449523,R OLHO MARINHO,,3520-224,SENHORIM,-7.78413774244921,40.537516517992046
pt.ine.add.PTCONT.5449625,R SOITO,3,3520-223,SENHORIM,-7.816673635174368,40.53634945512716
pt.ine.add.PTCONT.5449626,EN 231-1,16,3520-225,VILAR SECO NLS,-7.868873512079839,40.561920666434595
pt.ine.add.PTCONT.5449627,R LUGAR PEDRINHO,5,3520-302,VILAR SECO NLS,-7.864363377554818,40.56181120468922
pt.ine.add.PTCONT.5449726,LG ÁLVARO ALBUQUERQUE,13,3520-225,VILAR SECO NLS,-7.8629307370430555,40.559844706133774
pt.ine.add.PTCONT.5449727,AV VILA NOVA DAS AMOREIRAS,161,3525-502,AGUIEIRA,-7.916525735470843,40.5265117740998
pt.ine.add.PTCONT.5449824,R NOVA,16,3525-642,LAPA DO LOBO,-7.919092297366256,40.47277227465872
pt.ine.add.PTCONT.5449825,SIT MOREIRA,25,3520-227,MOREIRA NLS,-7.915909875593171,40.5527702081236
pt.ine.add.PTCONT.5449925,R DIREITA,50,3525-362,CANAS DE SENHORIM,-7.883371452847705,40.489333652929695
pt.ine.add.PTCONT.5449926,R AMOREIRAS,27,3520-226,MOREIRA NLS,-7.918417703050909,40.5475337932492
pt.ine.add.PTCONT.5449927,R EMIGRANTES,,3520-228,MOREIRA NLS,-7.940920883251184,40.53845100350805
pt.ine.add.PTCONT.5450006,R LAGE,13,3525-356,CANAS DE SENHORIM,-7.885466839926497,40.48724890343385
pt.ine.add.PTCONT.5450007,R 1 DE MAIO,8,3525-009,CANAS DE SENHORIM,-7.898306467506048,40.50892470553662
pt.ine.add.PTCONT.5450008,R PACO,150,3525-060,CANAS DE SENHORIM,-7.900637531576146,40.50696624231887
pt.ine.add.PTCONT.5450009,R FREIXIEIRO,,3525-308,CANAS DE SENHORIM,-7.896603667853951,40.51336989537874
pt.ine.add.PTCONT.5450010,R FREIXIEIRO,,3525-308,CANAS DE SENHORIM,-7.896603667853951,40.51336989537874
pt.ine.add.PTCONT.5450011,R FREIXIEIRO,,3525-308,CANAS DE SENHORIM,-7.896603667853951,40.51336989537874
pt.ine.add.PTCONT.5450012,R FREIXIEIRO,,3525-308,CANAS DE SENHORIM,-7.896603667853951,40.51336989537874
pt.ine.add.PTCONT.5450013,R FREIXIEIRO,,3525-308,CANAS DE SENHORIM,-7.896603667853951,40.51336989537874
pt.ine.add.PTCONT.5450127,R CENTRAL,29,3525-304,CANAS DE SENHORIM,-7.896928041451906,40.51508158177433
pt.ine.add.PTCONT.5450128,R CENTRAL,14,3525-304,CANAS DE SENHORIM,-7.897484666056567,40.514497368144355
pt.ine.add.PTCONT.5450129,R ROSSIO,9,3525-064,CANAS DE SENHORIM,-7.90154329097782,40.50088941532316
pt.ine.add.PTCONT.5450130,R ROSSIO,9,3525-064,CANAS DE SENHORIM,-7.90154329097782,40.50088941532316
pt.ine.add.PTCONT.5450282,R TAPADA,56,3525-032,CANAS DE SENHORIM,-7.8972767210620205,40.49975511187714
pt.ine.add.PTCONT.5450283,AV PEDRAS ALTAS,11,3525-040,CANAS DE SENHORIM,-7.89636420023559,40.49758294275124
pt.ine.add.PTCONT.5450284,R ROSSIO BAIXO,19,3525-065,CANAS DE SENHORIM,-7.90127515315666,40.4999613209092
pt.ine.add.PTCONT.5450285,R SOITINHO,52,3525-436,CARVALHAL REDONDO,-7.903875191099187,40.54014849406071
pt.ine.add.PTCONT.5450386,R FUTURO,10,3525-432,CARVALHAL REDONDO,-7.903943447016144,40.53743802015123
pt.ine.add.PTCONT.5450387,R FUTURO,36,3525-432,CARVALHAL REDONDO,-7.907147650800898,40.53932644833211
pt.ine.add.PTCONT.5450388,BR FLORES,,3525-455,CARVALHAL REDONDO,-7.891137611151679,40.540455718960416
pt.ine.add.PTCONT.5450501,R SERRA,10,3525-420,CARVALHAL REDONDO,-7.901787081171695,40.53980212940274
pt.ine.add.PTCONT.5450502,R DIREITA,,3525-428,CARVALHAL REDONDO,-7.902017759122731,40.53793848432618
pt.ine.add.PTCONT.5450503,R CORREDOURA,5,3525-413,CARVALHAL REDONDO,-7.901569792379912,40.53434445270148
pt.ine.add.PTCONT.5450504,R FLORES,,3520-011,NELAS,-7.860972982291503,40.54178443834133
pt.ine.add.PTCONT.5450505,AV PROF DR FORTUNATO ALMEIDA,,3520-056,NELAS,-7.8535099566960245,40.53960533867683
pt.ine.add.PTCONT.5450622,AV PROF DR FORTUNATO ALMEIDA,,3520-056,NELAS,-7.8535099566960245,40.53960533867683
pt.ine.add.PTCONT.5450623,AV PROF DR FORTUNATO ALMEIDA,,3520-056,NELAS,-7.8535099566960245,40.53960533867683
pt.ine.add.PTCONT.5450624,AV PROF DR FORTUNATO ALMEIDA,,3520-056,NELAS,-7.8535099566960245,40.53960533867683
pt.ine.add.PTCONT.5450625,AV PROF DR FORTUNATO ALMEIDA,,3520-056,NELAS,-7.8535099566960245,40.53960533867683
pt.ine.add.PTCONT.5450626,AV PROF DR FORTUNATO ALMEIDA,,3520-056,NELAS,-7.8535099566960245,40.53960533867683
pt.ine.add.PTCONT.5450696,AV ANTÓNIO MARQUES,,3525-201,CANAS DE SENHORIM,-7.866409754484954,40.48645904934565
pt.ine.add.PTCONT.5450709,R DR TIAGO MARQUES,16,3525-074,CANAS DE SENHORIM,-7.905307904394475,40.50049165390727
pt.ine.add.PTCONT.5450719,R CMDT ARMANDO MONTEIRO RIBEIRO PEREIRA,,3520-010,NELAS,-7.855139644154609,40.533710770113395
pt.ine.add.PTCONT.5450735,AV PROF DR FORTUNATO ALMEIDA,,3520-056,NELAS,-7.8535099566960245,40.53960533867683
pt.ine.add.PTCONT.5450737,R COMÉRCIO,,3525-052,CANAS DE SENHORIM,-7.864972915412797,40.48889619424308
pt.ine.add.PTCONT.5450755,R CARVALHO,3,3520-211,SENHORIM,-7.825891584387264,40.546775491586665
pt.ine.add.PTCONT.5450780,LG ORIENTE,55,3525-439,CARVALHAL REDONDO,-7.904631006750145,40.540041926952185
pt.ine.add.PTCONT.5450786,R ENG ALBERTO CARDOSO VILHENA,3,3520-090,NELAS,-7.85710916877584,40.52545758008304
pt.ine.add.PTCONT.5450789,BC JUVENTUDE,3,3520-227,MOREIRA NLS,-7.91892502454685,40.55133498464736
pt.ine.add.PTCONT.5450797,AV PROF DR FORTUNATO ALMEIDA,,3520-056,NELAS,-7.8535099566960245,40.53960533867683
pt.ine.add.PTCONT.5450865,R CHÃO MONTEIRO,73,3525-364,CANAS DE SENHORIM,-7.882550226706257,40.48814315973799
pt.ine.add.PTCONT.5450871,AV PROF DR FORTUNATO ALMEIDA,,3520-056,NELAS,-7.8535099566960245,40.53960533867683
pt.ine.add.PTCONT.5450872,AV PROF DR FORTUNATO ALMEIDA,,3520-056,NELAS,-7.8535099566960245,40.53960533867683
pt.ine.add.PTCONT.5450873,AV PROF DR FORTUNATO ALMEIDA,,3520-056,NELAS,-7.8535099566960245,40.53960533867683
pt.ine.add.PTCONT.5450874,AV PROF DR FORTUNATO ALMEIDA,,3520-056,NELAS,-7.8535099566960245,40.53960533867683
pt.ine.add.PTCONT.5450882,LG SANTO ANTÓNIO,1,3520-062,NELAS,-7.852957429794254,40.53056263222761
pt.ine.add.PTCONT.5450883,LG SANTO ANTÓNIO,1,3520-062,NELAS,-7.852957429794254,40.53056263222761
pt.ine.add.PTCONT.5450884,LG SANTO ANTÓNIO,1,3520-062,NELAS,-7.852957429794254,40.53056263222761
pt.ine.add.PTCONT.5450885,LG SANTO ANTÓNIO,1,3520-062,NELAS,-7.852957429794254,40.53056263222761
pt.ine.add.PTCONT.5450886,LG SANTO ANTÓNIO,1,3520-062,NELAS,-7.852957429794254,40.53056263222761
pt.ine.add.PTCONT.5450904,R FONTE,19,3525-259,CANAS DE SENHORIM,-7.928934016489054,40.5054707707545
pt.ine.add.PTCONT.5450905,R LAMEIRA,59,3525-543,CANAS DE SENHORIM,-7.934015574453687,40.50260691307595
pt.ine.add.PTCONT.5450906,R ESCOLA,9,3525-258,CANAS DE SENHORIM,-7.930771202935837,40.50263729994859
pt.ine.add.PTCONT.5450907,R ESCOLA,9,3525-258,CANAS DE SENHORIM,-7.930771202935837,40.50263729994859
pt.ine.add.PTCONT.5451286,AV CIMO DO POVO,31,3525-429,CARVALHAL REDONDO,-7.900109410062657,40.54024002036666
pt.ine.add.PTCONT.5451287,R CRUZEIRO,,3525-430,CARVALHAL REDONDO,-7.901363974533317,40.53926996620021
pt.ine.add.PTCONT.5451288,R CORREDOURA,1,3525-413,CARVALHAL REDONDO,-7.901770564923331,40.53430883342947
pt.ine.add.PTCONT.5451289,R CORREDOURA,9,3525-413,CARVALHAL REDONDO,-7.902125732943966,40.53399435658953
pt.ine.add.PTCONT.5451315,R CP,,3520-021,NELAS,-7.85446151289766,40.52075943032882
pt.ine.add.PTCONT.5451316,R CARVALHINHO,19,3520-124,SANTAR NLS,-7.898444517546305,40.57082772257576
pt.ine.add.PTCONT.5451332,AV DR ARNALDO SANTOS ALMEIDA,13,3520-114,SANTAR NLS,-7.881058673485979,40.57463635813287
pt.ine.add.PTCONT.5451333,R CARREIRA,43,3520-122,SANTAR NLS,-7.892798304315249,40.57120334323795
pt.ine.add.PTCONT.5451334,R DIREITA,185,3525-428,CARVALHAL REDONDO,-7.903095040779272,40.53356403318678
pt.ine.add.PTCONT.5451335,R DR AVELINO PAIS BORGES,10,3520-011,NELAS,-7.859679924176072,40.5433573193645
pt.ine.add.PTCONT.5451350,TV EMIGRANTE,2,3520-011,NELAS,-7.861150412404956,40.54461253130174
pt.ine.add.PTCONT.5451356,R DR ARNALDO SANTOS ALMEIDA,15,3520-052,NELAS,-7.844057140497151,40.5363761762335
pt.ine.add.PTCONT.5451370,R LADEIRA,6,3525-355,CANAS DE SENHORIM,-7.8881541986032655,40.48450797489421
pt.ine.add.PTCONT.5451381,R PATEO,18,3525-365,CANAS DE SENHORIM,-7.887454241894782,40.485632167889975
pt.ine.add.PTCONT.5451382,BR ENGENHEIROS,,3525-301,CANAS DE SENHORIM,-7.891961728220563,40.51142414391728
pt.ine.add.PTCONT.5451392,R PACO,229,3525-060,CANAS DE SENHORIM,-7.90067493076105,40.50980301655104
pt.ine.add.PTCONT.5451393,R LAGE DE ABRIL,,3525-026,CANAS DE SENHORIM,-7.899664449695678,40.49838213219772
pt.ine.add.PTCONT.5451405,R LINHA,22,3525-029,CANAS DE SENHORIM,-7.897470731647873,40.49825160448124
pt.ine.add.PTCONT.5451406,TV CARVALHEDO,17,3525-446,CARVALHAL REDONDO,-7.905304467643007,40.53985414445209
pt.ine.add.PTCONT.5451413,R ADRIANO SANTOS,39,3525-011,CANAS DE SENHORIM,-7.902042936104447,40.499674685513696
pt.ine.add.PTCONT.5451414,R SOITINHO,,3525-436,CARVALHAL REDONDO,-7.904060027019936,40.54032419557142
pt.ine.add.PTCONT.5451415,R SOBREIRO,10,3525-435,CARVALHAL REDONDO,-7.902824559272697,40.536724373034566
pt.ine.add.PTCONT.5451423,URB POISADOS,,3525-017,CANAS DE SENHORIM,-7.908069528637285,40.496624738233606
pt.ine.add.PTCONT.5451424,R FONTE DA CRUZ,,3525-022,CANAS DE SENHORIM,-7.908697700558237,40.49573442375799
pt.ine.add.PTCONT.5451425,R FUTURO,14,3525-432,CARVALHAL REDONDO,-7.9072646297623725,40.53964186414104
pt.ine.add.PTCONT.5451426,R DR JOSE GUILHERME FAURE,,3520-058,NELAS,-7.849833395127719,40.53251818245721
pt.ine.add.PTCONT.5451427,R DR JOSE GUILHERME FAURE,,3520-058,NELAS,-7.849833395127719,40.53251818245721
pt.ine.add.PTCONT.5451428,R DR JOSE GUILHERME FAURE,,3520-058,NELAS,-7.849833395127719,40.53251818245721
pt.ine.add.PTCONT.5451429,R DR JOSE GUILHERME FAURE,,3520-058,NELAS,-7.849833395127719,40.53251818245721
pt.ine.add.PTCONT.5451430,R DR JOSE GUILHERME FAURE,,3520-058,NELAS,-7.849833395127719,40.53251818245721
pt.ine.add.PTCONT.5451431,R DR JOSE GUILHERME FAURE,,3520-058,NELAS,-7.849833395127719,40.53251818245721
pt.ine.add.PTCONT.5451441,R EIRAS,30,3525-423,CARVALHAL REDONDO,-7.903057021031082,40.537778461913106
pt.ine.add.PTCONT.5451442,R FONTE DO CASTANHEIRO,,3520-054,NELAS,-7.85384378762217,40.530276606478175
pt.ine.add.PTCONT.5451443,R DR EURICO AMARAL POSTO GALP,,3520-050,NELAS,-7.85793615691535,40.528125139025924
pt.ine.add.PTCONT.5451444,R DR EURICO AMARAL,2,3520-050,NELAS,-7.85793615691535,40.528125139025924
pt.ine.add.PTCONT.5451445,R DR EURICO AMARAL,3,3520-050,NELAS,-7.85793615691535,40.528125139025924
pt.ine.add.PTCONT.5451446,R DR EURICO AMARAL POSTO GALP,,3520-050,NELAS,-7.85793615691535,40.528125139025924
pt.ine.add.PTCONT.5451447,R DR EURICO AMARAL POSTO GALP,,3520-050,NELAS,-7.85793615691535,40.528125139025924
pt.ine.add.PTCONT.5451461,R BARQUEIRA,,3520-046,NELAS,-7.8508912598086,40.530746716730945
pt.ine.add.PTCONT.5451462,R FONTE DO OUTEIRO,2B,3520-021,NELAS,-7.854027510710023,40.51443661034729
