id,street,house,postcode,city,lon,lat
pt.ine.add.PTCONT.4663844,R S BRAS,,2950-293,PALMELA,-8.92037236251819,38.5691469171643
pt.ine.add.PTCONT.4663845,R S BRAS,,2950-293,PALMELA,-8.92037236251819,38.5691469171643
pt.ine.add.PTCONT.4664094,R ARCOS,,2950-681,QUINTA DO ANJO,-8.979153991830112,38.57197975171046
pt.ine.add.PTCONT.4681974,,,2950-561,QUINTA DO ANJO,-8.924165932020454,38.568742995322076
pt.ine.add.PTCONT.4682072,R CHORA,,2955-013,PINHAL NOVO,-8.933312217641609,38.61952301139475
pt.ine.add.PTCONT.4663075,R 25 DE ABRIL,103A,2965-503,ÁGUAS DE MOURA,-8.772807632490334,38.58028880641989
pt.ine.add.PTCONT.4663076,AV LIBERDADE,,2965-575,ÁGUAS DE MOURA,-8.694397148679625,38.58405118896823
pt.ine.add.PTCONT.4663077,R MONTE DAS FERRARIAS,,2965-521,ÁGUAS DE MOURA,-8.655842255146267,38.599291611869376
pt.ine.add.PTCONT.4663078,R 25 DE ABRIL,76 B,2965-503,ÁGUAS DE MOURA,-8.771684189285791,38.57653848900505
pt.ine.add.PTCONT.4663079,BR PALMELAO,,2965-503,ÁGUAS DE MOURA,-8.770965347698416,38.57051586501762
pt.ine.add.PTCONT.4663080,R 5 DE OUTUBRO,6C,2965-504,ÁGUAS DE MOURA,-8.775475865060555,38.568049951896356
pt.ine.add.PTCONT.4663081,BR 12 DE ABRIL,,2955-008,PINHAL NOVO,-8.931618928319457,38.632497287001335
pt.ine.add.PTCONT.4663082,EM 533-1,,2955-231,PINHAL NOVO,-8.941453162237082,38.63486194429381
pt.ine.add.PTCONT.4663083,R ALGARVE,,2955-013,PINHAL NOVO,-8.94602787615757,38.63484570831474
pt.ine.add.PTCONT.4663084,R ANTERO DE QUENTAL,,2955-130,PINHAL NOVO,-8.913898980003829,38.62513112453962
pt.ine.add.PTCONT.4663085,R ANTERO DE QUENTAL,,2955-130,PINHAL NOVO,-8.913898980003829,38.62513112453962
pt.ine.add.PTCONT.4663086,R ANTERO DE QUENTAL,,2955-130,PINHAL NOVO,-8.913898980003829,38.62513112453962
pt.ine.add.PTCONT.4663087,AV VISC TOJAL,350,2950-603,QUINTA DO ANJO,-8.960637123184624,38.55826650761012
pt.ine.add.PTCONT.4682073,R SOBRAL,,2955-269,PINHAL NOVO,-8.933477331745152,38.61888230374474
pt.ine.add.PTCONT.4663193,,,2950-122,PALMELA,-8.849732751573631,38.611506984534564
pt.ine.add.PTCONT.4663194,R FRANCISCO ASSUNÇÃO PINHO,,2950-128,PALMELA,-8.822060166711282,38.60037688427921
pt.ine.add.PTCONT.4663195,R FANDANGUINHO,,2950-491,PALMELA,-8.809578704496715,38.59267559294281
pt.ine.add.PTCONT.4663196,R JOSE CARDOSO PIRES,12,2955-092,PINHAL NOVO,-8.913470819447403,38.64071805292872
pt.ine.add.PTCONT.4663197,R ALMADA NEGREIROS,,2955-093,PINHAL NOVO,-8.911357403067838,38.64071411530804
pt.ine.add.PTCONT.4663198,R MONTE NOVO,,2955-036,PINHAL NOVO,-8.914331687279695,38.63855035764157
pt.ine.add.PTCONT.4663199,R JOÃO AUGUSTO BALTAZAR PARREIRA,,2955-197,PINHAL NOVO,-8.915021772755885,38.637581877904125
pt.ine.add.PTCONT.4663200,BR 12 ABRIL,3,2955-008,PINHAL NOVO,-8.92226262687346,38.63176805685477
pt.ine.add.PTCONT.4663201,R ANTERO DE QUENTAL,,2955-130,PINHAL NOVO,-8.913898980003829,38.62513112453962
pt.ine.add.PTCONT.4663202,R ANTERO DE QUENTAL,,2955-130,PINHAL NOVO,-8.913898980003829,38.62513112453962
pt.ine.add.PTCONT.4663203,R ANTERO DE QUENTAL,,2955-130,PINHAL NOVO,-8.913898980003829,38.62513112453962
pt.ine.add.PTCONT.4663204,R ANTERO DE QUENTAL,,2955-130,PINHAL NOVO,-8.913898980003829,38.62513112453962
pt.ine.add.PTCONT.4663205,R SALGUEIRO MAIA,29,2955-028,PINHAL NOVO,-8.912560268054767,38.623455527095885
pt.ine.add.PTCONT.4663206,R SALGUEIRO MAIA,29,2955-028,PINHAL NOVO,-8.912560268054767,38.623455527095885
pt.ine.add.PTCONT.4663207,R SALGUEIRO MAIA,29,2955-028,PINHAL NOVO,-8.912560268054767,38.623455527095885
pt.ine.add.PTCONT.4663208,R SALGUEIRO MAIA,29,2955-028,PINHAL NOVO,-8.912560268054767,38.623455527095885
pt.ine.add.PTCONT.4663209,R CAMILO CASTELO BRANCO,12,2950-614,QUINTA DO ANJO,-8.976117716683989,38.549778400946266
pt.ine.add.PTCONT.4663210,R AUGUSTO JULIO COSTA,48,2950-617,QUINTA DO ANJO,-8.976507773939664,38.554821207013404
pt.ine.add.PTCONT.4663211,,,2965-201,POCEIRÃO,-8.748604281227735,38.71722581872633
pt.ine.add.PTCONT.4663212,R SERAFIM JOSE,,2965-201,POCEIRÃO,-8.747228386220991,38.72305226807691
pt.ine.add.PTCONT.4663297,R PAZ,21,2950-438,PALMELA,-8.891009414928225,38.608436361355864
pt.ine.add.PTCONT.4663298,R ALBERTO VALENTE,N 25,2955-126,PINHAL NOVO,-8.907125214329392,38.634868892911605
pt.ine.add.PTCONT.4663299,R ALBERTO VALENTE,,2955-126,PINHAL NOVO,-8.907125214329392,38.634868892911605
pt.ine.add.PTCONT.4663300,R SALGUEIRO MAIA,29,2955-028,PINHAL NOVO,-8.912560268054767,38.623455527095885
pt.ine.add.PTCONT.4663301,R SALGUEIRO MAIA,29,2955-028,PINHAL NOVO,-8.912560268054767,38.623455527095885
pt.ine.add.PTCONT.4663302,R SALGUEIRO MAIA,29,2955-028,PINHAL NOVO,-8.912560268054767,38.623455527095885
pt.ine.add.PTCONT.4663303,R SALGUEIRO MAIA,29,2955-028,PINHAL NOVO,-8.912560268054767,38.623455527095885
pt.ine.add.PTCONT.4663304,R FRANCISCO CACOETE ROMÃO,,2955-029,PINHAL NOVO,-8.911066421066984,38.62335737162781
pt.ine.add.PTCONT.4663305,R FRANCISCO CACOETE ROMÃO,,2955-029,PINHAL NOVO,-8.911066421066984,38.62335737162781
pt.ine.add.PTCONT.4663306,R FRANCISCO CACOETE ROMÃO,,2955-029,PINHAL NOVO,-8.911066421066984,38.62335737162781
pt.ine.add.PTCONT.4663307,R FRANCISCO CACOETE ROMÃO,,2955-029,PINHAL NOVO,-8.911066421066984,38.62335737162781
pt.ine.add.PTCONT.4663308,R FRANCISCO CACOETE ROMÃO,,2955-029,PINHAL NOVO,-8.911066421066984,38.62335737162781
pt.ine.add.PTCONT.4663309,R FRANCISCO CACOETE ROMÃO,,2955-029,PINHAL NOVO,-8.911066421066984,38.62335737162781
pt.ine.add.PTCONT.4663310,R FRANCISCO CACOETE ROMÃO,,2955-029,PINHAL NOVO,-8.911066421066984,38.62335737162781
pt.ine.add.PTCONT.4663311,R 5 OUTUBRO,64,2955-108,PINHAL NOVO,-8.912020006905792,38.62234211442669
pt.ine.add.PTCONT.4663312,ACEIRO DOS CARAMELOS,,2965-225,POCEIRÃO,-8.781422462697524,38.6665940697351
pt.ine.add.PTCONT.4663313,R JOAQUIM ADRIANO,,2965-241,POCEIRÃO,-8.780141197236038,38.66331238598531
pt.ine.add.PTCONT.4663314,R PERALTAS,,2965-241,POCEIRÃO,-8.749949937206416,38.64765796022225
pt.ine.add.PTCONT.4663315,R FARIAS,CCI 312,2965-241,POCEIRÃO,-8.776783486967448,38.654089351729716
pt.ine.add.PTCONT.4663316,R FARIAS,CCI 312,2965-241,POCEIRÃO,-8.776783486967448,38.654089351729716
pt.ine.add.PTCONT.4663317,R JOÃO DA COSTA,,2965-211,POCEIRÃO,-8.73911729489616,38.65305643020265
pt.ine.add.PTCONT.4663318,R FEIJOEIRA,,2965-211,POCEIRÃO,-8.74252688970038,38.6473635632862
pt.ine.add.PTCONT.4663418,PCT S PEDRO,,2950-340,PALMELA,-8.897400030052223,38.60047660080988
pt.ine.add.PTCONT.4663419,R ALBERTO VALENTE,25,2955-126,PINHAL NOVO,-8.907125214329392,38.634868892911605
pt.ine.add.PTCONT.4663420,R ALBERTO VALENTE,,2955-126,PINHAL NOVO,-8.907125214329392,38.634868892911605
pt.ine.add.PTCONT.4663421,R ALBERTO VALENTE,,2955-126,PINHAL NOVO,-8.907125214329392,38.634868892911605
pt.ine.add.PTCONT.4663422,R ALBERTO VALENTE,25,2955-126,PINHAL NOVO,-8.907125214329392,38.634868892911605
pt.ine.add.PTCONT.4663423,R ALBERTO VALENTE,,2955-126,PINHAL NOVO,-8.907125214329392,38.634868892911605
pt.ine.add.PTCONT.4663424,R ALBERTO VALENTE,25,2955-126,PINHAL NOVO,-8.907125214329392,38.634868892911605
pt.ine.add.PTCONT.4663425,R ALBERTO VALENTE,,2955-126,PINHAL NOVO,-8.907125214329392,38.634868892911605
pt.ine.add.PTCONT.4663426,R ALBERTO VALENTE,,2955-126,PINHAL NOVO,-8.907125214329392,38.634868892911605
pt.ine.add.PTCONT.4663427,R ALBERTO VALENTE,25,2955-126,PINHAL NOVO,-8.907125214329392,38.634868892911605
pt.ine.add.PTCONT.4663428,R ALBERTO VALENTE,,2955-126,PINHAL NOVO,-8.907125214329392,38.634868892911605
pt.ine.add.PTCONT.4663429,R ALBERTO VALENTE,25,2955-126,PINHAL NOVO,-8.907125214329392,38.634868892911605
pt.ine.add.PTCONT.4663430,R ALBERTO VALENTE,25,2955-126,PINHAL NOVO,-8.907125214329392,38.634868892911605
pt.ine.add.PTCONT.4663431,R ALBERTO VALENTE,,2955-126,PINHAL NOVO,-8.907125214329392,38.634868892911605
pt.ine.add.PTCONT.4663432,R TOCHA,45,2955-049,PINHAL NOVO,-8.908095637316684,38.621530415779446
pt.ine.add.PTCONT.4663433,EN 252,,2955-339,PINHAL NOVO,-8.914614228679142,38.61802792645268
pt.ine.add.PTCONT.4663434,R TRABALHADOR RURAL,CCI 4314,2955-278,PINHAL NOVO,-8.882332282918629,38.61637439801585
pt.ine.add.PTCONT.4663435,R TRABALHADOR RURAL,,2955-278,PINHAL NOVO,-8.881545080756458,38.61796487437592
pt.ine.add.PTCONT.4663436,R MACA RISCADINHA,,2955-344,PINHAL NOVO,-8.877382777599527,38.62073891685995
pt.ine.add.PTCONT.4663437,R ESCOLA PALHOTA CCI,CCI 4126,2955-299,PINHAL NOVO,-8.877241931224042,38.617109519324806
pt.ine.add.PTCONT.4663438,R MATIAS PASSAREIRO,,2965-243,POCEIRÃO,-8.736072384358907,38.64612685536775
pt.ine.add.PTCONT.4663439,R MACHUQUEIRO,1920,2965-239,POCEIRÃO,-8.726871158749551,38.6558216849344
pt.ine.add.PTCONT.4663440,R SANTOS JORGE,,2965-261,POCEIRÃO,-8.764134190888594,38.619909125389796
pt.ine.add.PTCONT.4663441,R CONSTANTINO LOUREIRO,,2965-257,POCEIRÃO,-8.77743424269107,38.616431535947136
pt.ine.add.PTCONT.4663442,R CONSTANTINO LOUREIRO,,2965-257,POCEIRÃO,-8.77743424269107,38.616431535947136
pt.ine.add.PTCONT.4663443,ESTR LAGAMECAS,,2965-261,POCEIRÃO,-8.764408342500209,38.61319652015911
pt.ine.add.PTCONT.4663528,R ROSMARINHO,12,2950-438,PALMELA,-8.892565038233823,38.604624821739094
pt.ine.add.PTCONT.4663529,R PINHEIROS,,2950-064,PALMELA,-8.9235801656753,38.593816793730895
pt.ine.add.PTCONT.4663530,R PINHEIROS,,2950-555,QUINTA DO ANJO,-8.982017237252565,38.626089000234465
pt.ine.add.PTCONT.4663531,R CONSTITUICAO,18,2950-596,QUINTA DO ANJO,-8.942848005185505,38.602086594750446
pt.ine.add.PTCONT.4663532,ESTR LAGAMECAS,,2965-261,POCEIRÃO,-8.785952155216872,38.604844786456454
pt.ine.add.PTCONT.4663628,R PAZ,26,2950-436,PALMELA,-8.921255936000852,38.58910316837733
pt.ine.add.PTCONT.4663629,AZ CARVALHOS,,2950-422,PALMELA,-8.90628093348714,38.57976245330483
pt.ine.add.PTCONT.4663630,R LARANJEIRAS,4,2950-421,PALMELA,-8.905264753909481,38.58131857512603
pt.ine.add.PTCONT.4663631,R POÇOS,12,2950-423,PALMELA,-8.907134226023652,38.57907218878877
pt.ine.add.PTCONT.4663632,R 9,211,2950-678,QUINTA DO ANJO,-8.988362806997342,38.59764916538287
pt.ine.add.PTCONT.4663633,R QUINTA,32,2950-522,QUINTA DO ANJO,-9.008055518899674,38.60197162157489
pt.ine.add.PTCONT.4663634,R JOSÉ DIAS COELHO,7,2950-503,QUINTA DO ANJO,-9.002959628830721,38.60205465305195
pt.ine.add.PTCONT.4663736,AV CAMINHOS DE FERRO,,2950-038,PALMELA,-8.881200099194237,38.57699777377444
pt.ine.add.PTCONT.4663737,SIT PADEIRAS,16,2950-035,PALMELA,-8.841663286649055,38.55562395322167
pt.ine.add.PTCONT.4663738,R FERREIRA DE CASTRO,,2955-185,PINHAL NOVO,-8.912232092608662,38.635573660924514
pt.ine.add.PTCONT.4663739,R FERREIRA DE CASTRO,,2955-185,PINHAL NOVO,-8.912232092608662,38.635573660924514
pt.ine.add.PTCONT.4663740,R FERREIRA DE CASTRO,,2955-185,PINHAL NOVO,-8.912232092608662,38.635573660924514
pt.ine.add.PTCONT.4663741,R FERREIRA DE CASTRO,,2955-185,PINHAL NOVO,-8.912232092608662,38.635573660924514
pt.ine.add.PTCONT.4663742,R FERREIRA DE CASTRO,,2955-185,PINHAL NOVO,-8.912232092608662,38.635573660924514
pt.ine.add.PTCONT.4663743,R FERREIRA DE CASTRO,,2955-185,PINHAL NOVO,-8.912232092608662,38.635573660924514
pt.ine.add.PTCONT.4663744,R FERREIRA DE CASTRO,,2955-185,PINHAL NOVO,-8.912232092608662,38.635573660924514
pt.ine.add.PTCONT.4663745,R PAZ,N 18,2950-553,QUINTA DO ANJO,-9.007251498127527,38.59909502710653
pt.ine.add.PTCONT.4663746,R PEDRO SOARES,,2950-553,QUINTA DO ANJO,-9.008995806454886,38.598109105419404
pt.ine.add.PTCONT.4663747,R VASCO DA GAMA,,2950-553,QUINTA DO ANJO,-8.999999106550726,38.59547365431622
pt.ine.add.PTCONT.4663843,R MAESTRO FERRER TRINDADE,153,2950-329,PALMELA,-8.883404557917892,38.57048872364563
pt.ine.add.PTCONT.4663846,R S BRAS,7 8303,2950-293,PALMELA,-8.92037236251819,38.5691469171643
pt.ine.add.PTCONT.4663847,ROTEIRO DOS MOINHOS,,2950-131,PALMELA,-8.914577060609497,38.56589774698397
pt.ine.add.PTCONT.4663848,R BEIRA ALTA,154,2950-554,QUINTA DO ANJO,-8.943063758102294,38.598349803933374
pt.ine.add.PTCONT.4663849,R LARANJEIRAS,29,2950-539,QUINTA DO ANJO,-9.014541305410315,38.590698808069966
pt.ine.add.PTCONT.4663980,R FRANCISCO AGOSTINHO,,2950-057,PALMELA,-8.83094819004068,38.56511098035201
pt.ine.add.PTCONT.4663981,BC AMALIA,12,2950-057,PALMELA,-8.834637961527042,38.56934082861886
pt.ine.add.PTCONT.4663982,R MÁRIO DE SA-CARNEIRO,24 10,2950-565,QUINTA DO ANJO,-8.954069622364635,38.57696875956054
pt.ine.add.PTCONT.4663983,R AMADEU DE SOUZA CARDOSO,37 12,2950-799,QUINTA DO ANJO,-8.946924977950767,38.57636105648563
pt.ine.add.PTCONT.4663984,R ROSA RAMALHO,30-22,2950-580,QUINTA DO ANJO,-8.950437226283652,38.578453509776864
pt.ine.add.PTCONT.4663985,R JOÃO ANTÓNIO MOINHO,43,2950-656,QUINTA DO ANJO,-8.968608746432578,38.56009260029681
pt.ine.add.PTCONT.4664088,R ALJUBARROTA,41,2950-029,PALMELA,-8.88679585311323,38.57292993661162
pt.ine.add.PTCONT.4664089,R BOTANICA,,2950-013,PALMELA,-8.885213265867087,38.57268855232497
pt.ine.add.PTCONT.4664090,R ALJUBARROTA,,2950-029,PALMELA,-8.88809691689197,38.572611520570284
pt.ine.add.PTCONT.4664091,R ALJUBARROTA,,2950-029,PALMELA,-8.88711108455484,38.57270795763981
pt.ine.add.PTCONT.4664092,R FEBO MONIZ,RSC,2955-183,PINHAL NOVO,-8.91901423375333,38.63402393964853
pt.ine.add.PTCONT.4664093,R S PEDRO,,2955-327,PINHAL NOVO,-8.895879947636631,38.629294645454095
pt.ine.add.PTCONT.4664095,R ANTÓNIO JOSE MARQUES,,2950-750,QUINTA DO ANJO,-8.935607643278987,38.57200715939798
pt.ine.add.PTCONT.4664096,R 5 DE OUTUBRO,4,2950-728,QUINTA DO ANJO,-8.941956616793096,38.569242976878094
pt.ine.add.PTCONT.4664201,R PARQUE,45,2950-026,PALMELA,-8.886829023043008,38.572070189363096
pt.ine.add.PTCONT.4664202,QTA OUTEIRO,,2950-307,PALMELA,-8.899712553544093,38.57505832511458
pt.ine.add.PTCONT.4664203,R PREVIDENCIA,4,2950-112,PALMELA,-8.886310434573508,38.56965931903223
pt.ine.add.PTCONT.4664204,R MADAME BERTRAND SANGES,12,2950-290,PALMELA,-8.912829816104262,38.56984599655609
pt.ine.add.PTCONT.4664205,R HELENA CARDOSO,22,2950-131,PALMELA,-8.908685614021888,38.56966634009664
pt.ine.add.PTCONT.4664206,AV JAVEA,31,2950-580,QUINTA DO ANJO,-8.95271338559925,38.57476224711723
pt.ine.add.PTCONT.4664207,AV JAVEA,42 04,2950-580,QUINTA DO ANJO,-8.951052134944943,38.57297222718922
pt.ine.add.PTCONT.4664208,AV JAVEA,40 08,2950-580,QUINTA DO ANJO,-8.947821283980435,38.57037337126505
pt.ine.add.PTCONT.4664309,R GEN AMILCAR MOTA,15,2950-212,PALMELA,-8.901994342738599,38.570584283915586
pt.ine.add.PTCONT.4664310,R AUGUSTO CARDOSO,62A,2950-214,PALMELA,-8.90236558070554,38.56988821067025
pt.ine.add.PTCONT.4664311,R GEN AMILCAR MOTA,28,2950-212,PALMELA,-8.900764130571694,38.56927715616584
pt.ine.add.PTCONT.4664312,R MANUEL JOÃO DE LIMA SIMÕES,,2950-743,QUINTA DO ANJO,-8.933553680546993,38.564769604957796
pt.ine.add.PTCONT.4664313,ESTR QUINTA DA VÁRZEA,,2950-740,QUINTA DO ANJO,-8.930980666467942,38.572614807245316
pt.ine.add.PTCONT.4664314,R JOÃO DE DEUS,58,2950-731,QUINTA DO ANJO,-8.941566286119532,38.56512891704585
pt.ine.add.PTCONT.4664441,R S FRANCISCO XAVIER,53,2955-166,PINHAL NOVO,-8.918683722519393,38.63215246812427
pt.ine.add.PTCONT.4664442,R S FRANCISCO XAVIER,53,2955-166,PINHAL NOVO,-8.918683722519393,38.63215246812427
pt.ine.add.PTCONT.4664443,R S FRANCISCO XAVIER,53,2955-166,PINHAL NOVO,-8.918683722519393,38.63215246812427
pt.ine.add.PTCONT.4664444,R LUIS DE CAMÕES,30,2955-205,PINHAL NOVO,-8.919204684843901,38.63148236701858
pt.ine.add.PTCONT.4664445,R LUIS DE CAMÕES,30,2955-205,PINHAL NOVO,-8.919204684843901,38.63148236701858
pt.ine.add.PTCONT.4664446,R LUIS DE CAMÕES,30,2955-205,PINHAL NOVO,-8.919204684843901,38.63148236701858
pt.ine.add.PTCONT.4664576,LG REI D AFONSO HENRIQUES,11,2950-230,PALMELA,-8.900364428614902,38.567297964437024
pt.ine.add.PTCONT.4664577,R SABOARIA,37,2950-274,PALMELA,-8.900571330105047,38.56733264102003
pt.ine.add.PTCONT.4664578,AL D NUNO ALVARES PEREIRA,4,2950-265,PALMELA,-8.89875597671946,38.56710130688957
pt.ine.add.PTCONT.4664579,R NENHURES,4,2950-220,PALMELA,-8.89875597671946,38.56710130688957
pt.ine.add.PTCONT.4664580,AL D NUNO ALVARES PEREIRA,4,2950-265,PALMELA,-8.89875597671946,38.56710130688957
pt.ine.add.PTCONT.4664581,R JOAQUIM CARVALHO LUIS,2,2955-200,PINHAL NOVO,-8.912531597767279,38.62929299566633
pt.ine.add.PTCONT.4664582,R PEDRO ÁLVARES CABRAL,60,2955-213,PINHAL NOVO,-8.90608361548982,38.62984923830276
pt.ine.add.PTCONT.4664583,R DR FERREIRA LOPES,,2955-087,PINHAL NOVO,-8.904986020134196,38.62601901478992
pt.ine.add.PTCONT.4664584,R MARIA LAMAS,3,2950-552,QUINTA DO ANJO,-8.944821345751857,38.567880921609124
pt.ine.add.PTCONT.4664585,URB PALMELA VILLAGE,,2950-580,QUINTA DO ANJO,-8.953411169585957,38.571541429689624
pt.ine.add.PTCONT.4664586,R DIOGO CÃO,,2950-754,QUINTA DO ANJO,-8.95016474043168,38.566555570208216
pt.ine.add.PTCONT.4664587,R DIOGO CÃO,,2950-754,QUINTA DO ANJO,-8.95016474043168,38.566555570208216
pt.ine.add.PTCONT.4664588,R DIOGO CÃO,,2950-754,QUINTA DO ANJO,-8.95016474043168,38.566555570208216
pt.ine.add.PTCONT.4664589,R DIOGO CÃO,,2950-754,QUINTA DO ANJO,-8.95016474043168,38.566555570208216
pt.ine.add.PTCONT.4664590,R DIOGO CÃO,,2950-754,QUINTA DO ANJO,-8.95016474043168,38.566555570208216
pt.ine.add.PTCONT.4664591,R DIOGO CÃO,,2950-754,QUINTA DO ANJO,-8.95016474043168,38.566555570208216
pt.ine.add.PTCONT.4664687,QTA ASSEADAS,,2950-019,PALMELA,-8.889241385095723,38.56246985772844
pt.ine.add.PTCONT.4664688,R PINHAL DA SALGUEIRINHA,,2955-075,PINHAL NOVO,-8.895883052679645,38.65017547518903
pt.ine.add.PTCONT.4664689,R LAGOA DA PALHA,53,2955-047,PINHAL NOVO,-8.905544735774651,38.633140768455206
pt.ine.add.PTCONT.4664690,R D FRANCISCO DE ALMEIDA,18,2955-187,PINHAL NOVO,-8.91609785633972,38.62775581560349
pt.ine.add.PTCONT.4664691,R AGRO PECUARIA,,2955-223,PINHAL NOVO,-8.942078677063252,38.61898529695632
pt.ine.add.PTCONT.4664692,R SOSSEGO CCI,CCI11906,2955-225,PINHAL NOVO,-8.93163880716086,38.61668786934906
pt.ine.add.PTCONT.4664693,CM 1029,,2955-258,PINHAL NOVO,-8.924272174819755,38.60875668272281
pt.ine.add.PTCONT.4664694,R CHORA,,2955-064,PINHAL NOVO,-8.942819912225703,38.61546699374516
pt.ine.add.PTCONT.4664695,AV DESCOBRIMENTOS,,2950-751,QUINTA DO ANJO,-8.951718320111288,38.56595017327108
pt.ine.add.PTCONT.4664696,AV DESCOBRIMENTOS,,2950-751,QUINTA DO ANJO,-8.951718320111288,38.56595017327108
pt.ine.add.PTCONT.4664697,AV DESCOBRIMENTOS,,2950-751,QUINTA DO ANJO,-8.951718320111288,38.56595017327108
pt.ine.add.PTCONT.4664788,R JERONIMO TIAGO DE ALMEIDA,,2965-210,POCEIRÃO,-8.70281299601087,38.61787261331962
pt.ine.add.PTCONT.4664789,R 1 DE MAIO,,2965-588,ÁGUAS DE MOURA,-8.695790571188777,38.60377263824032
pt.ine.add.PTCONT.4664790,R HERMENEGILDO CAPELO,34,2965-571,ÁGUAS DE MOURA,-8.691877370262574,38.584711843379615
pt.ine.add.PTCONT.4664791,ACEIRO FRANCISCO SILVESTRE,,2955-008,PINHAL NOVO,-8.923701244114381,38.646684798283474
pt.ine.add.PTCONT.4664792,R FLORES,,2955-263,PINHAL NOVO,-8.949490977397893,38.64991271826067
pt.ine.add.PTCONT.4664793,R TI CHICO ALRENDA,,2955-305,PINHAL NOVO,-8.875899050414876,38.633855218448474
pt.ine.add.PTCONT.4664794,R BARTOLOMEU DIAS,14,2955-151,PINHAL NOVO,-8.909458468684578,38.626520903873576
pt.ine.add.PTCONT.4665784,AV RAINHA D LEONOR,,2950-208,PALMELA,-8.899920193734806,38.571922100739116
pt.ine.add.PTCONT.4665785,R CHEN,,2950-665,QUINTA DO ANJO,-8.952857996635151,38.61473049575188
pt.ine.add.PTCONT.4665811,R SALGUEIRO MAIA,29,2955-028,PINHAL NOVO,-8.912560268054767,38.623455527095885
pt.ine.add.PTCONT.4665812,R ANTÓNIO HORTA,,2965-201,POCEIRÃO,-8.72785334225729,38.718981694841986
pt.ine.add.PTCONT.4665814,R S BRAS,,2950-293,PALMELA,-8.92037236251819,38.5691469171643
pt.ine.add.PTCONT.4665839,R FELICIDADE MARIA A LAVRADORA,,2965-211,POCEIRÃO,-8.728408120919276,38.65830012955435
pt.ine.add.PTCONT.4665840,R MANUEL SIMÕES,,2950-057,PALMELA,-8.83280178569967,38.570495868795426
pt.ine.add.PTCONT.4665866,R ROSMARINHO,,2950-438,PALMELA,-8.892565038233823,38.604624821739094
pt.ine.add.PTCONT.4665869,AV ANTOINE VELGE,,2950-011,PALMELA,-8.888248219331016,38.57171872897155
pt.ine.add.PTCONT.4665873,AV DESCOBRIMENTOS,,2950-751,QUINTA DO ANJO,-8.951718320111288,38.56595017327108
pt.ine.add.PTCONT.4665893,AV JAVEA,,2950-580,QUINTA DO ANJO,-8.946783101252768,38.57395685210187
pt.ine.add.PTCONT.4665925,TV SERPA PINTO,28,2950-261,PALMELA,-8.901774090624736,38.56929755290433
pt.ine.add.PTCONT.4665933,ACEIRO JOSE CAMARINHO,,2955-232,PINHAL NOVO,-8.924009393556076,38.63291831014303
pt.ine.add.PTCONT.4665935,LUGAR DO CANTADOR SUB-ESTAÇÃO DA REN,,2950-401,PALMELA,-8.859005481516038,38.57007505920621
pt.ine.add.PTCONT.4665960,R 1 DE MAIO,16,2965-302,POCEIRÃO,-8.741508100686174,38.63283864590808
pt.ine.add.PTCONT.4665986,R ANTERO DE QUENTAL,,2955-130,PINHAL NOVO,-8.913898980003829,38.62513112453962
pt.ine.add.PTCONT.4665996,R MÁRIO CESARINY,35,2950-352,PALMELA,-8.914566468335641,38.571275731591264
pt.ine.add.PTCONT.4666011,BC AMALIA,,2950-057,PALMELA,-8.83433841880586,38.56921650775204
pt.ine.add.PTCONT.4666030,R TRANQUILIDADE,4,2950-058,PALMELA,-8.931322977539239,38.59854758259859
pt.ine.add.PTCONT.4666043,R FERREIRA DE CASTRO,,2955-185,PINHAL NOVO,-8.912232092608662,38.635573660924514
pt.ine.add.PTCONT.4666110,BREJOS ASSA CCI,CCI 6113,2950-401,PALMELA,-8.84942921432749,38.571728516589694
pt.ine.add.PTCONT.4666123,R MADAME BERTRAND SANGES,44,2950-290,PALMELA,-8.914640888951816,38.56967177011259
pt.ine.add.PTCONT.4666300,R BARCARROTA,67,2955-091,PINHAL NOVO,-8.908610186350696,38.621328827077086
pt.ine.add.PTCONT.4666518,R ESPERANÇA,2,2950-542,QUINTA DO ANJO,-9.007934803750837,38.591081681497364
pt.ine.add.PTCONT.4666519,R 5 DE OUTUBRO,6,2950-727,QUINTA DO ANJO,-8.941594748965672,38.56766903878444
pt.ine.add.PTCONT.4666520,R 5 DE OUTUBRO,6,2950-727,QUINTA DO ANJO,-8.941594748965672,38.56766903878444
pt.ine.add.PTCONT.4666535,R SESMARIAS DO PATO,2,2965-546,ÁGUAS DE MOURA,-8.694543109312189,38.59100489130301
pt.ine.add.PTCONT.4666557,R BENTO DE JESUS CARAÇA,6,2950-069,PALMELA,-8.898430996225699,38.603514630438234
pt.ine.add.PTCONT.4666563,QTA DA MARQUESA IV,CCI 4004,2950-677,QUINTA DO ANJO,-8.999914377591493,38.57315205198397
pt.ine.add.PTCONT.4666565,R MANUEL XAVIER CORDEIRO VIDA,12,2950-749,QUINTA DO ANJO,-8.951918747715196,38.56339043737577
pt.ine.add.PTCONT.4666581,R ANGOLA,74,2950-115,PALMELA,-8.879860503652115,38.562881399535726
pt.ine.add.PTCONT.4666587,R MADAME BERTRAND SANGES,4,2950-290,PALMELA,-8.912962728196945,38.569403707819454
pt.ine.add.PTCONT.4666589,R SABOARIA,9,2950-274,PALMELA,-8.901085932500932,38.568248106216416
pt.ine.add.PTCONT.4667401,R AGOSTINHO DA SILVA,18,2950-564,QUINTA DO ANJO,-8.945773678948333,38.57399088962359
pt.ine.add.PTCONT.4667402,R AGOSTINHO DA SILVA,18,2950-564,QUINTA DO ANJO,-8.945773678948333,38.57399088962359
pt.ine.add.PTCONT.4667403,AV VISC TOJAL,270,2950-602,QUINTA DO ANJO,-8.967429189098706,38.55630855266955
pt.ine.add.PTCONT.4667404,R AIRENSE,,2950-103,PALMELA,-8.886738347022872,38.56998086143564
pt.ine.add.PTCONT.4667405,ACEIRO FONTE DA PRATA,,2955-008,PINHAL NOVO,-8.92268956575763,38.64870043910382
pt.ine.add.PTCONT.4667406,R PALMEIRAS,CCI 3731,2955-318,PINHAL NOVO,-8.868433753782156,38.62708320166484
pt.ine.add.PTCONT.4667407,R PADRE JOSE ESTEVENS DIAS,55,2955-212,PINHAL NOVO,-8.91672621582967,38.6329943584675
pt.ine.add.PTCONT.4667408,R ESPERANÇA,,2955-011,PINHAL NOVO,-8.945081632377347,38.61443339999878
pt.ine.add.PTCONT.4667409,R CHORA,,2955-064,PINHAL NOVO,-8.944420915820954,38.61591531903058
pt.ine.add.PTCONT.4667410,R CHORA,,2955-064,PINHAL NOVO,-8.944420915820954,38.61591531903058
pt.ine.add.PTCONT.4667411,R CÍRIO DOS OLHOS DE ÁGUA,,2955-353,PINHAL NOVO,-8.94162927635072,38.609637945086185
pt.ine.add.PTCONT.4667412,TV FAZENDAS,CCI 16017,2950-502,QUINTA DO ANJO,-9.0013079556854,38.59931042861488
pt.ine.add.PTCONT.4667413,R SEM SAIDA,,2950-561,QUINTA DO ANJO,-8.92652816826558,38.59364370501835
pt.ine.add.PTCONT.4667414,QTA DA MARQUESA IV,,2950-677,QUINTA DO ANJO,-8.998056015350144,38.57415669961203
pt.ine.add.PTCONT.4667415,R FONTE DO SOL,20,2950-653,QUINTA DO ANJO,-8.964409793335042,38.5557693471595
pt.ine.add.PTCONT.4667416,R FONTE DO SOL,10,2950-653,QUINTA DO ANJO,-8.9648950131357,38.55634644449443
pt.ine.add.PTCONT.4667417,R MANUEL CÂNDIDO DIOGO,,2950-648,QUINTA DO ANJO,-8.965531145780972,38.55645245361419
pt.ine.add.PTCONT.4667457,R JOSE JEREMIAS,,2950-748,QUINTA DO ANJO,-8.950889610223816,38.56065913194528
pt.ine.add.PTCONT.4667418,QTA ESCAMBIRRA CCI,,2950-063,PALMELA,-8.844373282281621,38.56868753169818
pt.ine.add.PTCONT.4667419,R LAGOA DA PALHA,,2955-047,PINHAL NOVO,-8.89463052451652,38.63711284407736
pt.ine.add.PTCONT.4667420,R DIOGO CÃO,5,2955-171,PINHAL NOVO,-8.910408583363072,38.630496194331315
pt.ine.add.PTCONT.4667421,R DIOGO CÃO,5,2955-171,PINHAL NOVO,-8.910408583363072,38.630496194331315
pt.ine.add.PTCONT.4667422,R 5 DE OUTUBRO QTA DOS FOFOS,,2955-108,PINHAL NOVO,-8.900917103913855,38.614893687187134
pt.ine.add.PTCONT.4667423,QTA DA MARQUESA IV,,2950-677,QUINTA DO ANJO,-8.993934114077938,38.572998007223674
pt.ine.add.PTCONT.4667424,R HERMENEGILDO CAPELO,,2955-195,PINHAL NOVO,-8.913310897350822,38.63232354368384
pt.ine.add.PTCONT.4667425,R DIOGO CÃO,5,2955-171,PINHAL NOVO,-8.910408583363072,38.630496194331315
pt.ine.add.PTCONT.4667426,R NORTON MATOS,16,2950-682,QUINTA DO ANJO,-8.944786412048938,38.60351756439815
pt.ine.add.PTCONT.4667427,R FORCA DO POVO,,2950-553,QUINTA DO ANJO,-9.005994287566795,38.598599955851334
pt.ine.add.PTCONT.4667428,BC PALMEIRA,10,2950-714,QUINTA DO ANJO,-8.941875711155294,38.564072817371695
pt.ine.add.PTCONT.4667430,R JOAQUIM FERNANDES FÉLIX JUNIOR,CCI 3715,2950-146,PALMELA,-8.831086623971613,38.57111867096319
pt.ine.add.PTCONT.4667431,R OLHO FERRENHO,,2955-082,PINHAL NOVO,-8.893070912843958,38.64060012568073
pt.ine.add.PTCONT.4667432,R JOSE RICARDO XAVIER,11,2950-742,QUINTA DO ANJO,-8.936718808426193,38.56874756931158
pt.ine.add.PTCONT.4667433,R JOSE MARTINS CALDEIRA,13,2950-629,QUINTA DO ANJO,-8.9708423500531,38.55385195641565
pt.ine.add.PTCONT.4667434,R MANUEL CÂNDIDO DIOGO,34,2950-648,QUINTA DO ANJO,-8.9672326363527,38.55518392535925
pt.ine.add.PTCONT.4667436,R LAGOA DA PALHA,77,2955-047,PINHAL NOVO,-8.903896772380143,38.633683117546376
pt.ine.add.PTCONT.4667456,R 25 DE ABRIL,11,2950-596,QUINTA DO ANJO,-8.942362796937239,38.60237229687882
pt.ine.add.PTCONT.4667437,R MANUEL JULIO CCI,CCI,2955-262,PINHAL NOVO,-8.948746467572178,38.651115987839624
pt.ine.add.PTCONT.4667438,R D FRANCISCO DE ALMEIDA,26,2955-187,PINHAL NOVO,-8.916197761587714,38.6272001544916
pt.ine.add.PTCONT.4667439,R D FRANCISCO DE ALMEIDA,26,2955-187,PINHAL NOVO,-8.916197761587714,38.6272001544916
pt.ine.add.PTCONT.4667440,R D FRANCISCO DE ALMEIDA,26,2955-187,PINHAL NOVO,-8.916197761587714,38.6272001544916
pt.ine.add.PTCONT.4667441,R D FRANCISCO DE ALMEIDA,26,2955-187,PINHAL NOVO,-8.916197761587714,38.6272001544916
pt.ine.add.PTCONT.4667442,R D FRANCISCO DE ALMEIDA,26,2955-187,PINHAL NOVO,-8.916197761587714,38.6272001544916
pt.ine.add.PTCONT.4667443,R D FRANCISCO DE ALMEIDA,26,2955-187,PINHAL NOVO,-8.916197761587714,38.6272001544916
pt.ine.add.PTCONT.4667444,R D FRANCISCO DE ALMEIDA,26,2955-187,PINHAL NOVO,-8.916197761587714,38.6272001544916
pt.ine.add.PTCONT.4667445,R D FRANCISCO DE ALMEIDA,26,2955-187,PINHAL NOVO,-8.916197761587714,38.6272001544916
pt.ine.add.PTCONT.4667446,R 25 DE ABRIL,30,2955-123,PINHAL NOVO,-8.911586760349389,38.62793905696122
pt.ine.add.PTCONT.4667447,R 1 DE MAIO,7,2950-595,QUINTA DO ANJO,-8.942827107083094,38.60282850145968
pt.ine.add.PTCONT.4667448,R AGOSTINHO DA SILVA,18,2950-564,QUINTA DO ANJO,-8.945773678948333,38.57399088962359
pt.ine.add.PTCONT.4667449,R AGOSTINHO DA SILVA,18,2950-564,QUINTA DO ANJO,-8.945773678948333,38.57399088962359
pt.ine.add.PTCONT.4667450,R AGOSTINHO DA SILVA,18,2950-564,QUINTA DO ANJO,-8.945773678948333,38.57399088962359
pt.ine.add.PTCONT.4667451,R AGOSTINHO DA SILVA,18,2950-564,QUINTA DO ANJO,-8.945773678948333,38.57399088962359
pt.ine.add.PTCONT.4667453,R ARRABALDE,22,2950-275,PALMELA,-8.900588265001499,38.56784599961728
pt.ine.add.PTCONT.4667454,CAM MUNICIPAL,14,2955-007,PINHAL NOVO,-8.952734215393459,38.6512592680581
pt.ine.add.PTCONT.4667455,R 25 DE ABRIL,,2955-072,PINHAL NOVO,-8.939162873732913,38.60468245642791
pt.ine.add.PTCONT.4667461,R VASCO DA GAMA,2,2950-250,PALMELA,-8.901172513532407,38.56991406190487
pt.ine.add.PTCONT.4667462,AV JAVEA,,2950-580,QUINTA DO ANJO,-8.946622767696148,38.57398499121211
pt.ine.add.PTCONT.4667463,R VENÂNCIO DA COSTA LIMA,182,2950-701,QUINTA DO ANJO,-8.936875053364476,38.5673231976112
pt.ine.add.PTCONT.4667464,R JOÃO VAZ CORTE REAL,13,2950-752,QUINTA DO ANJO,-8.950050264844343,38.56556546531849
pt.ine.add.PTCONT.4667465,R JOÃO VAZ CORTE REAL,13,2950-752,QUINTA DO ANJO,-8.950050264844343,38.56556546531849
pt.ine.add.PTCONT.4667466,R JOÃO VAZ CORTE REAL,13,2950-752,QUINTA DO ANJO,-8.950050264844343,38.56556546531849
pt.ine.add.PTCONT.4667467,R JOÃO VAZ CORTE REAL,13,2950-752,QUINTA DO ANJO,-8.950050264844343,38.56556546531849
pt.ine.add.PTCONT.4667468,R JOÃO VAZ CORTE REAL,13,2950-752,QUINTA DO ANJO,-8.950050264844343,38.56556546531849
pt.ine.add.PTCONT.4667469,R JOÃO VAZ CORTE REAL,13,2950-752,QUINTA DO ANJO,-8.950050264844343,38.56556546531849
pt.ine.add.PTCONT.4667470,R IVONE SILVA,3,2955-051,PINHAL NOVO,-8.908414131303802,38.63831047242491
pt.ine.add.PTCONT.4667471,R IVONE SILVA,3,2955-051,PINHAL NOVO,-8.908414131303802,38.63831047242491
pt.ine.add.PTCONT.4667472,R IVONE SILVA,3,2955-051,PINHAL NOVO,-8.908414131303802,38.63831047242491
pt.ine.add.PTCONT.4667473,R IVONE SILVA,3,2955-051,PINHAL NOVO,-8.908414131303802,38.63831047242491
pt.ine.add.PTCONT.4667474,R IVONE SILVA,3,2955-051,PINHAL NOVO,-8.908414131303802,38.63831047242491
pt.ine.add.PTCONT.4667475,R IVONE SILVA,3,2955-051,PINHAL NOVO,-8.908414131303802,38.63831047242491
pt.ine.add.PTCONT.4667476,R MANUEL JULIO,1,2955-262,PINHAL NOVO,-8.952109638967048,38.649876397067956
pt.ine.add.PTCONT.4667477,ACEIRO DOS ARRAIADOS,CCI 7104,2955-286,PINHAL NOVO,-8.890260263893753,38.62781777920699
pt.ine.add.PTCONT.4667478,R MANUEL MARIA DO BOCAGE,22 06,2950-539,QUINTA DO ANJO,-8.955258465176458,38.57656405403367
pt.ine.add.PTCONT.4667479,R ESPERANÇA,,2950-057,PALMELA,-8.832196452384414,38.56841857596265
pt.ine.add.PTCONT.4667480,R LADEIRA,50,2950-280,PALMELA,-8.902353574959848,38.56876226010843
pt.ine.add.PTCONT.4667481,AV NATALIA CORREIA,166,2955-098,PINHAL NOVO,-8.91140167562817,38.63949772401768
pt.ine.add.PTCONT.4667482,R 5 DE OUTUBRO,,2950-727,QUINTA DO ANJO,-8.942533219004881,38.56950022925569
pt.ine.add.PTCONT.4667483,R HERMINIO CARDOSO GUERRA,,2965-232,POCEIRÃO,-8.73526530477066,38.66909284206738
pt.ine.add.PTCONT.4667484,R PERALTAS,CCI 3803,2965-241,POCEIRÃO,-8.756823720645896,38.648189028337825
pt.ine.add.PTCONT.4667485,PCT ANGOLA,70,2950-106,PALMELA,-8.880899570555625,38.56350534419142
pt.ine.add.PTCONT.4667486,R ANGOLA,34 U,2950-115,PALMELA,-8.881255985531027,38.564683147984304
pt.ine.add.PTCONT.4667487,R 1 DE NOVEMBRO,15,2950-323,PALMELA,-8.882419845725401,38.5729002320031
pt.ine.add.PTCONT.4667488,R COMÉRCIO,ZZ,2950-057,PALMELA,-8.835005902995846,38.56823961426902
pt.ine.add.PTCONT.4667489,R CONTRA ALM JAIME AFREIXO,55,2950-266,PALMELA,-8.901508280189162,38.56911913343317
pt.ine.add.PTCONT.4667490,R CONTRA ALM JAIME AFREIXO,33,2950-266,PALMELA,-8.901716722877207,38.569297929619765
pt.ine.add.PTCONT.4667491,AV RAINHA D LEONOR,17,2950-208,PALMELA,-8.899656184685051,38.5708338337234
pt.ine.add.PTCONT.4667492,AV RAINHA D LEONOR,17,2950-208,PALMELA,-8.899656184685051,38.5708338337234
pt.ine.add.PTCONT.4667493,AV RAINHA D LEONOR,17,2950-208,PALMELA,-8.899656184685051,38.5708338337234
pt.ine.add.PTCONT.4667494,AV RAINHA D LEONOR,17,2950-208,PALMELA,-8.899656184685051,38.5708338337234
pt.ine.add.PTCONT.4667495,AV RAINHA D LEONOR,17,2950-208,PALMELA,-8.899656184685051,38.5708338337234
pt.ine.add.PTCONT.4667496,AV RAINHA D LEONOR,17,2950-208,PALMELA,-8.899656184685051,38.5708338337234
pt.ine.add.PTCONT.4667497,R ARY DOS SANTOS,,2955-287,PINHAL NOVO,-8.87639043268503,38.63139287217821
pt.ine.add.PTCONT.4667498,CARRETEIROS,CCI 19824,2950-764,QUINTA DO ANJO,-8.966252039316055,38.586503417863305
pt.ine.add.PTCONT.4667499,R ANTÓNIO GOMES REIS,,2950-655,QUINTA DO ANJO,-8.961979077499562,38.56522937382495
pt.ine.add.PTCONT.4667500,R CARLOS CABETE,CCI 1004,2965-218,POCEIRÃO,-8.746056911879501,38.663956187137586
pt.ine.add.PTCONT.4667501,R JOAQUIM CARVALHO,25,2950-325,PALMELA,-8.880914838370654,38.57051366457924
pt.ine.add.PTCONT.4667502,R CAP CLEMENTE JOSE JUNCAL,46,2950-334,PALMELA,-8.881165020235464,38.570295868105156
pt.ine.add.PTCONT.4667503,R TRABALHADORES DA TERRA,,2950-035,PALMELA,-8.8363247467668,38.56816864066158
pt.ine.add.PTCONT.4667504,ESCNH BOAVISTA,13,2950-243,PALMELA,-8.902866228675649,38.56841657691481
pt.ine.add.PTCONT.4667505,R JOSE REGIO,24,2955-202,PINHAL NOVO,-8.909151297824149,38.63317995772822
pt.ine.add.PTCONT.4667506,R TRABALHADOR RURAL,,2955-277,PINHAL NOVO,-8.87765726403449,38.622854089900635
pt.ine.add.PTCONT.4667507,R CAP JESUINO DA COSTA,,2965-211,POCEIRÃO,-8.720202039365839,38.652279098651576
pt.ine.add.PTCONT.4667508,R JOSE LUIS DURÃO,,2965-221,POCEIRÃO,-8.713775374212032,38.643113809778
pt.ine.add.PTCONT.4667509,R JOSE AUGUSTO COSTA XAVIER CCI,CCI 5312,2965-221,POCEIRÃO,-8.725870313448548,38.63920604587565
pt.ine.add.PTCONT.4667510,R ANGOLA,6,2950-115,PALMELA,-8.879575366195706,38.563045366792444
pt.ine.add.PTCONT.4667511,R PARQUE,67,2950-026,PALMELA,-8.886566621624997,38.571117005361366
pt.ine.add.PTCONT.4667512,R D JOÃO II,,2955-176,PINHAL NOVO,-8.91433230171346,38.63331663055392
pt.ine.add.PTCONT.4667513,R D JOÃO II,,2955-176,PINHAL NOVO,-8.91433230171346,38.63331663055392
pt.ine.add.PTCONT.4667514,R D JOÃO II,,2955-176,PINHAL NOVO,-8.91433230171346,38.63331663055392
pt.ine.add.PTCONT.4667515,R D JOÃO II,,2955-176,PINHAL NOVO,-8.91433230171346,38.63331663055392
pt.ine.add.PTCONT.4667516,R D JOÃO II,,2955-176,PINHAL NOVO,-8.91433230171346,38.63331663055392
pt.ine.add.PTCONT.4667517,R D JOÃO II,,2955-176,PINHAL NOVO,-8.91433230171346,38.63331663055392
pt.ine.add.PTCONT.4667518,R D JOÃO II,,2955-176,PINHAL NOVO,-8.91433230171346,38.63331663055392
pt.ine.add.PTCONT.4667519,R D JOÃO II,,2955-176,PINHAL NOVO,-8.91433230171346,38.63331663055392
pt.ine.add.PTCONT.4667520,R PADRE EMÍLIO,51,2955-107,PINHAL NOVO,-8.909983073907949,38.62618412026509
pt.ine.add.PTCONT.4667521,R 7,180,2950-678,QUINTA DO ANJO,-8.988173989377701,38.598182026007194
pt.ine.add.PTCONT.4667522,TV LUIS DE CAMÕES,13,2950-623,QUINTA DO ANJO,-8.973065441687208,38.558452829486846
pt.ine.add.PTCONT.4667523,R JOSE GUILHERME ARIOLAS,33,2950-621,QUINTA DO ANJO,-8.975464890000769,38.55758235562372
pt.ine.add.PTCONT.4667524,R SERAFIM JOSE,23105,2965-201,POCEIRÃO,-8.748543461143427,38.723540796586384
pt.ine.add.PTCONT.4667525,R ARTURES,,2965-206,POCEIRÃO,-8.734796146459919,38.614379473463906
pt.ine.add.PTCONT.4667526,R JOAQUIM ALGARVIO,,2965-261,POCEIRÃO,-8.752445164384454,38.619926539940295
pt.ine.add.PTCONT.4667527,R JOAQUIM GOMES ROMÃO,,2965-261,POCEIRÃO,-8.749695880113588,38.60593325536976
pt.ine.add.PTCONT.4667528,R D JOÃO DE CASTRO,11,2950-206,PALMELA,-8.900428259165343,38.57006307496654
pt.ine.add.PTCONT.4667529,R CAVALEIROS,,2955-294,PINHAL NOVO,-8.86233619062528,38.628238377826435
pt.ine.add.PTCONT.4667530,R 21,283,2950-678,QUINTA DO ANJO,-8.982400401243444,38.5972331733151
pt.ine.add.PTCONT.4667531,R LIBERDADE,17,2950-525,QUINTA DO ANJO,-9.007611905466694,38.60041653039023
pt.ine.add.PTCONT.4667532,R BRISA,4,2950-675,QUINTA DO ANJO,-9.020072552838291,38.58128854102964
pt.ine.add.PTCONT.4667533,R PERO VAZ DE CAMINHA,27 6,2950-565,QUINTA DO ANJO,-8.953113942367093,38.578705032970454
pt.ine.add.PTCONT.4667534,R CRISTALINO JOSE,,2965-557,ÁGUAS DE MOURA,-8.71999369173467,38.71258963650732
pt.ine.add.PTCONT.4667535,ESTR ESPANHOIS,,2965-214,POCEIRÃO,-8.738342217722785,38.604605257282444
pt.ine.add.PTCONT.4667537,QTA PINHEIRO GRANDE,,2955-183,PINHAL NOVO,-8.921614014724774,38.63441181217667
pt.ine.add.PTCONT.4667538,R MOÇAMBIQUE,,2955-162,PINHAL NOVO,-8.913353528448287,38.63519685374887
pt.ine.add.PTCONT.4667539,R MOÇAMBIQUE,,2955-162,PINHAL NOVO,-8.913353528448287,38.63519685374887
pt.ine.add.PTCONT.4667540,R MOÇAMBIQUE,,2955-162,PINHAL NOVO,-8.913353528448287,38.63519685374887
pt.ine.add.PTCONT.4667541,R MOÇAMBIQUE,,2955-162,PINHAL NOVO,-8.913353528448287,38.63519685374887
pt.ine.add.PTCONT.4667542,R MOÇAMBIQUE,,2955-162,PINHAL NOVO,-8.913353528448287,38.63519685374887
pt.ine.add.PTCONT.4667543,ACEIRO SAPATARIAS CCI,CCI 6032,2955-328,PINHAL NOVO,-8.885568915433156,38.617353535593836
pt.ine.add.PTCONT.4667544,,,2950-555,QUINTA DO ANJO,-8.980768580718243,38.62439552035379
pt.ine.add.PTCONT.4667545,R 39,,2950-678,QUINTA DO ANJO,-8.983517781184684,38.59464872636915
pt.ine.add.PTCONT.4667546,R JOAQUIM PEDRO,,2950-687,QUINTA DO ANJO,-8.930816994366745,38.594317187771345
pt.ine.add.PTCONT.4667551,AV ALEXANDRE HERCULANO,,2955-112,PINHAL NOVO,-8.915031431875624,38.63635670805182
pt.ine.add.PTCONT.4667552,AV ALEXANDRE HERCULANO,,2955-112,PINHAL NOVO,-8.915031431875624,38.63635670805182
pt.ine.add.PTCONT.4667553,AV ALEXANDRE HERCULANO,,2955-112,PINHAL NOVO,-8.915031431875624,38.63635670805182
pt.ine.add.PTCONT.4667554,AV ALEXANDRE HERCULANO,,2955-112,PINHAL NOVO,-8.915031431875624,38.63635670805182
pt.ine.add.PTCONT.4667555,AV ALEXANDRE HERCULANO,,2955-112,PINHAL NOVO,-8.915031431875624,38.63635670805182
pt.ine.add.PTCONT.4667556,R ROSA RAMALHO,30-14,2950-580,QUINTA DO ANJO,-8.95149291418061,38.57844613291337
pt.ine.add.PTCONT.4667557,,,2965-557,ÁGUAS DE MOURA,-8.734423269941232,38.71264243183237
pt.ine.add.PTCONT.4667565,R AIRENSE,25,2950-103,PALMELA,-8.886521757814727,38.5701173793727
pt.ine.add.PTCONT.4667566,R FARIAS,,2955-243,PINHAL NOVO,-8.903752324426408,38.620189863851756
pt.ine.add.PTCONT.4668378,R 1 DE MAIO,,2965-588,ÁGUAS DE MOURA,-8.695619714520925,38.603944616738396
pt.ine.add.PTCONT.4668381,R SOMBREIREIROS,5,2950-039,PALMELA,-8.915702201478066,38.59240140506378
pt.ine.add.PTCONT.4668390,R 25 DE ABRIL,97 4,2965-503,ÁGUAS DE MOURA,-8.77419780812772,38.579173182258096
pt.ine.add.PTCONT.4668391,R SAMOUCO QTA SANTIAGO,,2950-771,PALMELA,-8.897612798137489,38.5826569830222
pt.ine.add.PTCONT.4668407,R 9 DE MARCO,,2965-505,ÁGUAS DE MOURA,-8.784149254987511,38.5819108157147
pt.ine.add.PTCONT.4668415,R 25 DE ABRIL,,2965-552,ÁGUAS DE MOURA,-8.771850452285415,38.594013621971996
pt.ine.add.PTCONT.4668416,AV ALBERTO VALENTE,,2950-313,PALMELA,-8.889952870123075,38.58107627910988
pt.ine.add.PTCONT.4668417,AV ALBERTO VALENTE,55,2950-313,PALMELA,-8.89043344965495,38.57984805192463
pt.ine.add.PTCONT.4668436,URB VENDA DO ALCAIDE,,2950-438,PALMELA,-8.892387986160168,38.6076983786708
pt.ine.add.PTCONT.4668437,URB VENDA DO ALCAIDE,,2950-438,PALMELA,-8.892387986160168,38.6076983786708
pt.ine.add.PTCONT.4668438,URB VENDA DO ALCAIDE,,2950-438,PALMELA,-8.892387986160168,38.6076983786708
pt.ine.add.PTCONT.4668439,URB VENDA DO ALCAIDE,,2950-438,PALMELA,-8.892387986160168,38.6076983786708
pt.ine.add.PTCONT.4668440,URB VENDA DO ALCAIDE,,2950-438,PALMELA,-8.892387986160168,38.6076983786708
pt.ine.add.PTCONT.4668441,URB VENDA DO ALCAIDE,,2950-438,PALMELA,-8.892387986160168,38.6076983786708
pt.ine.add.PTCONT.4668442,URB VENDA DO ALCAIDE,,2950-438,PALMELA,-8.892387986160168,38.6076983786708
pt.ine.add.PTCONT.4668443,ESTR VINDIMAS,C,2950-139,PALMELA,-8.8885169398478,38.60503837610372
pt.ine.add.PTCONT.4668449,ESTR HUMBERTO DELGADO,,2950-438,PALMELA,-8.891089081361672,38.60291382738209
pt.ine.add.PTCONT.4668450,R ESTEVA,13,2950-341,PALMELA,-8.891540639908964,38.604370228196906
pt.ine.add.PTCONT.4668451,R OLIVEIRAS,18,2950-033,PALMELA,-8.875696442723681,38.57744719995213
pt.ine.add.PTCONT.4668462,R ANTÓNIO MARTINS VALENTE,,2965-603,ÁGUAS DE MOURA,-8.68457727629568,38.63710247987575
pt.ine.add.PTCONT.4668482,BR PALMELAO,27,2965-503,ÁGUAS DE MOURA,-8.770369730659642,38.570636217004235
pt.ine.add.PTCONT.4668483,EN 10,CCI 8009,2965-589,ÁGUAS DE MOURA,-8.785759681773586,38.56202957465852
pt.ine.add.PTCONT.4668489,R 1 DE MAIO,1,2965-551,ÁGUAS DE MOURA,-8.764339807559498,38.56866904864561
pt.ine.add.PTCONT.4668490,R BOCAGE,,2950-123,PALMELA,-8.850421846993223,38.613835884448044
pt.ine.add.PTCONT.4668491,R ANTÓNIO CAVALEIRO,,2950-123,PALMELA,-8.846479067743793,38.61104943134077
pt.ine.add.PTCONT.4668492,R CASAL DAS SERRALHEIRAS,,2950-318,PALMELA,-8.863033059360674,38.59502083697198
pt.ine.add.PTCONT.4668493,R XAVIER SANTANA,,2950-065,PALMELA,-8.81034446274387,38.60698524223106
pt.ine.add.PTCONT.4668507,R ALBERTO VALENTE,3,2965-557,ÁGUAS DE MOURA,-8.690842415936832,38.585932900057024
pt.ine.add.PTCONT.4668508,BC POMAR,5,2965-583,ÁGUAS DE MOURA,-8.692000793031411,38.58582828297694
pt.ine.add.PTCONT.4668509,R 1 DE MAIO,,2950-487,PALMELA,-8.89204705966094,38.609943010262974
pt.ine.add.PTCONT.4668510,ESTR ESPANHOIS,,2950-438,PALMELA,-8.866231490944967,38.60816182940876
pt.ine.add.PTCONT.4668513,R INDEPENDÊNCIA,16,2965-574,ÁGUAS DE MOURA,-8.691173357380839,38.58568809851341
pt.ine.add.PTCONT.4668514,R INDEPENDÊNCIA,10,2965-574,ÁGUAS DE MOURA,-8.690943894132449,38.585698200707554
pt.ine.add.PTCONT.4668515,R CATARINA EUFEMIA,46,2950-488,PALMELA,-8.892463910820855,38.60835318437096
pt.ine.add.PTCONT.4668516,R BENTO DE JESUS CARAÇA,,2950-069,PALMELA,-8.897693376875388,38.60324019845019
pt.ine.add.PTCONT.4668517,R AMIGOS,5,2950-081,PALMELA,-8.915577931764117,38.59469932513914
pt.ine.add.PTCONT.4668518,BR SOUSA CINTRA,,2950-437,PALMELA,-8.930608775254697,38.60504519706763
pt.ine.add.PTCONT.4668519,R LUIS DE CAMÕES,7,2950-064,PALMELA,-8.934095781794102,38.601186047917494
pt.ine.add.PTCONT.4668520,ESTR VENDA ALCAIDE A,A,2950-041,PALMELA,-8.89555903409158,38.60277980631287
pt.ine.add.PTCONT.4668523,R SETE QUINTAS,CCI 25403,2950-438,PALMELA,-8.886451789490899,38.60406078849454
pt.ine.add.PTCONT.4668524,R VALE DE MARMELOS,,2950-495,PALMELA,-8.87202902973487,38.610386418859115
pt.ine.add.PTCONT.4668525,ESTR MONTINHOSO QTA LEBRES,,2950-487,PALMELA,-8.897526744462791,38.61242062210069
pt.ine.add.PTCONT.4668526,ESTR RESTAURADORES DO CONCELHO DE PALMELA,5,2950-058,PALMELA,-8.934298551630286,38.599806409346726
pt.ine.add.PTCONT.4668527,R EÇA DE QUEIRÓS,7,2950-343,PALMELA,-8.880664219402929,38.57511847638318
pt.ine.add.PTCONT.4668530,R RAMA,,2950-050,PALMELA,-8.929304684081268,38.599768427681134
pt.ine.add.PTCONT.4668531,ESTR RESTAURADORES DE PALMELA,,2950-045,PALMELA,-8.907272251638226,38.57696335238791
pt.ine.add.PTCONT.4669444,R FLORBELA ESPANCA,4,2950-552,QUINTA DO ANJO,-8.945029383955278,38.56801460200492
pt.ine.add.PTCONT.4669450,R 1 DE MAIO,,2950-487,PALMELA,-8.892388430596785,38.610742523536544
pt.ine.add.PTCONT.4669454,R TEOTONIO FRANCISCO,44,2950-718,QUINTA DO ANJO,-8.941546372732901,38.562327496580465
pt.ine.add.PTCONT.4669455,R IVONE SILVA,3,2955-051,PINHAL NOVO,-8.908414131303802,38.63831047242491
pt.ine.add.PTCONT.4669457,R VINDIMAS,8,2950-139,PALMELA,-8.888016712102873,38.59783504923499
pt.ine.add.PTCONT.4669459,R ESCOLA PREPARATORIA HERMENEGILDO CAPELO,6,2950-246,PALMELA,-8.901815791779766,38.5742878396989
pt.ine.add.PTCONT.4669467,R BOCAGE,10,2950-693,QUINTA DO ANJO,-8.940779271622151,38.603455208838085
pt.ine.add.PTCONT.4669473,AV PALMELENSE FUTEBOL CLUBE,,2950-288,PALMELA,-8.909733818059745,38.57217268611439
pt.ine.add.PTCONT.4669493,R MOÇAMBIQUE,,2955-162,PINHAL NOVO,-8.913353528448287,38.63519685374887
pt.ine.add.PTCONT.4669510,AV RAINHA D LEONOR,17,2950-208,PALMELA,-8.899656184685051,38.5708338337234
pt.ine.add.PTCONT.4669523,R ARRABALDE,22,2950-275,PALMELA,-8.900588265001499,38.56784599961728
pt.ine.add.PTCONT.4669526,R CONSTANTINO LOUREIRO,,2965-257,POCEIRÃO,-8.777007775837683,38.61753288611292
pt.ine.add.PTCONT.4669538,ESTR LAGAMECAS,,2965-261,POCEIRÃO,-8.765433160257706,38.61222710617755
pt.ine.add.PTCONT.4669546,R VENÂNCIO DA COSTA LIMA,182,2950-701,QUINTA DO ANJO,-8.936875053364476,38.5673231976112
pt.ine.add.PTCONT.4669547,R CAVALEIROS,,2955-294,PINHAL NOVO,-8.860966687174056,38.63021969357199
pt.ine.add.PTCONT.4669551,R IVONE SILVA,3,2955-051,PINHAL NOVO,-8.908414131303802,38.63831047242491
pt.ine.add.PTCONT.4669554,,,2950-503,QUINTA DO ANJO,-8.995389325969562,38.60448882964964
pt.ine.add.PTCONT.4669558,R PAZ,28,2950-436,PALMELA,-8.921600136886585,38.58909184167877
pt.ine.add.PTCONT.4669632,R AMIGOS,5,2950-081,PALMELA,-8.915577931764117,38.59469932513914
pt.ine.add.PTCONT.4669641,MTE SEVERINOS,,2955-281,PINHAL NOVO,-8.864711030906916,38.609927943033156
pt.ine.add.PTCONT.4669654,R MOÇAMBIQUE,,2955-162,PINHAL NOVO,-8.913353528448287,38.63519685374887
pt.ine.add.PTCONT.4669658,R AIRENSE,,2950-103,PALMELA,-8.886738347022872,38.56998086143564
pt.ine.add.PTCONT.4669659,R ZECA AFONSO,,2955-016,PINHAL NOVO,-8.93087799702589,38.61227005572544
pt.ine.add.PTCONT.4669762,R JOSÉ SARAMAGO,1,2955-027,PINHAL NOVO,-8.91007223799706,38.623805377195595
pt.ine.add.PTCONT.4669763,R JOSÉ SARAMAGO,1,2955-027,PINHAL NOVO,-8.91007223799706,38.623805377195595
pt.ine.add.PTCONT.4669764,R JOSÉ SARAMAGO,1,2955-027,PINHAL NOVO,-8.91007223799706,38.623805377195595
pt.ine.add.PTCONT.4669765,R JOSÉ SARAMAGO,1,2955-027,PINHAL NOVO,-8.91007223799706,38.623805377195595
pt.ine.add.PTCONT.4669766,R JOSÉ SARAMAGO,1,2955-027,PINHAL NOVO,-8.91007223799706,38.623805377195595
pt.ine.add.PTCONT.4669767,R JOSÉ SARAMAGO,1,2955-027,PINHAL NOVO,-8.91007223799706,38.623805377195595
pt.ine.add.PTCONT.4669768,BC ESTRELA,23 25,2950-225,PALMELA,-8.901943794017885,38.56907123244959
pt.ine.add.PTCONT.4669769,URB QUINTA TOME DIAS,,2950-031,PALMELA,-8.889420344799793,38.55327126899454
pt.ine.add.PTCONT.4669770,URB QUINTA TOME DIAS,,2950-031,PALMELA,-8.889420344799793,38.55327126899454
pt.ine.add.PTCONT.4669771,R MOÇAMBIQUE,,2955-162,PINHAL NOVO,-8.913353528448287,38.63519685374887
pt.ine.add.PTCONT.4669772,R JOSÉ SARAMAGO,1,2955-027,PINHAL NOVO,-8.91007223799706,38.623805377195595
pt.ine.add.PTCONT.4669773,R JOSÉ SARAMAGO,1,2955-027,PINHAL NOVO,-8.91007223799706,38.623805377195595
pt.ine.add.PTCONT.4669774,R JOSÉ SARAMAGO,1,2955-027,PINHAL NOVO,-8.91007223799706,38.623805377195595
pt.ine.add.PTCONT.4669775,R JOSÉ SARAMAGO,1,2955-027,PINHAL NOVO,-8.91007223799706,38.623805377195595
pt.ine.add.PTCONT.4669776,R JOSÉ SARAMAGO,1,2955-027,PINHAL NOVO,-8.91007223799706,38.623805377195595
pt.ine.add.PTCONT.4669813,BC ESTRELA,23 25,2950-225,PALMELA,-8.901943794017885,38.56907123244959
pt.ine.add.PTCONT.4670113,R SABUGUEIRO,27,2950-734,QUINTA DO ANJO,-8.942721952427762,38.56586861191631
pt.ine.add.PTCONT.4670114,R ESCOLA,,2950-671,QUINTA DO ANJO,-8.944616851148945,38.60477087497506
pt.ine.add.PTCONT.4670115,R ESCOLA,,2950-671,QUINTA DO ANJO,-8.944616851148945,38.60477087497506
pt.ine.add.PTCONT.4670218,R SABUGUEIRO,27,2950-734,QUINTA DO ANJO,-8.942721952427762,38.56586861191631
pt.ine.add.PTCONT.4670220,R SABUGUEIRO,27,2950-734,QUINTA DO ANJO,-8.942721952427762,38.56586861191631
pt.ine.add.PTCONT.4670225,R SABUGUEIRO,27,2950-734,QUINTA DO ANJO,-8.942721952427762,38.56586861191631
pt.ine.add.PTCONT.4670230,R CABINE,13,2950-503,QUINTA DO ANJO,-9.004573299853275,38.6016462889096
pt.ine.add.PTCONT.4670231,R ANTÓNIO PEREIRA AMARO,10,2950-625,QUINTA DO ANJO,-8.96790836783108,38.55707083539347
pt.ine.add.PTCONT.4670232,R ANTÓNIO PEREIRA AMARO,10,2950-625,QUINTA DO ANJO,-8.96790836783108,38.55707083539347
pt.ine.add.PTCONT.4670233,AV LIBERDADE,CCI 13706,2950-555,QUINTA DO ANJO,-8.991387696085678,38.602968848710475
pt.ine.add.PTCONT.4670262,R ANTÓNIO ALBINO,CCI 703,2965-241,POCEIRÃO,-8.767865190250559,38.665389272823084
pt.ine.add.PTCONT.4670345,R ARRABALDE,12,2950-275,PALMELA,-8.900187560642046,38.56792970038574
pt.ine.add.PTCONT.4670309,R JULIEN BRUAND,,2965-261,POCEIRÃO,-8.763392273947435,38.61648099194668
pt.ine.add.PTCONT.4670310,AV ALEXANDRE HERCULANO,,2955-112,PINHAL NOVO,-8.915031431875624,38.63635670805182
pt.ine.add.PTCONT.4670346,R COMBATENTES DA GRANDE GUERRA,2,2955-037,PINHAL NOVO,-8.916727682811636,38.624427594174044
pt.ine.add.PTCONT.4670347,R ESTREMADURA,4,2955-256,PINHAL NOVO,-8.947639671873732,38.63351285830979
pt.ine.add.PTCONT.4670348,BC S TOME E PRÍNCIPE,,2955-089,PINHAL NOVO,-8.912973515288792,38.636163257470656
pt.ine.add.PTCONT.4670349,BC S TOME E PRÍNCIPE,,2955-089,PINHAL NOVO,-8.912973515288792,38.636163257470656
pt.ine.add.PTCONT.4670350,BC S TOME E PRÍNCIPE,,2955-089,PINHAL NOVO,-8.912973515288792,38.636163257470656
pt.ine.add.PTCONT.4670351,BC S TOME E PRÍNCIPE,,2955-089,PINHAL NOVO,-8.912973515288792,38.636163257470656
pt.ine.add.PTCONT.4670352,BC S TOME E PRÍNCIPE,,2955-089,PINHAL NOVO,-8.912973515288792,38.636163257470656
pt.ine.add.PTCONT.4670353,BC S TOME E PRÍNCIPE,,2955-089,PINHAL NOVO,-8.912973515288792,38.636163257470656
pt.ine.add.PTCONT.4670354,VALE GROU,4,2950-067,PALMELA,-8.881712212055524,38.55557288099544
pt.ine.add.PTCONT.4670369,R XAVIER SANTANA,CCI 1934,2950-065,PALMELA,-8.810660475087257,38.6064068868341
pt.ine.add.PTCONT.4670372,ESTR RESTAURADORES DE PALMELA,709,2950-045,PALMELA,-8.90682135418806,38.57665104611098
pt.ine.add.PTCONT.4670473,ACEIRO DO MARCOLINO,,2955-313,PINHAL NOVO,-8.885292881722584,38.621706255338495
pt.ine.add.PTCONT.4670479,R JOSÉ SARAMAGO,1,2955-027,PINHAL NOVO,-8.91007223799706,38.623805377195595
pt.ine.add.PTCONT.4671207,TV FAZENDAS,,2950-502,QUINTA DO ANJO,-9.000244487158813,38.59774188891298
pt.ine.add.PTCONT.4671196,R JOSE DA CRUZ COELHO,,2955-258,PINHAL NOVO,-8.9253511632805,38.60769542705557
pt.ine.add.PTCONT.4671197,R FRANCISCO JORGE,,2965-201,POCEIRÃO,-8.740009994226396,38.720684806423094
pt.ine.add.PTCONT.4671198,R CRAVOS VERMELHOS,,2955-179,PINHAL NOVO,-8.91203606444503,38.6344399416776
pt.ine.add.PTCONT.4671199,R BERNARDINO CURADO,,2955-153,PINHAL NOVO,-8.9080331677662,38.63386297941627
pt.ine.add.PTCONT.4671200,R BERNARDINO CURADO,,2955-153,PINHAL NOVO,-8.9080331677662,38.63386297941627
pt.ine.add.PTCONT.4671201,R BOCAGE,,2955-248,PINHAL NOVO,-8.899563584055718,38.61825359860215
pt.ine.add.PTCONT.4671202,R REI D DINIZ,49,2950-721,QUINTA DO ANJO,-8.941903149433474,38.568567730058696
pt.ine.add.PTCONT.4671203,R ALEXANDRE HERCULANO,9,2950-726,QUINTA DO ANJO,-8.944857366027836,38.569042731713196
pt.ine.add.PTCONT.4671204,R AUGUSTO JULIO DA COSTA,48 D,2950-617,QUINTA DO ANJO,-8.976111165558326,38.555111317009974
pt.ine.add.PTCONT.4671205,R CENTRAL DA QUINTA DA ASSECA,14,2950-426,PALMELA,-8.893842148408925,38.557026087900226
pt.ine.add.PTCONT.4671206,R C,4,2955-014,PINHAL NOVO,-8.858121334240721,38.67493569977002
pt.ine.add.PTCONT.4671208,R 25 DE ABRIL,1,2950-638,QUINTA DO ANJO,-8.976512721277775,38.557456135690934
pt.ine.add.PTCONT.4671209,LG OFICINA,4,2955-014,PINHAL NOVO,-8.860685993524699,38.67319376349845
pt.ine.add.PTCONT.4671210,R LAGOA PALHA C TOCHA,C TOCHA,2955-047,PINHAL NOVO,-8.898846499619173,38.63504047800665
pt.ine.add.PTCONT.4671211,R HUMBERTO DELGADO,,2955-306,PINHAL NOVO,-8.896525769399096,38.6349655634012
pt.ine.add.PTCONT.4671212,R INF D HENRIQUE,67,2955-196,PINHAL NOVO,-8.913578217597145,38.62943915681343
pt.ine.add.PTCONT.4671213,R INF D HENRIQUE,67,2955-196,PINHAL NOVO,-8.913578217597145,38.62943915681343
pt.ine.add.PTCONT.4671214,R INF D HENRIQUE,67,2955-196,PINHAL NOVO,-8.913578217597145,38.62943915681343
pt.ine.add.PTCONT.4671215,R INF D HENRIQUE,67,2955-196,PINHAL NOVO,-8.913578217597145,38.62943915681343
pt.ine.add.PTCONT.4671216,ESTR ESPANHOIS,CCI 4108,2955-299,PINHAL NOVO,-8.881271007370199,38.61368774403084
pt.ine.add.PTCONT.4671217,R 77,3145,2950-680,QUINTA DO ANJO,-8.978123163929707,38.58683268336136
pt.ine.add.PTCONT.4671218,R RIBATEJO,56,2950-554,QUINTA DO ANJO,-8.940674778644922,38.59720425992637
pt.ine.add.PTCONT.4671219,AV JAVIA,,2950-580,QUINTA DO ANJO,-8.953335045084618,38.574938056361994
pt.ine.add.PTCONT.4671220,R JOÃO DE DEUS,,2950-731,QUINTA DO ANJO,-8.94116390502633,38.56403269215249
pt.ine.add.PTCONT.4671223,AV CIDADE DA PRAIA,94,2950-082,PALMELA,-8.874242260622466,38.567709497127844
pt.ine.add.PTCONT.4671224,QTA GLÓRIA,,2950-019,PALMELA,-8.889053739165217,38.566461724130974
pt.ine.add.PTCONT.4671225,LG CHAFARIZ DE D MARIA I,6,2950-227,PALMELA,-8.90432014348744,38.570253694764766
pt.ine.add.PTCONT.4671226,R HERMENEGILDO CAPELO,118,2950-234,PALMELA,-8.900626997092106,38.568251116386215
pt.ine.add.PTCONT.4671227,R PARQUE NATURAL DA ARRÁBIDA,1,2950-426,PALMELA,-8.892880711470188,38.55614952244135
pt.ine.add.PTCONT.4671228,R PINHAL DA SALGUEIRINHA,,2955-304,PINHAL NOVO,-8.895581320320996,38.65097015648812
pt.ine.add.PTCONT.4671229,R INF D HENRIQUE,67,2955-196,PINHAL NOVO,-8.913578217597145,38.62943915681343
pt.ine.add.PTCONT.4671250,R VASCO DA GAMA,1,2950-250,PALMELA,-8.900764446303748,38.57038516708526
pt.ine.add.PTCONT.4671230,R ANTÓNIO GEDEAO,26,2950-563,QUINTA DO ANJO,-8.9451786006884,38.57719293270197
pt.ine.add.PTCONT.4671231,R ANTÓNIO GEDEAO,26,2950-563,QUINTA DO ANJO,-8.9451786006884,38.57719293270197
pt.ine.add.PTCONT.4671232,R ANTÓNIO GEDEAO,26,2950-563,QUINTA DO ANJO,-8.9451786006884,38.57719293270197
pt.ine.add.PTCONT.4671233,R ANTÓNIO GEDEAO,26,2950-563,QUINTA DO ANJO,-8.9451786006884,38.57719293270197
pt.ine.add.PTCONT.4671234,R ANTÓNIO GEDEAO,26,2950-563,QUINTA DO ANJO,-8.9451786006884,38.57719293270197
pt.ine.add.PTCONT.4671235,R JORGE VIEIRA,34 20,2950-580,QUINTA DO ANJO,-8.948307056339003,38.574775002939845
pt.ine.add.PTCONT.4671236,R D JORGE DE LENCASTRE,,2950-739,QUINTA DO ANJO,-8.93933582248932,38.566517368507085
pt.ine.add.PTCONT.4671237,R GONÇALO VELHO CABRAL,28,2950-696,QUINTA DO ANJO,-8.94875977679465,38.56407009208164
pt.ine.add.PTCONT.4671239,AV ANTOINE VELGE,46,2950-011,PALMELA,-8.888439072579414,38.57092108810876
pt.ine.add.PTCONT.4671240,LG MARQUES DE POMBAL,3,2950-268,PALMELA,-8.903820712027851,38.56968946557235
pt.ine.add.PTCONT.4671241,R VASCO DA GAMA,1,2950-250,PALMELA,-8.900764446303748,38.57038516708526
pt.ine.add.PTCONT.4671242,R COSTAS,122207,2955-261,PINHAL NOVO,-8.946567479337267,38.6504195218434
pt.ine.add.PTCONT.4671243,R ACEIRO FRANCISCO SILVESTRE,,2955-008,PINHAL NOVO,-8.92146282786233,38.645772069546844
pt.ine.add.PTCONT.4671244,R BARCARROTA,86,2955-091,PINHAL NOVO,-8.909527566041676,38.6212146452187
pt.ine.add.PTCONT.4671245,,,2950-549,QUINTA DO ANJO,-8.959575917360516,38.58781189874829
pt.ine.add.PTCONT.4671246,ESTR CANORIOS,,2950-804,QUINTA DO ANJO,-8.93271895250021,38.56295564772111
pt.ine.add.PTCONT.4671247,R MANUEL XAVIER CORDEIRO VIDA,23,2950-749,QUINTA DO ANJO,-8.951870302698195,38.563165570727044
pt.ine.add.PTCONT.4671248,R MIGUEL CÂNDIDO,23,2950-619,QUINTA DO ANJO,-8.980905579848798,38.55894121712857
pt.ine.add.PTCONT.4671251,R VASCO DA GAMA,1,2950-250,PALMELA,-8.900764446303748,38.57038516708526
pt.ine.add.PTCONT.4671252,R VASCO DA GAMA,1,2950-250,PALMELA,-8.900764446303748,38.57038516708526
pt.ine.add.PTCONT.4671253,R VASCO DA GAMA,1,2950-250,PALMELA,-8.900764446303748,38.57038516708526
pt.ine.add.PTCONT.4671254,R AFONSO DE ALBUQUERQUE,14,2955-125,PINHAL NOVO,-8.915613032321183,38.62752484755267
pt.ine.add.PTCONT.4671255,R QUINTA,79,2950-522,QUINTA DO ANJO,-9.007159763126749,38.601942283143195
pt.ine.add.PTCONT.4671256,R AUGUSTO SEBASTIÃO,2,2950-610,QUINTA DO ANJO,-8.972985777853454,38.55271056988108
pt.ine.add.PTCONT.4671258,R MAESTRO FERRER TRINDADE,143,2950-329,PALMELA,-8.883083947349007,38.57055383602954
pt.ine.add.PTCONT.4671259,ACEIRO ANTÓNIO MARRECO,,2955-285,PINHAL NOVO,-8.937211549148302,38.647889877113805
pt.ine.add.PTCONT.4671260,R ORLANDO RIBEIRO,,2955-211,PINHAL NOVO,-8.908103253261517,38.63610554039935
pt.ine.add.PTCONT.4671261,R ORLANDO RIBEIRO,,2955-211,PINHAL NOVO,-8.908103253261517,38.63610554039935
pt.ine.add.PTCONT.4671262,R ORLANDO RIBEIRO,,2955-211,PINHAL NOVO,-8.908103253261517,38.63610554039935
pt.ine.add.PTCONT.4671263,R ORLANDO RIBEIRO,,2955-211,PINHAL NOVO,-8.908103253261517,38.63610554039935
pt.ine.add.PTCONT.4671264,R ORLANDO RIBEIRO,,2955-211,PINHAL NOVO,-8.908103253261517,38.63610554039935
pt.ine.add.PTCONT.4671265,R ORLANDO RIBEIRO,,2955-211,PINHAL NOVO,-8.908103253261517,38.63610554039935
pt.ine.add.PTCONT.4671266,R ORLANDO RIBEIRO,,2955-211,PINHAL NOVO,-8.908103253261517,38.63610554039935
pt.ine.add.PTCONT.4671267,R SERRA DA ESTRELA,,2950-666,QUINTA DO ANJO,-8.956448775894595,38.60241816771019
pt.ine.add.PTCONT.4671268,ACEIRO,,2950-502,QUINTA DO ANJO,-8.98431859048286,38.5895623018704
pt.ine.add.PTCONT.4671270,ESTR CARVALHOS,,2950-312,PALMELA,-8.905105643529591,38.57717584382253
pt.ine.add.PTCONT.4671271,R MAESTRO FERRER TRINDADE,143,2950-329,PALMELA,-8.883083947349007,38.57055383602954
pt.ine.add.PTCONT.4671272,R MAESTRO FERRER TRINDADE,143,2950-329,PALMELA,-8.883083947349007,38.57055383602954
pt.ine.add.PTCONT.4671273,R MAESTRO FERRER TRINDADE,143,2950-329,PALMELA,-8.883083947349007,38.57055383602954
pt.ine.add.PTCONT.4671274,R CASTELO,14,2950-221,PALMELA,-8.89973311347993,38.56727507614241
pt.ine.add.PTCONT.4671275,R ALGARVE,,2955-013,PINHAL NOVO,-8.945769096689816,38.63495169044237
pt.ine.add.PTCONT.4671276,AV LIBERDADE,38,2955-114,PINHAL NOVO,-8.915934937238422,38.632841932385794
pt.ine.add.PTCONT.4671277,AV LIBERDADE,38,2955-114,PINHAL NOVO,-8.915934937238422,38.632841932385794
pt.ine.add.PTCONT.4671278,AV LIBERDADE,38,2955-114,PINHAL NOVO,-8.915934937238422,38.632841932385794
pt.ine.add.PTCONT.4671279,R 25 DE ABRIL,2,2950-501,QUINTA DO ANJO,-9.006080680278753,38.60194133002977
pt.ine.add.PTCONT.4671280,AV VISC TOJAL,71C,2950-601,QUINTA DO ANJO,-8.976869403601219,38.553241152419176
pt.ine.add.PTCONT.4671281,QTA ALFACANHAS APAT,APAT 23,2950-433,PALMELA,-8.923007452400459,38.57716449656933
pt.ine.add.PTCONT.4671282,,,2950-220,PALMELA,-8.882023732825608,38.56458815597986
pt.ine.add.PTCONT.4671283,AV LIBERDADE,38,2955-114,PINHAL NOVO,-8.915934937238422,38.632841932385794
pt.ine.add.PTCONT.4671284,AV LIBERDADE,38,2955-114,PINHAL NOVO,-8.915934937238422,38.632841932385794
pt.ine.add.PTCONT.4671285,AV LIBERDADE,38,2955-114,PINHAL NOVO,-8.915934937238422,38.632841932385794
pt.ine.add.PTCONT.4671286,R EGAS MONIZ,58,2955-182,PINHAL NOVO,-8.90496065886503,38.62793791743197
pt.ine.add.PTCONT.4671287,R ANTÓNIO SÉRGIO,,2955-041,PINHAL NOVO,-8.905761366824967,38.62764437162795
pt.ine.add.PTCONT.4671288,TV LUIS ANTÓNIO ZEZAO,CCI 608,2965-241,POCEIRÃO,-8.774356741041156,38.66794820914313
pt.ine.add.PTCONT.4671289,R JOSE CABETE,CCI 3905,2965-219,POCEIRÃO,-8.748435426522576,38.647864116367835
pt.ine.add.PTCONT.4671290,R SIMÕES,15,2950-239,PALMELA,-8.902303551533487,38.56837523465839
pt.ine.add.PTCONT.4671291,AV ANTOINE VELGE,155,2950-011,PALMELA,-8.887441727204694,38.56495498411689
pt.ine.add.PTCONT.4671292,R CASTA CASTELAO,,2955-347,PINHAL NOVO,-8.8504908842053,38.6299871272549
pt.ine.add.PTCONT.4671293,R JOÃO DE DEUS,24,2955-198,PINHAL NOVO,-8.913223831264615,38.62746873749587
pt.ine.add.PTCONT.4671294,R JOÃO DE DEUS,24,2955-198,PINHAL NOVO,-8.913223831264615,38.62746873749587
pt.ine.add.PTCONT.4671295,R JOÃO DE DEUS,24,2955-198,PINHAL NOVO,-8.913223831264615,38.62746873749587
pt.ine.add.PTCONT.4671296,R JOÃO DE DEUS,24,2955-198,PINHAL NOVO,-8.913223831264615,38.62746873749587
pt.ine.add.PTCONT.4671297,R JOÃO DE DEUS,24,2955-198,PINHAL NOVO,-8.913223831264615,38.62746873749587
pt.ine.add.PTCONT.4671298,AV LIBERDADE,,2950-673,QUINTA DO ANJO,-8.987742028717404,38.604346752436754
pt.ine.add.PTCONT.4671299,AV LIBERDADE,,2950-673,QUINTA DO ANJO,-8.988182929633295,38.604739889634445
pt.ine.add.PTCONT.4671300,R LIBERDADE,45,2950-525,QUINTA DO ANJO,-9.009178853061421,38.60089124922466
pt.ine.add.PTCONT.4671301,R LIBERDADE PATEO SOARES,28,2950-525,QUINTA DO ANJO,-9.00892556483691,38.600830088254085
pt.ine.add.PTCONT.4671302,R CARLOS CABETE,1017,2965-218,POCEIRÃO,-8.74785173943,38.66424403704929
pt.ine.add.PTCONT.4671303,R FARIAS,CCI 307,2965-241,POCEIRÃO,-8.778631902402527,38.653962059885984
pt.ine.add.PTCONT.4671304,R JOÃO DA COSTA,,2965-211,POCEIRÃO,-8.72844266464283,38.656921703102036
pt.ine.add.PTCONT.4671305,R JOSE AFONSO,,2955-103,PINHAL NOVO,-8.917532729635287,38.61716163026239
pt.ine.add.PTCONT.4671306,R LIBERDADE,13,2950-525,QUINTA DO ANJO,-9.007944558073211,38.60134188183628
pt.ine.add.PTCONT.4671307,R NOVA,3A,2950-526,QUINTA DO ANJO,-9.007609609180804,38.60117323087766
pt.ine.add.PTCONT.4671308,R JOÃO PEDRO MONTEIRO,,2965-261,POCEIRÃO,-8.76940330542407,38.60935898407271
pt.ine.add.PTCONT.4671309,R PARQUE,68,2950-026,PALMELA,-8.88655448919495,38.571054025774885
pt.ine.add.PTCONT.4671310,R G,,2950-555,QUINTA DO ANJO,-8.972452686915123,38.63307623584432
pt.ine.add.PTCONT.4671311,PTO NOE FRESCATA,3,2950-706,QUINTA DO ANJO,-8.94543036471296,38.56592191330756
pt.ine.add.PTCONT.4671312,R CONSTANTINA FERNANDES,,2965-221,POCEIRÃO,-8.714640412760774,38.640713330910586
pt.ine.add.PTCONT.4671313,R CACOETES,,2965-261,POCEIRÃO,-8.792244473284077,38.61376368723526
pt.ine.add.PTCONT.4671314,ESTR LAGAMECAS,,2965-261,POCEIRÃO,-8.777811169653527,38.60730320874498
pt.ine.add.PTCONT.4671315,ESTR POCEIRAO,,2965-582,POCEIRÃO,-8.746614045067206,38.644414539657284
pt.ine.add.PTCONT.4671316,AV PALMELA,12,2965-316,POCEIRÃO,-8.74242037364779,38.63342843998139
pt.ine.add.PTCONT.4671317,R JOÃO PEDRO MONTEIRO,,2965-261,POCEIRÃO,-8.766128895839456,38.610394673642084
pt.ine.add.PTCONT.4671318,R 22,,2950-678,QUINTA DO ANJO,-8.984268936219618,38.59702141829211
pt.ine.add.PTCONT.4671319,R 22,604,2950-678,QUINTA DO ANJO,-8.9837017437608,38.59662017541405
pt.ine.add.PTCONT.4671320,AV LIBERDADE,18,2950-201,PALMELA,-8.901307813594883,38.57292192384489
pt.ine.add.PTCONT.4671321,AV LIBERDADE,18,2950-201,PALMELA,-8.901307813594883,38.57292192384489
pt.ine.add.PTCONT.4671322,AV LIBERDADE,18,2950-201,PALMELA,-8.901307813594883,38.57292192384489
pt.ine.add.PTCONT.4671323,AV LIBERDADE,18,2950-201,PALMELA,-8.901307813594883,38.57292192384489
pt.ine.add.PTCONT.4671324,AV LIBERDADE,18,2950-201,PALMELA,-8.901307813594883,38.57292192384489
pt.ine.add.PTCONT.4671325,AV LIBERDADE,18,2950-201,PALMELA,-8.901307813594883,38.57292192384489
pt.ine.add.PTCONT.4671326,AV LIBERDADE,18,2950-201,PALMELA,-8.901307813594883,38.57292192384489
pt.ine.add.PTCONT.4671327,AV LIBERDADE,18,2950-201,PALMELA,-8.901307813594883,38.57292192384489
pt.ine.add.PTCONT.4671328,R 1 DE MAIO,,2955-264,PINHAL NOVO,-8.946517283748902,38.641916226486764
pt.ine.add.PTCONT.4671329,ACEIRO FRANCISCO SILVESTRE,173,2955-212,PINHAL NOVO,-8.91911493530031,38.63798683886128
pt.ine.add.PTCONT.4671330,R PADRE JOSE ESTEVENS DIAS,,2955-212,PINHAL NOVO,-8.917439969983505,38.63499837424827
pt.ine.add.PTCONT.4671331,R PADRE JOSE ESTEVENS DIAS,,2955-212,PINHAL NOVO,-8.917439969983505,38.63499837424827
pt.ine.add.PTCONT.4671332,R PADRE JOSE ESTEVENS DIAS,,2955-212,PINHAL NOVO,-8.917439969983505,38.63499837424827
pt.ine.add.PTCONT.4671333,R PADRE JOSE ESTEVENS DIAS,,2955-212,PINHAL NOVO,-8.917439969983505,38.63499837424827
pt.ine.add.PTCONT.4671334,R PADRE JOSE ESTEVENS DIAS,,2955-212,PINHAL NOVO,-8.917439969983505,38.63499837424827
pt.ine.add.PTCONT.4671335,R PADRE JOSE ESTEVENS DIAS,,2955-212,PINHAL NOVO,-8.917439969983505,38.63499837424827
pt.ine.add.PTCONT.4671336,R D FRANCISCO DE ALMEIDA,45,2955-187,PINHAL NOVO,-8.916125957572744,38.6261161457221
pt.ine.add.PTCONT.4671337,R D FRANCISCO DE ALMEIDA,45,2955-187,PINHAL NOVO,-8.916125957572744,38.6261161457221
pt.ine.add.PTCONT.4671338,R D FRANCISCO DE ALMEIDA,45,2955-187,PINHAL NOVO,-8.916125957572744,38.6261161457221
pt.ine.add.PTCONT.4671339,R D FRANCISCO DE ALMEIDA,45,2955-187,PINHAL NOVO,-8.916125957572744,38.6261161457221
pt.ine.add.PTCONT.4671340,R D FRANCISCO DE ALMEIDA,45,2955-187,PINHAL NOVO,-8.916125957572744,38.6261161457221
pt.ine.add.PTCONT.4671341,R D FRANCISCO DE ALMEIDA,45,2955-187,PINHAL NOVO,-8.916125957572744,38.6261161457221
pt.ine.add.PTCONT.4671342,R D FRANCISCO DE ALMEIDA,45,2955-187,PINHAL NOVO,-8.916125957572744,38.6261161457221
pt.ine.add.PTCONT.4671343,R ANTÓNIO HORTA,,2965-557,ÁGUAS DE MOURA,-8.719958751838915,38.713941025701494
pt.ine.add.PTCONT.4671344,R ANTÓNIO HORTA,,2965-557,ÁGUAS DE MOURA,-8.719958751838915,38.713941025701494
pt.ine.add.PTCONT.4671345,R JOÃO PEDRO MONTEIRO,,2965-261,POCEIRÃO,-8.770202083177274,38.60621076404862
pt.ine.add.PTCONT.4671349,PCT SÉRGIO COSTA FERREIRA,,2950-355,PALMELA,-8.902278548424693,38.574453951616505
pt.ine.add.PTCONT.4671350,PCT SÉRGIO COSTA FERREIRA,,2950-355,PALMELA,-8.902278548424693,38.574453951616505
pt.ine.add.PTCONT.4671351,PCT SÉRGIO COSTA FERREIRA,,2950-355,PALMELA,-8.902278548424693,38.574453951616505
pt.ine.add.PTCONT.4671352,PCT SÉRGIO COSTA FERREIRA,,2950-355,PALMELA,-8.902278548424693,38.574453951616505
pt.ine.add.PTCONT.4671353,PCT SÉRGIO COSTA FERREIRA,,2950-355,PALMELA,-8.902278548424693,38.574453951616505
pt.ine.add.PTCONT.4671354,PCT SÉRGIO COSTA FERREIRA,,2950-355,PALMELA,-8.902278548424693,38.574453951616505
pt.ine.add.PTCONT.4671355,R ALEGRIAS QTA DOS DUARTE,,2955-281,PINHAL NOVO,-8.8599754034764,38.60938093103803
pt.ine.add.PTCONT.4671356,R ESCOLA DA PALHOTA,,2955-299,PINHAL NOVO,-8.877064930999095,38.61775923342263
pt.ine.add.PTCONT.4671357,R 38,,2950-678,QUINTA DO ANJO,-8.985222855221403,38.59226717797219
pt.ine.add.PTCONT.4671358,R LUÍS VAZ DE CAMÕES,4A,2950-691,QUINTA DO ANJO,-9.010112036733787,38.599280811271285
pt.ine.add.PTCONT.4671359,R AMADEU DE SOUZA CARDOSO,36 34,2950-799,QUINTA DO ANJO,-8.947472011184297,38.57704187502293
pt.ine.add.PTCONT.4671360,R JOAQUIM PEDRO MONTEIRO,,2965-204,POCEIRÃO,-8.744999358963144,38.605804767237345
pt.ine.add.PTCONT.4671362,R AIRENSE,23,2950-103,PALMELA,-8.886636589102759,38.57012564843025
pt.ine.add.PTCONT.4671363,R BERNARDINO CURADO,,2955-153,PINHAL NOVO,-8.9080331677662,38.63386297941627
pt.ine.add.PTCONT.4671364,R BERNARDINO CURADO,,2955-153,PINHAL NOVO,-8.9080331677662,38.63386297941627
pt.ine.add.PTCONT.4671365,R BERNARDINO CURADO,,2955-153,PINHAL NOVO,-8.9080331677662,38.63386297941627
pt.ine.add.PTCONT.4671366,R BERNARDINO CURADO,,2955-153,PINHAL NOVO,-8.9080331677662,38.63386297941627
pt.ine.add.PTCONT.4671367,R BERNARDINO CURADO,,2955-153,PINHAL NOVO,-8.9080331677662,38.63386297941627
pt.ine.add.PTCONT.4671368,R BERNARDINO CURADO,,2955-153,PINHAL NOVO,-8.9080331677662,38.63386297941627
pt.ine.add.PTCONT.4671369,R BERNARDINO CURADO,,2955-153,PINHAL NOVO,-8.9080331677662,38.63386297941627
pt.ine.add.PTCONT.4671370,R BERNARDINO CURADO,,2955-153,PINHAL NOVO,-8.9080331677662,38.63386297941627
pt.ine.add.PTCONT.4671371,R BERNARDINO CURADO,,2955-153,PINHAL NOVO,-8.9080331677662,38.63386297941627
pt.ine.add.PTCONT.4671372,R BERNARDINO CURADO,,2955-153,PINHAL NOVO,-8.9080331677662,38.63386297941627
pt.ine.add.PTCONT.4671373,R BERNARDINO CURADO,,2955-153,PINHAL NOVO,-8.9080331677662,38.63386297941627
pt.ine.add.PTCONT.4671374,R BERNARDINO CURADO,,2955-153,PINHAL NOVO,-8.9080331677662,38.63386297941627
pt.ine.add.PTCONT.4671375,R BERNARDINO CURADO,,2955-153,PINHAL NOVO,-8.9080331677662,38.63386297941627
pt.ine.add.PTCONT.4671376,R DIOGO CÃO,61,2955-171,PINHAL NOVO,-8.907411544488886,38.630525076032846
pt.ine.add.PTCONT.4672121,R CAP JESUINO DA COSTA,,2965-211,POCEIRÃO,-8.712694916587662,38.653001156923
pt.ine.add.PTCONT.4672151,ESTR ESPANHOIS,,2965-525,ÁGUAS DE MOURA,-8.696301728220947,38.603076542657774
pt.ine.add.PTCONT.4672152,ESTR ESPANHOIS,,2965-525,ÁGUAS DE MOURA,-8.696301728220947,38.603076542657774
pt.ine.add.PTCONT.4672159,AV ALBERTO VALENTE,62,2950-313,PALMELA,-8.88999370286641,38.57949957569881
pt.ine.add.PTCONT.4672225,EN 252,,2950-124,PALMELA,-8.903160751255166,38.60244766052869
pt.ine.add.PTCONT.4672175,R JOSE PEIXOTO,,2965-514,ÁGUAS DE MOURA,-8.793259011111436,38.57411267559903
pt.ine.add.PTCONT.4672198,R MANUEL LANDUM,CCI 4047,2965-516,ÁGUAS DE MOURA,-8.78988133975678,38.56611430406001
pt.ine.add.PTCONT.4672214,URB GOLF DO MONTADO,G2,2965-499,ÁGUAS DE MOURA,-8.805510371548976,38.570571068889514
pt.ine.add.PTCONT.4672218,R CASIMIRO SIMÕES,,2950-122,PALMELA,-8.825214936468814,38.615699253210096
pt.ine.add.PTCONT.4672219,ESTR ESPANHOIS,CCI 2621,2950-080,PALMELA,-8.849231737900743,38.606150172789725
pt.ine.add.PTCONT.4672220,R JOAQUIM MARIA AFONSO,,2950-135,PALMELA,-8.815235396455023,38.6021644603705
pt.ine.add.PTCONT.4672224,R ESCOLA,CCI 2103,2950-126,PALMELA,-8.81938859872897,38.610346663079426
pt.ine.add.PTCONT.4672242,QTA ALTO VIGIA CCI,,2950-318,PALMELA,-8.860755203969674,38.599061693302666
pt.ine.add.PTCONT.4672243,,,2950-318,PALMELA,-8.860755203969674,38.599061693302666
pt.ine.add.PTCONT.4672244,R TRANSVERSA RUA 2 ABRIL,,2950-438,PALMELA,-8.896749439030863,38.611660002772155
pt.ine.add.PTCONT.4672256,R PINHEIRO MANSO,,2950-064,PALMELA,-8.928656002212328,38.602358185581274
pt.ine.add.PTCONT.4672257,ESTR RESTAURADORES DO CONCELHO DE PALMELA,7,2950-058,PALMELA,-8.934483206327295,38.59989522670948
pt.ine.add.PTCONT.4672258,ESTR RESTAURADORES DE PALMELA,2819,2950-042,PALMELA,-8.921542064231058,38.59112808499219
pt.ine.add.PTCONT.4672274,R PINHEIRO MANSO,9,2950-075,PALMELA,-8.927822263620305,38.60586802909345
pt.ine.add.PTCONT.4673158,R D FRANCISCO DE ALMEIDA,45,2955-187,PINHAL NOVO,-8.916125957572744,38.6261161457221
pt.ine.add.PTCONT.4673191,R ANTÓNIO GEDEAO,26,2950-563,QUINTA DO ANJO,-8.9451786006884,38.57719293270197
pt.ine.add.PTCONT.4673204,R LAGOA DA PALHA,16,2955-047,PINHAL NOVO,-8.908185347089544,38.63199728705728
pt.ine.add.PTCONT.4673218,R ALGARVE,71,2950-759,QUINTA DO ANJO,-8.93816182551033,38.59728463159572
pt.ine.add.PTCONT.4673220,R VALE MARMELOS,,2950-495,PALMELA,-8.870987117673168,38.6050601440191
pt.ine.add.PTCONT.4673236,BR JOSE MARQUES,57,2965-532,ÁGUAS DE MOURA,-8.693083791333242,38.58931832433237
pt.ine.add.PTCONT.4673255,R JOÃO DE DEUS,24,2955-198,PINHAL NOVO,-8.913223831264615,38.62746873749587
pt.ine.add.PTCONT.4673306,ESTR GADO,,2950-555,QUINTA DO ANJO,-8.983175978089934,38.60556908607145
pt.ine.add.PTCONT.4673336,R PEGOS,,2965-261,POCEIRÃO,-8.785530251428117,38.6089639004363
pt.ine.add.PTCONT.4673337,R TRINDADE COELHO,15 06,2950-580,QUINTA DO ANJO,-8.957164939580252,38.57770369603778
pt.ine.add.PTCONT.4673342,R 25 ABRIL,4,2950-057,PALMELA,-8.833249684635287,38.566988974317304
pt.ine.add.PTCONT.4673345,AV LIBERDADE,38,2955-114,PINHAL NOVO,-8.915934937238422,38.632841932385794
pt.ine.add.PTCONT.4673373,ESTR FERNANDO PO,,2965-565,ÁGUAS DE MOURA,-8.691712735970487,38.64194207198423
pt.ine.add.PTCONT.4673399,R ALBERTO VALENTE,3-5,2965-582,POCEIRÃO,-8.69080812522738,38.58595108005355
pt.ine.add.PTCONT.4673400,R ALBERTO VALENTE,3-5,2965-582,POCEIRÃO,-8.69080812522738,38.58595108005355
pt.ine.add.PTCONT.4673409,R VASCO DA GAMA,1,2950-250,PALMELA,-8.900764446303748,38.57038516708526
pt.ine.add.PTCONT.4673420,R MAESTRO FERRER TRINDADE,143,2950-329,PALMELA,-8.883083947349007,38.57055383602954
pt.ine.add.PTCONT.4673452,R MAESTRO FERRER TRINDADE,143,2950-329,PALMELA,-8.883083947349007,38.57055383602954
pt.ine.add.PTCONT.4673456,R SETÚBAL,15,2950-030,PALMELA,-8.886870052258253,38.56171944972828
pt.ine.add.PTCONT.4673566,R ANTÓNIO HENRIQUES MATOS,13,2950-608,QUINTA DO ANJO,-8.971749679525649,38.555917351170805
pt.ine.add.PTCONT.4673617,R INF D HENRIQUE,67,2955-196,PINHAL NOVO,-8.913578217597145,38.62943915681343
pt.ine.add.PTCONT.4673618,R HELENA CARDOSO,18,2950-131,PALMELA,-8.908491240685988,38.569730685477495
pt.ine.add.PTCONT.4673619,R HELENA CARDOSO,18,2950-131,PALMELA,-8.908491240685988,38.569730685477495
pt.ine.add.PTCONT.4673888,R JOAQUIM SANTOS FERNANDES,22,2950-715,QUINTA DO ANJO,-8.942114501956228,38.5647017429211
pt.ine.add.PTCONT.4673889,R BENTO DE JESUS CARAÇA,CCI 16102,2950-506,QUINTA DO ANJO,-9.001187626829477,38.6026623486235
pt.ine.add.PTCONT.4673960,R PADRE JOSE ESTEVENS DIAS,90,2955-212,PINHAL NOVO,-8.91760389055571,38.63633948623102
pt.ine.add.PTCONT.4673961,R SOBRAL,2,2955-269,PINHAL NOVO,-8.933620351836208,38.61418807965156
pt.ine.add.PTCONT.4673968,R JOÃO FERNANDES,CCI 2311,2950-132,PALMELA,-8.831016157522763,38.60059406185788
pt.ine.add.PTCONT.4673969,R CACARINO,6601,2950-498,PALMELA,-8.835859373452513,38.5757563920727
pt.ine.add.PTCONT.4674028,R JOSE JEREMIAS,2,2950-748,QUINTA DO ANJO,-8.951074490102664,38.560774947131016
pt.ine.add.PTCONT.4674029,R PEDRO ÁLVARES CABRAL,24,2950-699,QUINTA DO ANJO,-8.948144681416204,38.566497587533604
pt.ine.add.PTCONT.4674043,TV S DOMINGOS,12 B,2955-264,PINHAL NOVO,-8.945832265001776,38.64329922738386
pt.ine.add.PTCONT.4674815,R 52,,2950-680,QUINTA DO ANJO,-8.980439686825601,38.590581348504735
pt.ine.add.PTCONT.4674816,,,2950-677,QUINTA DO ANJO,-8.990369864624416,38.57047484940578
pt.ine.add.PTCONT.4674817,R CAMILO CASTELO BRANCO,21,2950-724,QUINTA DO ANJO,-8.943597768356966,38.56503699340862
pt.ine.add.PTCONT.4674818,AV VISC TOJAL,255,2950-601,QUINTA DO ANJO,-8.968393605429489,38.556053963412786
pt.ine.add.PTCONT.4674819,R SABINA DA PRAIA,23,2950-685,QUINTA DO ANJO,-8.980413819448117,38.548324085770226
pt.ine.add.PTCONT.4674820,QTA S BARBARA,,2950-079,PALMELA,-8.864483162418612,38.571635421415316
pt.ine.add.PTCONT.4674821,ESTR CEMITÉRIO,,2950-306,PALMELA,-8.89747017049511,38.56919962194403
pt.ine.add.PTCONT.4674822,ESTR CEMITÉRIO,,2950-306,PALMELA,-8.89747017049511,38.56919962194403
pt.ine.add.PTCONT.4674823,R C,3,2955-014,PINHAL NOVO,-8.858271710558649,38.67503385653526
pt.ine.add.PTCONT.4674824,R BOCAGE,CCI2710,2955-289,PINHAL NOVO,-8.852488095215577,38.61609326319708
pt.ine.add.PTCONT.4674825,R SAMUEL LUPY SANTOS JORGE,84,2955-217,PINHAL NOVO,-8.916808040447057,38.637083486635426
pt.ine.add.PTCONT.4674826,R SAMUEL LUPY SANTOS JORGE,84,2955-217,PINHAL NOVO,-8.916808040447057,38.637083486635426
pt.ine.add.PTCONT.4674827,R SAMUEL LUPY SANTOS JORGE,84,2955-217,PINHAL NOVO,-8.916808040447057,38.637083486635426
pt.ine.add.PTCONT.4674828,R SAMUEL LUPY SANTOS JORGE,84,2955-217,PINHAL NOVO,-8.916808040447057,38.637083486635426
pt.ine.add.PTCONT.4674829,R 56,,2950-680,QUINTA DO ANJO,-8.976964227759455,38.58979572517898
pt.ine.add.PTCONT.4674831,R FERNANDO PESSOA,1,2950-426,PALMELA,-8.893833050287094,38.557251353479316
pt.ine.add.PTCONT.4674832,EN 252,,2955-340,PINHAL NOVO,-8.916442099057077,38.64672462481021
pt.ine.add.PTCONT.4674833,R D FRANCISCO DE ALMEIDA,25,2955-187,PINHAL NOVO,-8.915878997176472,38.62769422309925
pt.ine.add.PTCONT.4674834,R D FRANCISCO DE ALMEIDA,25,2955-187,PINHAL NOVO,-8.915878997176472,38.62769422309925
pt.ine.add.PTCONT.4674835,R D FRANCISCO DE ALMEIDA,25,2955-187,PINHAL NOVO,-8.915878997176472,38.62769422309925
pt.ine.add.PTCONT.4674836,R D FRANCISCO DE ALMEIDA,25,2955-187,PINHAL NOVO,-8.915878997176472,38.62769422309925
pt.ine.add.PTCONT.4674837,R CHAFARIZ,65,2950-553,QUINTA DO ANJO,-9.010662792481325,38.598917591086476
pt.ine.add.PTCONT.4674838,R DORDIO GOMES,,2950-580,QUINTA DO ANJO,-8.94810199747727,38.57693839978577
pt.ine.add.PTCONT.4674839,,,2950-677,QUINTA DO ANJO,-9.000027709095821,38.57303410628033
pt.ine.add.PTCONT.4674840,ESTR QUINTA DA VÁRZEA,,2950-740,QUINTA DO ANJO,-8.931941879797582,38.573599664630166
pt.ine.add.PTCONT.4674841,R VALE CRAVEIROS CCI,CCI 8331,2950-740,QUINTA DO ANJO,-8.926089970829988,38.574675402070916
pt.ine.add.PTCONT.4674842,R JOSE RICARDO XAVIER,19,2950-742,QUINTA DO ANJO,-8.937173598202385,38.5694020460806
pt.ine.add.PTCONT.4674843,R MANUEL CAETANO,23,2950-732,QUINTA DO ANJO,-8.940605212949494,38.566396702084866
pt.ine.add.PTCONT.4674844,R PEDRO ÁLVARES CABRAL,31,2950-699,QUINTA DO ANJO,-8.948493553271009,38.56690953581323
pt.ine.add.PTCONT.4674847,R ALMADA NEGREIROS,19,2950-426,PALMELA,-8.892544342199889,38.55580038292072
pt.ine.add.PTCONT.4674848,R FRANCISCO ANTÓNIO BENTO,,2955-188,PINHAL NOVO,-8.911798493018111,38.633711864405186
pt.ine.add.PTCONT.4674849,R FRANCISCO ANTÓNIO BENTO,,2955-188,PINHAL NOVO,-8.911798493018111,38.633711864405186
pt.ine.add.PTCONT.4674850,R FRANCISCO ANTÓNIO BENTO,140,2955-188,PINHAL NOVO,-8.911819024314843,38.63348652440373
pt.ine.add.PTCONT.4674851,R 110,,2950-678,QUINTA DO ANJO,-8.97266900162097,38.58562880863913
pt.ine.add.PTCONT.4674852,PCT ANTERO DE QUENTAL,2,2950-562,QUINTA DO ANJO,-8.945241911663487,38.57364326043279
pt.ine.add.PTCONT.4674853,PCT ANTERO DE QUENTAL,2,2950-562,QUINTA DO ANJO,-8.945241911663487,38.57364326043279
pt.ine.add.PTCONT.4674854,PCT ANTERO DE QUENTAL,2,2950-562,QUINTA DO ANJO,-8.945241911663487,38.57364326043279
pt.ine.add.PTCONT.4674855,PCT ANTERO DE QUENTAL,2,2950-562,QUINTA DO ANJO,-8.945241911663487,38.57364326043279
pt.ine.add.PTCONT.4674856,R LUSIADAS,,2950-725,QUINTA DO ANJO,-8.944247048281408,38.5688487819444
pt.ine.add.PTCONT.4674857,R SANCHO DE TOVAR,18,2950-746,QUINTA DO ANJO,-8.948889609969363,38.566420332504194
pt.ine.add.PTCONT.4674858,PCT JOÃO GONÇALVES ZARCO,6,2950-697,QUINTA DO ANJO,-8.950664021624371,38.56403879118269
pt.ine.add.PTCONT.4674859,,,2950-057,PALMELA,-8.82931675806427,38.57321012044803
pt.ine.add.PTCONT.4674860,R PARQUE NATURAL DA ARRÁBIDA,4,2950-426,PALMELA,-8.893156121901999,38.55615674289124
pt.ine.add.PTCONT.4674861,R S FRANCISCO XAVIER,55,2955-166,PINHAL NOVO,-8.91882152469199,38.632151542742726
pt.ine.add.PTCONT.4674862,R S FRANCISCO XAVIER,55,2955-166,PINHAL NOVO,-8.91882152469199,38.632151542742726
pt.ine.add.PTCONT.4674863,R S FRANCISCO XAVIER,55,2955-166,PINHAL NOVO,-8.91882152469199,38.632151542742726
pt.ine.add.PTCONT.4674864,R INF D HENRIQUE,120,2955-196,PINHAL NOVO,-8.91163629590596,38.628272028612116
pt.ine.add.PTCONT.4674865,R INF D HENRIQUE,120,2955-196,PINHAL NOVO,-8.91163629590596,38.628272028612116
pt.ine.add.PTCONT.4674866,R INF D HENRIQUE,120,2955-196,PINHAL NOVO,-8.91163629590596,38.628272028612116
pt.ine.add.PTCONT.4674867,R INF D HENRIQUE,120,2955-196,PINHAL NOVO,-8.91163629590596,38.628272028612116
pt.ine.add.PTCONT.4674868,R INF D HENRIQUE,120,2955-196,PINHAL NOVO,-8.91163629590596,38.628272028612116
pt.ine.add.PTCONT.4674869,R INF D HENRIQUE,120,2955-196,PINHAL NOVO,-8.91163629590596,38.628272028612116
pt.ine.add.PTCONT.4674870,R ANDRADE CORVO,7,2950-552,QUINTA DO ANJO,-8.945960237352185,38.56814326473703
pt.ine.add.PTCONT.4674871,R JOÃO GOMES PRATA,4,2950-637,QUINTA DO ANJO,-8.972926918456363,38.555539574359244
pt.ine.add.PTCONT.4674872,R SOCIEDADE FILARMONICA UNIAO AGRICOLA,16,2955-104,PINHAL NOVO,-8.915071704590538,38.62949224132429
pt.ine.add.PTCONT.4674873,R LUISA TODY,,2955-111,PINHAL NOVO,-8.911583975247849,38.62130907892496
pt.ine.add.PTCONT.4674874,EN 252,,2955-339,PINHAL NOVO,-8.912418243062392,38.61563739479466
pt.ine.add.PTCONT.4674875,R RAFAEL BORDALO PINHEIRO,33 11,2950-580,QUINTA DO ANJO,-8.949426178950148,38.57530769534572
pt.ine.add.PTCONT.4674876,R ROCHAS,10027,2950-580,QUINTA DO ANJO,-8.977635342796539,38.57163939944021
pt.ine.add.PTCONT.4674877,R MIGUEL CÂNDIDO,27,2950-619,QUINTA DO ANJO,-8.981967042583838,38.558474105894916
pt.ine.add.PTCONT.4674878,TV MARQUES DAS MINAS,,2950-630,QUINTA DO ANJO,-8.972204140852002,38.55356294828054
pt.ine.add.PTCONT.4674882,R MARINHEIROS,,2950-057,PALMELA,-8.824993411461378,38.572298896339156
pt.ine.add.PTCONT.4674883,R GAGO COUTINHO E SACADURA CABRAL,23,2950-204,PALMELA,-8.900935785201074,38.57031197738061
pt.ine.add.PTCONT.4674884,R MOINHO,4,2955-316,PINHAL NOVO,-8.94830472777516,38.64964174027144
pt.ine.add.PTCONT.4674885,R COUCEIROS,,2955-073,PINHAL NOVO,-8.93700681618638,38.604877451427534
pt.ine.add.PTCONT.4674886,ACEIRO PRINCIPAL DO TERRIM NORTE,,2955-196,PINHAL NOVO,-8.950553566570557,38.61806161350303
pt.ine.add.PTCONT.4674887,AV GUERRA JUNQUEIRO,12,2950-552,QUINTA DO ANJO,-8.94596450516273,38.567503651715825
pt.ine.add.PTCONT.4674888,AV GUERRA JUNQUEIRO,4,2950-552,QUINTA DO ANJO,-8.946490238656816,38.5673198352885
pt.ine.add.PTCONT.4674889,R ALJUBARROTA,,2950-029,PALMELA,-8.887259965736705,38.57267997376785
pt.ine.add.PTCONT.4674890,R MALMEQUERES,111,2950-027,PALMELA,-8.884794833867808,38.57176798217627
pt.ine.add.PTCONT.4674891,R CONTRA ALM JAIME AFREIXO,56-58,2950-266,PALMELA,-8.901553022942423,38.56901074086673
pt.ine.add.PTCONT.4674892,ACEIRO DA ESPERANÇA,,2955-302,PINHAL NOVO,-8.935981523292403,38.644718465441066
pt.ine.add.PTCONT.4674893,R JOAQUIM SOEIRO PEREIRA GOMES,116,2955-096,PINHAL NOVO,-8.911521315559417,38.640268774739944
pt.ine.add.PTCONT.4674894,R D FRANCISCO DE ALMEIDA,33,2955-187,PINHAL NOVO,-8.91590972383606,38.627351708158784
pt.ine.add.PTCONT.4674895,R D FRANCISCO DE ALMEIDA,33,2955-187,PINHAL NOVO,-8.91590972383606,38.627351708158784
pt.ine.add.PTCONT.4674896,R D FRANCISCO DE ALMEIDA,33,2955-187,PINHAL NOVO,-8.91590972383606,38.627351708158784
pt.ine.add.PTCONT.4674897,R D FRANCISCO DE ALMEIDA,33,2955-187,PINHAL NOVO,-8.91590972383606,38.627351708158784
pt.ine.add.PTCONT.4674898,R D FRANCISCO DE ALMEIDA,33,2955-187,PINHAL NOVO,-8.91590972383606,38.627351708158784
pt.ine.add.PTCONT.4674899,R D FRANCISCO DE ALMEIDA,33,2955-187,PINHAL NOVO,-8.91590972383606,38.627351708158784
pt.ine.add.PTCONT.4674900,R D FRANCISCO DE ALMEIDA,33,2955-187,PINHAL NOVO,-8.91590972383606,38.627351708158784
pt.ine.add.PTCONT.4674901,R D FRANCISCO DE ALMEIDA,33,2955-187,PINHAL NOVO,-8.91590972383606,38.627351708158784
pt.ine.add.PTCONT.4674902,R INF D HENRIQUE,88,2955-196,PINHAL NOVO,-8.913775344756148,38.62886644452394
pt.ine.add.PTCONT.4674903,R 25 DE ABRIL,20,2950-638,QUINTA DO ANJO,-8.97779386811105,38.55675669946273
pt.ine.add.PTCONT.4674906,BC ESTRELA,27,2950-225,PALMELA,-8.901885850537235,38.569017563610785
pt.ine.add.PTCONT.4674907,R ALGARVE,,2955-013,PINHAL NOVO,-8.945630617762825,38.63521049967567
pt.ine.add.PTCONT.4674908,ACEIRO DOS ARRAIADOS,,2955-286,PINHAL NOVO,-8.886783184990223,38.626957430282886
pt.ine.add.PTCONT.4674909,R AQUILINO RIBEIRO,9,2955-109,PINHAL NOVO,-8.912680915335109,38.622932250642144
pt.ine.add.PTCONT.4674912,R HERMINIO CARDOSO GUERRA,CCI 1120,2965-232,POCEIRÃO,-8.734119087179076,38.674927010603255
pt.ine.add.PTCONT.4674913,AV NATALIA CORREIA,168,2955-098,PINHAL NOVO,-8.911229599819132,38.639516884932405
pt.ine.add.PTCONT.4674914,AV NATALIA CORREIA,174,2955-098,PINHAL NOVO,-8.91063220018899,38.63950284067593
pt.ine.add.PTCONT.4674915,R D FRANCISCO DE ALMEIDA,65,2955-187,PINHAL NOVO,-8.916348161473067,38.62543003950122
pt.ine.add.PTCONT.4674916,R MOUZINHO DE ALBUQUERQUE,,2950-711,QUINTA DO ANJO,-8.943157629426548,38.56788343886884
pt.ine.add.PTCONT.4674917,R HERMINIO CARDOSO GUERRA,,2965-232,POCEIRÃO,-8.734297182980663,38.66736825630163
pt.ine.add.PTCONT.4674918,R EZEQUIEL MARQUES,CCI 208,2965-241,POCEIRÃO,-8.772341434677388,38.6558072447615
pt.ine.add.PTCONT.4674919,R FERREIRA DA COSTA,,2965-223,POCEIRÃO,-8.771710863730128,38.654657644285614
pt.ine.add.PTCONT.4674920,R ANGOLA,30,2950-115,PALMELA,-8.88133340006404,38.56440339733616
pt.ine.add.PTCONT.4674921,R AGRICULTOR,,2950-493,PALMELA,-8.916430803276267,38.571776738692684
pt.ine.add.PTCONT.4674922,R FLORBELA ESPANCA,12,2950-296,PALMELA,-8.91357036351309,38.57041758778396
pt.ine.add.PTCONT.4674923,URB PINHAL FORMAS,452,2950-695,QUINTA DO ANJO,-8.972833402144508,38.60565277097102
pt.ine.add.PTCONT.4674924,AV VISC TOJAL,309,2950-603,QUINTA DO ANJO,-8.96238030898768,38.55812514682039
pt.ine.add.PTCONT.4674925,AV VISC TOJAL,309,2950-603,QUINTA DO ANJO,-8.96238030898768,38.55812514682039
pt.ine.add.PTCONT.4674926,AV VISC TOJAL,309,2950-603,QUINTA DO ANJO,-8.96238030898768,38.55812514682039
pt.ine.add.PTCONT.4674927,TV ANGELINA MARQUES,,2965-223,POCEIRÃO,-8.770223635816375,38.655359382543715
pt.ine.add.PTCONT.4674928,R MACHUQUEIRO,,2965-239,POCEIRÃO,-8.728582925321026,38.64888569144604
pt.ine.add.PTCONT.4674929,QTA GLÓRIA,,2950-019,PALMELA,-8.88922330069668,38.56348366587944
pt.ine.add.PTCONT.4674930,AV CAPITAES DE ABRIL,,2955-113,PINHAL NOVO,-8.919555382276334,38.63520036800626
pt.ine.add.PTCONT.4674931,R TRABALHADOR RURAL,,2955-278,PINHAL NOVO,-8.880482115593331,38.620647095341205
pt.ine.add.PTCONT.4674932,R FRANCISCO ROMÃO,,2965-203,POCEIRÃO,-8.734740263631537,38.61868569693962
pt.ine.add.PTCONT.4674933,R FRANCISCO ROMÃO,,2965-203,POCEIRÃO,-8.741158587180939,38.614571790203016
pt.ine.add.PTCONT.4674934,AV ANTOINE VELGE,198,2950-011,PALMELA,-8.88864759280835,38.5632892016593
pt.ine.add.PTCONT.4674935,R ESCOLA DOS ARRAIADOS SOLAR DOS PIMOS A,,2955-301,PINHAL NOVO,-8.856775087843957,38.62451650014067
pt.ine.add.PTCONT.4674936,ACEIRO DO ANSELMO,,2955-283,PINHAL NOVO,-8.877190119367754,38.62987441899625
pt.ine.add.PTCONT.4674937,R ALMADA NEGREIROS,82,2955-093,PINHAL NOVO,-8.910541877683507,38.64071052963569
pt.ine.add.PTCONT.4674938,AV CAPITAES DE ABRIL,,2955-113,PINHAL NOVO,-8.919555382276334,38.63520036800626
pt.ine.add.PTCONT.4674939,AV CAPITAES DE ABRIL,,2955-113,PINHAL NOVO,-8.919555382276334,38.63520036800626
pt.ine.add.PTCONT.4674940,AV CAPITAES DE ABRIL,,2955-113,PINHAL NOVO,-8.919555382276334,38.63520036800626
pt.ine.add.PTCONT.4674941,AV CAPITAES ABRIL A,A 24,2955-113,PINHAL NOVO,-8.919555382276334,38.63520036800626
pt.ine.add.PTCONT.4674942,AV CAPITAES ABRIL A,A25,2955-113,PINHAL NOVO,-8.919555382276334,38.63520036800626
pt.ine.add.PTCONT.4674943,AV CAPITAES DE ABRIL,,2955-113,PINHAL NOVO,-8.919555382276334,38.63520036800626
pt.ine.add.PTCONT.4674944,AV CAPITAES DE ABRIL,,2955-113,PINHAL NOVO,-8.919555382276334,38.63520036800626
pt.ine.add.PTCONT.4674945,AV CAPITAES ABRIL C,C23,2955-113,PINHAL NOVO,-8.919555382276334,38.63520036800626
pt.ine.add.PTCONT.4674946,AV CAPITAES DE ABRIL,,2955-113,PINHAL NOVO,-8.919555382276334,38.63520036800626
pt.ine.add.PTCONT.4674947,AV CAPITAES DE ABRIL,,2955-113,PINHAL NOVO,-8.919555382276334,38.63520036800626
pt.ine.add.PTCONT.4674948,R 10 DE JUNHO,,2955-383,PINHAL NOVO,-8.893917416844431,38.61528171980459
pt.ine.add.PTCONT.4674949,R 21,73,2950-678,QUINTA DO ANJO,-8.985168138924688,38.59734817622807
pt.ine.add.PTCONT.4674950,QTA JOSE COENTRO SN,SN,2950-553,QUINTA DO ANJO,-9.016772267537755,38.586367080721
pt.ine.add.PTCONT.4674951,R MANUEL PEREIRA AMARO,13,2950-634,QUINTA DO ANJO,-8.97915289690823,38.552314841039774
pt.ine.add.PTCONT.4674952,AV VISC TOJAL,41,2950-601,QUINTA DO ANJO,-8.978614170236375,38.551372869713205
pt.ine.add.PTCONT.4674953,R JULIEN BRUAND,10653,2965-261,POCEIRÃO,-8.762004514734718,38.61402921321241
pt.ine.add.PTCONT.4674954,R MANUEL VERISSIMO DA SILVA,,2950-078,PALMELA,-8.898700120431181,38.57697469595615
pt.ine.add.PTCONT.4674955,R TRABALHADOR,,2955-054,PINHAL NOVO,-8.874940207811964,38.62885276843351
pt.ine.add.PTCONT.4674956,AV CAPITAES DE ABRIL,,2955-113,PINHAL NOVO,-8.919555382276334,38.63520036800626
pt.ine.add.PTCONT.4674957,AV CAPITAES DE ABRIL,,2955-113,PINHAL NOVO,-8.919555382276334,38.63520036800626
pt.ine.add.PTCONT.4674958,AV CAPITAES DE ABRIL,,2955-113,PINHAL NOVO,-8.919555382276334,38.63520036800626
pt.ine.add.PTCONT.4674959,AV CAPITAES DE ABRIL,,2955-113,PINHAL NOVO,-8.919555382276334,38.63520036800626
pt.ine.add.PTCONT.4674960,AV CAPITAES DE ABRIL,,2955-113,PINHAL NOVO,-8.919555382276334,38.63520036800626
pt.ine.add.PTCONT.4674961,TV LOURENÇO ANTÓNIO PINTO,9B,2950-605,QUINTA DO ANJO,-8.96917560286926,38.55658187307575
pt.ine.add.PTCONT.4674962,R ANTÓNIO SÉRGIO,11,2965-307,POCEIRÃO,-8.743851459081819,38.63289850218074
pt.ine.add.PTCONT.4674963,R JULIEN BRUAND,,2965-261,POCEIRÃO,-8.760312875324889,38.617542492828385
pt.ine.add.PTCONT.4674964,R JOSE GASPAR SILVA,76,2965-255,POCEIRÃO,-8.752069864452265,38.61366780760305
pt.ine.add.PTCONT.4674965,ESTR ESPANHOIS,,2965-214,POCEIRÃO,-8.76654874082239,38.60199672354478
pt.ine.add.PTCONT.4674968,URB QUINTA TOME DIAS QTA TOME DIAS,,2950-031,PALMELA,-8.889699001370973,38.55249475745982
pt.ine.add.PTCONT.4674969,R ACEIRO PRINCIPAL DA CARREGUEIRA,,2955-007,PINHAL NOVO,-8.944471235496037,38.64075938130171
pt.ine.add.PTCONT.4674970,R PADRE JOSE ESTEVENS DIAS,,2955-212,PINHAL NOVO,-8.91748718201499,38.63511516339447
pt.ine.add.PTCONT.4674971,R PADRE JOSE ESTEVENS DIAS,,2955-212,PINHAL NOVO,-8.91748718201499,38.63511516339447
pt.ine.add.PTCONT.4674972,R PADRE JOSE ESTEVENS DIAS,,2955-212,PINHAL NOVO,-8.91748718201499,38.63511516339447
pt.ine.add.PTCONT.4674973,PC INDEPENDÊNCIA,30,2955-120,PINHAL NOVO,-8.909660343488698,38.6318300302317
pt.ine.add.PTCONT.4674974,ACEIRO DAS SAPATARIAS,,2955-328,PINHAL NOVO,-8.885443939084677,38.61748045362446
pt.ine.add.PTCONT.4674975,R ROSA RAMALHO,30-7,2950-580,QUINTA DO ANJO,-8.95254820463826,38.577393798330384
pt.ine.add.PTCONT.4674976,R CAMILO CASTELO BRANCO,4,2950-613,QUINTA DO ANJO,-8.976824454129432,38.5503768608214
pt.ine.add.PTCONT.4674979,AV LIBERDADE,,2950-201,PALMELA,-8.902465890148857,38.57391423098427
pt.ine.add.PTCONT.4674980,AV LIBERDADE,,2950-201,PALMELA,-8.902465890148857,38.57391423098427
pt.ine.add.PTCONT.4674981,AV LIBERDADE,,2950-201,PALMELA,-8.902465890148857,38.57391423098427
pt.ine.add.PTCONT.4674982,AV LIBERDADE,,2950-201,PALMELA,-8.902465890148857,38.57391423098427
pt.ine.add.PTCONT.4674983,AV LIBERDADE,,2950-201,PALMELA,-8.902465890148857,38.57391423098427
pt.ine.add.PTCONT.4674984,AV LIBERDADE,,2950-201,PALMELA,-8.902465890148857,38.57391423098427
pt.ine.add.PTCONT.4674985,R AMASSARIA,1,2955-014,PINHAL NOVO,-8.85275268356757,38.6735635935751
pt.ine.add.PTCONT.4674986,R NARCISO HENRIQUE DE MATOS,,2950-642,QUINTA DO ANJO,-8.973937711039293,38.55663132131448
pt.ine.add.PTCONT.4674987,QTA MARQUESA,,2950-557,QUINTA DO ANJO,-8.980470358718932,38.572681876469076
pt.ine.add.PTCONT.4674989,ESTR CEMITÉRIO,,2950-306,PALMELA,-8.89747017049511,38.56919962194403
pt.ine.add.PTCONT.4674990,,,2950-054,PALMELA,-8.89755508895689,38.55880355144601
pt.ine.add.PTCONT.4674991,,,2950-054,PALMELA,-8.89755508895689,38.55880355144601
pt.ine.add.PTCONT.4674992,ACEIRO DOS ROMOES,,2955-229,PINHAL NOVO,-8.931594474679793,38.65409890066482
pt.ine.add.PTCONT.4674993,ACEIRO JOSE CAMARINHA,,2955-007,PINHAL NOVO,-8.928577202073559,38.64407542432925
pt.ine.add.PTCONT.4674994,AV LIBERDADE,,2955-114,PINHAL NOVO,-8.916372896863349,38.638257457128276
pt.ine.add.PTCONT.4674995,R LAGOA DA PALHA,6,2955-047,PINHAL NOVO,-8.908848867196957,38.63175867780661
pt.ine.add.PTCONT.4675630,R NOVA,4,2965-578,ÁGUAS DE MOURA,-8.694797278252953,38.583851086827124
pt.ine.add.PTCONT.4675646,R FIGUEIRA,4D,2950-042,PALMELA,-8.920734285374584,38.59178211411518
pt.ine.add.PTCONT.4675647,R POTES,20,2950-436,PALMELA,-8.922351838204069,38.58960925013035
pt.ine.add.PTCONT.4675678,ESTR ESPANHOIS,,2965-525,ÁGUAS DE MOURA,-8.695245763335281,38.60309963642516
pt.ine.add.PTCONT.4675689,R LAGAR,4,2950-315,PALMELA,-8.889667661098024,38.576862272809095
pt.ine.add.PTCONT.4675700,R ERNESTO SIMÕES,,2965-513,ÁGUAS DE MOURA,-8.801867682408462,38.57807248652034
pt.ine.add.PTCONT.4675701,ESTR BATUDES OUINTA DOS BATUDEJ,3,2950-341,PALMELA,-8.89420586338541,38.60346111329978
pt.ine.add.PTCONT.4675715,PCT BOCAS LOBO,3,2950-341,PALMELA,-8.891069033102893,38.60537319262508
pt.ine.add.PTCONT.4675716,R MADRESSILVA,3,2950-341,PALMELA,-8.890642045519021,38.60406977037206
pt.ine.add.PTCONT.4675717,ESTR VINDIMAS,1,2950-056,PALMELA,-8.887542645604192,38.59860380329314
pt.ine.add.PTCONT.4675718,,,2950-070,PALMELA,-8.902030106508807,38.59331177978657
pt.ine.add.PTCONT.4675737,R DIREITA,06,2965-559,ÁGUAS DE MOURA,-8.6913034889237,38.59211939864067
pt.ine.add.PTCONT.4675738,R DIREITA,06,2965-559,ÁGUAS DE MOURA,-8.6913034889237,38.59211939864067
pt.ine.add.PTCONT.4675739,R ALJUBARROTA,100,2950-029,PALMELA,-8.88391795714549,38.573512200357875
pt.ine.add.PTCONT.4675740,R GEN HUMBERTO DELGADO,,2965-573,ÁGUAS DE MOURA,-8.696643280182867,38.58362601400685
pt.ine.add.PTCONT.4675741,R 25 DE ABRIL,82,2965-503,ÁGUAS DE MOURA,-8.771942464021958,38.57719468414787
pt.ine.add.PTCONT.4675758,BR JOSE MARQUES,45,2965-532,ÁGUAS DE MOURA,-8.692859919199094,38.58857170705587
pt.ine.add.PTCONT.4675759,R 1 DE MAIO,31A,2965-502,ÁGUAS DE MOURA,-8.765608900171982,38.57731015573062
pt.ine.add.PTCONT.4675760,TV 5 DE OUTUBRO,69,2965-504,ÁGUAS DE MOURA,-8.772426073440883,38.57608402505116
pt.ine.add.PTCONT.4675771,R ANTÓNIO TAVARES JUNIOR,,2965-557,ÁGUAS DE MOURA,-8.69217192166727,38.58865607014982
pt.ine.add.PTCONT.4675772,R 1 DE MAIO,8,2965-551,ÁGUAS DE MOURA,-8.76457953289445,38.56983883404756
pt.ine.add.PTCONT.4675773,R 1 DE MAIO,8,2965-551,ÁGUAS DE MOURA,-8.76457953289445,38.56983883404756
pt.ine.add.PTCONT.4675774,ESTR ESPANHOIS,,2950-486,PALMELA,-8.848010218377345,38.606842265327565
pt.ine.add.PTCONT.4675777,URB GOLF DO MONTADO,H,2965-499,ÁGUAS DE MOURA,-8.805151207383417,38.57160810682804
pt.ine.add.PTCONT.4675778,R CUSTÓDIO SIMÕES,,2950-125,PALMELA,-8.824480160460087,38.59057967317544
pt.ine.add.PTCONT.4675779,R ANTÓNIO SERAFIM,,2950-497,PALMELA,-8.829885085289245,38.58583859295054
pt.ine.add.PTCONT.4675780,,,2950-057,PALMELA,-8.834815507567006,38.57225844197828
pt.ine.add.PTCONT.4675786,R 1 DE MAIO,,2950-487,PALMELA,-8.892228936932527,38.60977067508699
pt.ine.add.PTCONT.4675787,ESTR MONTINHOSO,3,2950-487,PALMELA,-8.894797780443367,38.61384369311297
pt.ine.add.PTCONT.4675788,R 2 DE ABRIL,21,2950-487,PALMELA,-8.895396913289705,38.61295699060106
pt.ine.add.PTCONT.4675789,R VINHAS,43,2950-073,PALMELA,-8.916838155925381,38.59764557794364
pt.ine.add.PTCONT.4675806,R HEROIS DO ULTRAMAR,29,2965-572,ÁGUAS DE MOURA,-8.690472237395332,38.585556315015026
pt.ine.add.PTCONT.4675807,R PADRE ACILIO,13,2965-555,ÁGUAS DE MOURA,-8.688908658258628,38.58371704919783
pt.ine.add.PTCONT.4675808,R FRANCOLINO ASCENSO,,2950-438,PALMELA,-8.887570150741691,38.61109798380421
pt.ine.add.PTCONT.4675809,R JOSE NABO,CCI 25605,2950-438,PALMELA,-8.887106770672215,38.609605612620776
pt.ine.add.PTCONT.4675810,ESTR CARRASCAS,,2950-499,PALMELA,-8.90598487340547,38.59924915263686
pt.ine.add.PTCONT.4675811,R MONTE LAGARTO,,2950-081,PALMELA,-8.916677308128126,38.595520722787946
pt.ine.add.PTCONT.4675812,BATUDES,,2950-041,PALMELA,-8.897367776805437,38.601764982606504
pt.ine.add.PTCONT.4675819,AV LIBERDADE,85,2965-575,ÁGUAS DE MOURA,-8.696554707529843,38.584040822154535
pt.ine.add.PTCONT.4675820,CM 1029,,2950-437,PALMELA,-8.923675720997032,38.60880575479965
pt.ine.add.PTCONT.4675821,R EÇA DE QUEIRÓS,9,2950-343,PALMELA,-8.880524938259583,38.574966225834125
pt.ine.add.PTCONT.4675822,R MALMEQUERES,119,2950-027,PALMELA,-8.884581613685958,38.572228771515526
pt.ine.add.PTCONT.4675823,R HOLANDA,1,2950-064,PALMELA,-8.91934632735952,38.59080955381993
pt.ine.add.PTCONT.4675828,R LUIS DE CAMÕES,4,2950-064,PALMELA,-8.933345151138994,38.59974987565818
pt.ine.add.PTCONT.4675829,R 25 DE ABRIL,4,2950-064,PALMELA,-8.929921650267195,38.59846705082508
pt.ine.add.PTCONT.4675830,URB VALE DE TOUROS,,2950-042,PALMELA,-8.918012848450463,38.58956636547194
pt.ine.add.PTCONT.4675831,ESTR CARVALHOS,1,2950-312,PALMELA,-8.906558208717142,38.57672485109988
pt.ine.add.PTCONT.4676633,R BARCARROTA,93,2955-091,PINHAL NOVO,-8.90869796616128,38.620949902762106
pt.ine.add.PTCONT.4676658,R JOSE AUGUSTO XAVIER CCI,CCI 5303,2965-221,POCEIRÃO,-8.721997368075035,38.64004595519633
pt.ine.add.PTCONT.4676674,AV CAPITAES DE ABRIL,,2955-113,PINHAL NOVO,-8.919555382276334,38.63520036800626
pt.ine.add.PTCONT.4676680,R CONSTANTINO LOUREIRO,CCI 11015,2965-257,POCEIRÃO,-8.776231554197137,38.61418609731634
pt.ine.add.PTCONT.4676684,R FRANCOLINO ASCENSO,,2950-438,PALMELA,-8.887570150741691,38.61109798380421
pt.ine.add.PTCONT.4676694,ESTR ESPANHOIS,,2965-214,POCEIRÃO,-8.738452828013681,38.60273997681488
pt.ine.add.PTCONT.4676699,R MANUEL MARIA DO BOCAGE,22 03,2950-539,QUINTA DO ANJO,-8.9555871484705,38.577210335061345
pt.ine.add.PTCONT.4676700,R PADRE JOSE ESTEVENS DIAS,,2955-212,PINHAL NOVO,-8.91748718201499,38.63511516339447
pt.ine.add.PTCONT.4676729,R REI D DINIZ,32,2950-721,QUINTA DO ANJO,-8.94013334852512,38.569345644096565
pt.ine.add.PTCONT.4676730,AV DE GAVIA PALMELALI LLAGE,,2950-580,QUINTA DO ANJO,-8.953092036708608,38.57475959501226
pt.ine.add.PTCONT.4676731,R LAGOA DA PALHA,6,2955-047,PINHAL NOVO,-8.908848867196957,38.63175867780661
pt.ine.add.PTCONT.4676742,R MACHUQUEIRO,,2965-239,POCEIRÃO,-8.728582925321026,38.64888569144604
pt.ine.add.PTCONT.4676750,R 25 DE ABRIL,,2965-552,ÁGUAS DE MOURA,-8.773294049048058,38.58983491086391
pt.ine.add.PTCONT.4676763,R ANTÓNIO GEDEAO,4,2950-346,PALMELA,-8.881169488664813,38.57625929418512
pt.ine.add.PTCONT.4676769,R ALFREDO DINIS,2,2950-504,QUINTA DO ANJO,-9.004014777163375,38.60197473986372
pt.ine.add.PTCONT.4676773,R MACAU,25B,2950-607,QUINTA DO ANJO,-8.96914424417199,38.55481896796226
pt.ine.add.PTCONT.4676775,R PADRE JOSE ESTEVENS DIAS,,2955-212,PINHAL NOVO,-8.91748718201499,38.63511516339447
pt.ine.add.PTCONT.4676788,ESTR MARQUESA I,656,2950-678,QUINTA DO ANJO,-8.986127830023415,38.59211645456878
pt.ine.add.PTCONT.4676793,R SAMUEL LUPY SANTOS JORGE,84,2955-217,PINHAL NOVO,-8.916808040447057,38.637083486635426
pt.ine.add.PTCONT.4676796,AV CAPITAES DE ABRIL,,2955-113,PINHAL NOVO,-8.919555382276334,38.63520036800626
pt.ine.add.PTCONT.4676800,ACEIRO JOSE MARQUES TAPADO,,2955-227,PINHAL NOVO,-8.924763268534244,38.64507417252284
pt.ine.add.PTCONT.4676801,R CONSTANTINO LOUREIRO,CCI 11015,2965-257,POCEIRÃO,-8.776231554197137,38.61418609731634
pt.ine.add.PTCONT.4676862,R PROJECTADA Á RUA DA CONSTITUIÇÃO,5,2950-805,QUINTA DO ANJO,-8.942376042939207,38.60150742125616
pt.ine.add.PTCONT.4676863,R D JOSÉ AFONSO,35,2950-805,QUINTA DO ANJO,-9.009282178761467,38.601836329605845
pt.ine.add.PTCONT.4676864,R D JOSÉ AFONSO,35,2950-805,QUINTA DO ANJO,-9.009282178761467,38.601836329605845
pt.ine.add.PTCONT.4676876,R JOSÉ LUIS CIPRIANO,,2954-026,QUINTA DO ANJO,-8.936118717082932,38.565346579481826
pt.ine.add.PTCONT.4676879,R JOSE MATIAS MIRANDA,,2965-241,POCEIRÃO,-8.775659582662161,38.66194878507489
pt.ine.add.PTCONT.4676902,AV CAPITAES DE ABRIL,,2955-113,PINHAL NOVO,-8.919555382276334,38.63520036800626
pt.ine.add.PTCONT.4676903,AV CAPITAES DE ABRIL,,2955-113,PINHAL NOVO,-8.919555382276334,38.63520036800626
pt.ine.add.PTCONT.4676904,AV CAPITAES DE ABRIL,,2955-113,PINHAL NOVO,-8.919555382276334,38.63520036800626
pt.ine.add.PTCONT.4676905,AV CAPITAES ABRIL C,C23,2955-113,PINHAL NOVO,-8.919555382276334,38.63520036800626
pt.ine.add.PTCONT.4676906,AV CAPITAES DE ABRIL,,2955-113,PINHAL NOVO,-8.919555382276334,38.63520036800626
pt.ine.add.PTCONT.4676907,AV CAPITAES DE ABRIL,,2955-113,PINHAL NOVO,-8.919555382276334,38.63520036800626
pt.ine.add.PTCONT.4676917,R MOÇAMBIQUE,42U,2950-116,PALMELA,-8.881413913969645,38.565528914177634
pt.ine.add.PTCONT.4676956,R AVIARIO,,2950-064,PALMELA,-8.924271577397576,38.5940643507817
pt.ine.add.PTCONT.4677266,R EÇA DE QUEIRÓZ,4,2950-552,QUINTA DO ANJO,-8.94573865073995,38.603465914700614
pt.ine.add.PTCONT.4677267,R MIGUEL CÂNDIDO,15 AF,2950-619,QUINTA DO ANJO,-8.98008897631718,38.55876696425116
pt.ine.add.PTCONT.4677268,R PRIMAVERA,10,2950-037,QUINTA DO ANJO,-9.011768461253117,38.591088993579014
pt.ine.add.PTCONT.4677309,R 9 DE MARÇO,21,2965-505,ÁGUAS DE MOURA,-8.7835273747318,38.57149169728437
pt.ine.add.PTCONT.4677424,R ALJUBARROTA,31,2950-029,PALMELA,-8.887251948398365,38.5728822765721
pt.ine.add.PTCONT.4677425,R RIBEIRA,1,2950-054,PALMELA,-8.897889301049853,38.558945500510745
pt.ine.add.PTCONT.4677426,R RIBEIRA,1,2950-054,PALMELA,-8.897889301049853,38.558945500510745
pt.ine.add.PTCONT.4677463,R PADRE JOSE ESTEVENS DIAS,,2955-212,PINHAL NOVO,-8.91748718201499,38.63511516339447
pt.ine.add.PTCONT.4677498,R GONÇALO VELHO CABRAL,23,2950-696,QUINTA DO ANJO,-8.949287821441768,38.564093436084555
pt.ine.add.PTCONT.4678290,R CÍRIO DOS OLHOS DE ÁGUA,,2955-353,PINHAL NOVO,-8.94017075090299,38.61471960371831
pt.ine.add.PTCONT.4678291,R MACA RISCADINHA,CCI 4713,2955-299,PINHAL NOVO,-8.87314858755392,38.61878397623845
pt.ine.add.PTCONT.4678292,QTA MARQUESA,,2950-680,QUINTA DO ANJO,-8.98413146425822,38.590239275040794
