id,street,house,postcode,city,lon,lat
pt.ine.add.PTCONT.3540109,R CENTRAL DA GANDRA,1347,4585-116,GANDRA PRD,-8.446560371061109,41.18371519434948
pt.ine.add.PTCONT.3540110,R CENTRAL DA GANDRA,1347,4585-116,GANDRA PRD,-8.446560371061109,41.18371519434948
pt.ine.add.PTCONT.3540111,R CENTRAL DA GANDRA,1347,4585-116,GANDRA PRD,-8.446560371061109,41.18371519434948
pt.ine.add.PTCONT.3540112,R CENTRAL DA GANDRA,1347,4585-116,GANDRA PRD,-8.446560371061109,41.18371519434948
pt.ine.add.PTCONT.3540113,R CENTRAL DA GANDRA,1347,4585-116,GANDRA PRD,-8.446560371061109,41.18371519434948
pt.ine.add.PTCONT.3540114,R CENTRAL DA GANDRA,1347,4585-116,GANDRA PRD,-8.446560371061109,41.18371519434948
pt.ine.add.PTCONT.3540115,R CENTRAL DA GANDRA,1347,4585-116,GANDRA PRD,-8.446560371061109,41.18371519434948
pt.ine.add.PTCONT.3540116,R CENTRAL DA GANDRA,1347,4585-116,GANDRA PRD,-8.446560371061109,41.18371519434948
pt.ine.add.PTCONT.3540117,R CENTRAL DA GANDRA,1347,4585-116,GANDRA PRD,-8.446560371061109,41.18371519434948
pt.ine.add.PTCONT.3540118,R CENTRAL DA GANDRA,1179,4585-116,GANDRA PRD,-8.44294054325241,41.18192412264008
pt.ine.add.PTCONT.3540119,R DR ANTÓNIO RODRIGUES MOREIRA,29,4580-592,MOURIZ,-8.342778142900935,41.196944128664065
pt.ine.add.PTCONT.3540120,R CRUZ,,4580-594,MOURIZ,-8.354643465131653,41.19805646006234
pt.ine.add.PTCONT.3540121,R ALTO DO CARVALHINHO,,4585-883,PARADA DE TODEIA,-8.384686092720974,41.17334088837624
pt.ine.add.PTCONT.3540122,R CALVÁRIO,85,4585-268,PARADA DE TODEIA,-8.370764963512181,41.1694355497265
pt.ine.add.PTCONT.3540123,R CRUZ ALMAS,117,4585-271,PARADA DE TODEIA,-8.3689247831327,41.168016642828334
pt.ine.add.PTCONT.3540124,RAMP S JOSE,85,4580-095,VILELA PRD,-8.373286464030599,41.252909130289105
pt.ine.add.PTCONT.3540125,RAMP BAIRRO,51,4580-641,VILELA PRD,-8.384427194617839,41.24586205006244
pt.ine.add.PTCONT.3540126,R CALVÁRIO,26,4580-645,VILELA PRD,-8.381085867799717,41.24246569119957
pt.ine.add.PTCONT.3540301,R CENTRAL DA GANDRA,1179,4585-116,GANDRA PRD,-8.44294054325241,41.18192412264008
pt.ine.add.PTCONT.3540302,R CENTRAL DA GANDRA,1179,4585-116,GANDRA PRD,-8.44294054325241,41.18192412264008
pt.ine.add.PTCONT.3540303,R CENTRAL DA GANDRA,1179,4585-116,GANDRA PRD,-8.44294054325241,41.18192412264008
pt.ine.add.PTCONT.3540304,R CENTRAL DA GANDRA,1179,4585-116,GANDRA PRD,-8.44294054325241,41.18192412264008
pt.ine.add.PTCONT.3540305,R CENTRAL DA GANDRA,1179,4585-116,GANDRA PRD,-8.44294054325241,41.18192412264008
pt.ine.add.PTCONT.3540306,R CENTRAL DA GANDRA,1179,4585-116,GANDRA PRD,-8.44294054325241,41.18192412264008
pt.ine.add.PTCONT.3540307,R CENTRAL DA GANDRA,1179,4585-116,GANDRA PRD,-8.44294054325241,41.18192412264008
pt.ine.add.PTCONT.3540308,R CENTRAL DA GANDRA,1179,4585-116,GANDRA PRD,-8.44294054325241,41.18192412264008
pt.ine.add.PTCONT.3540309,R CENTRAL DA GANDRA,1179,4585-116,GANDRA PRD,-8.44294054325241,41.18192412264008
pt.ine.add.PTCONT.3540310,R CENTRAL DA GANDRA,1179,4585-116,GANDRA PRD,-8.44294054325241,41.18192412264008
pt.ine.add.PTCONT.3540311,R CENTRAL DA GANDRA,1179,4585-116,GANDRA PRD,-8.44294054325241,41.18192412264008
pt.ine.add.PTCONT.3540312,R CENTRAL DA GANDRA,1179,4585-116,GANDRA PRD,-8.44294054325241,41.18192412264008
pt.ine.add.PTCONT.3540313,R CENTRAL DA GANDRA,1179,4585-116,GANDRA PRD,-8.44294054325241,41.18192412264008
pt.ine.add.PTCONT.3540314,R CENTRAL DA GANDRA,1179,4585-116,GANDRA PRD,-8.44294054325241,41.18192412264008
pt.ine.add.PTCONT.3540315,R CENTRAL DA GANDRA,1179,4585-116,GANDRA PRD,-8.44294054325241,41.18192412264008
pt.ine.add.PTCONT.3540316,R S LUZIA,145,4585-447,REBORDOSA,-8.403447192855614,41.22644181407674
pt.ine.add.PTCONT.3540317,R PROF ALBERTO MACHADO COSTA RANGEL,118,4585-343,REBORDOSA,-8.406116445129683,41.22875861712381
pt.ine.add.PTCONT.3540318,R CASAIS,64,4580-649,VILELA PRD,-8.386332345403552,41.241823975679246
pt.ine.add.PTCONT.3540319,R CUNHA,275,4580-698,VILELA PRD,-8.373800698300075,41.249981681388455
pt.ine.add.PTCONT.3540705,R VALE,,4585-061,BALTAR,-8.3917155374342,41.19416135222759
pt.ine.add.PTCONT.3540515,R BERNARDINO FERREIRA SALES,84,4585-300,AGUIAR DE SOUSA,-8.417713144882862,41.130502202675835
pt.ine.add.PTCONT.3540516,R CENTRAL DE ALVRE,339,4585-008,AGUIAR DE SOUSA,-8.411978557194052,41.12620310979542
pt.ine.add.PTCONT.3540517,,,4585-001,AGUIAR DE SOUSA,-8.439784168785028,41.115885407622585
pt.ine.add.PTCONT.3540518,R SOUTO,,4580-207,PAREDES,-8.325108491038229,41.204259431974755
pt.ine.add.PTCONT.3540519,R CENTRAL DA GANDRA,1179,4585-116,GANDRA PRD,-8.44294054325241,41.18192412264008
pt.ine.add.PTCONT.3540520,R CENTRAL DA GANDRA,1179,4585-116,GANDRA PRD,-8.44294054325241,41.18192412264008
pt.ine.add.PTCONT.3540521,R FLOR DO VALE,120,4585-146,GANDRA PRD,-8.437978524151644,41.18107294788788
pt.ine.add.PTCONT.3540522,R GUIMBRA,149,4585-162,GANDRA PRD,-8.43665725959489,41.17885236653193
pt.ine.add.PTCONT.3540523,R GUIMBRA,149,4585-162,GANDRA PRD,-8.43665725959489,41.17885236653193
pt.ine.add.PTCONT.3540524,R OUTEIRO DO CABO,175,4585-473,REBORDOSA,-8.406946983273018,41.2248577976667
pt.ine.add.PTCONT.3540525,TV FIJO,121,4585-851,REBORDOSA,-8.423682103523163,41.22544708380072
pt.ine.add.PTCONT.3540526,R BOAVISTA,294 D,4580-643,VILELA PRD,-8.368411575247418,41.24766072375289
pt.ine.add.PTCONT.3540527,R BOAVISTA E,E,4580-643,VILELA PRD,-8.368411575247418,41.24766072375289
pt.ine.add.PTCONT.3540528,R BOAVISTA,,4580-643,VILELA PRD,-8.368411575247418,41.24766072375289
pt.ine.add.PTCONT.3540707,R FIGUEIRA,,4580-312,CETE,-8.359298985764614,41.18599962343558
pt.ine.add.PTCONT.3540703,R FERREIRA E NETO,335,4585-814,ASTROMIL,-8.419493680022393,41.20031760734613
pt.ine.add.PTCONT.3540704,LG COMEND PEREIRA INÁCIO,,4585-026,BALTAR,-8.388876480474943,41.193663450261695
pt.ine.add.PTCONT.3540706,R NOVA MONTE PASSAGEM,46,4580-169,PAREDES,-8.32432362435232,41.20085710806433
pt.ine.add.PTCONT.3540708,AV CARDAL,611,4580-317,CETE,-8.348709481624102,41.18076139892317
pt.ine.add.PTCONT.3540709,AV BARÃO LOURENÇO MARTINS,336 C,4580-336,CETE,-8.352407171377571,41.178098135878756
pt.ine.add.PTCONT.3540710,R SOUTO,28,4580-402,GONDALÃES,-8.33424972087951,41.23041929329964
pt.ine.add.PTCONT.3540711,R TORRE,335,4580-557,LORDELO PRD,-8.41016503903879,41.24980087592698
pt.ine.add.PTCONT.3540712,PCT S MARCOS,43,4585-450,REBORDOSA,-8.415432838749773,41.22354969486005
pt.ine.add.PTCONT.3540713,R COCULUDO,11 B,4585-310,REBORDOSA,-8.409429308166198,41.22242071466525
pt.ine.add.PTCONT.3540714,R BOAVISTA,249,4580-643,VILELA PRD,-8.368411575247418,41.24766072375289
pt.ine.add.PTCONT.3540715,R BOAVISTA,,4580-643,VILELA PRD,-8.368411575247418,41.24766072375289
pt.ine.add.PTCONT.3540716,R BOAVISTA,,4580-643,VILELA PRD,-8.368411575247418,41.24766072375289
pt.ine.add.PTCONT.3540717,R BOAVISTA,249,4580-643,VILELA PRD,-8.368411575247418,41.24766072375289
pt.ine.add.PTCONT.3540718,R TALHOS,76,4580-689,VILELA PRD,-8.369385351201226,41.24640714051748
pt.ine.add.PTCONT.3540719,TV SA,,4580-706,VILELA PRD,-8.373363629288429,41.24466108985719
pt.ine.add.PTCONT.3540720,R ALDEIA NOVA,392,4580-636,VILELA PRD,-8.39368136938975,41.24496806826189
pt.ine.add.PTCONT.3540898,BR COOPERATIVA DE HABITACAO O NINHO O NINHO CHE,25,4585-027,BALTAR,-8.382296956443305,41.193830947467106
pt.ine.add.PTCONT.3540899,BR COOPERATIVA DE HABITACAO O NINHO O NINHO CHE,25,4585-027,BALTAR,-8.382296956443305,41.193830947467106
pt.ine.add.PTCONT.3540900,R VALE,65,4585-061,BALTAR,-8.390581461013237,41.19374969444775
pt.ine.add.PTCONT.3540901,R SOBREIRO,294,4585-062,BALTAR,-8.391876137970502,41.18348185919701
pt.ine.add.PTCONT.3540902,R CAPELA DAS ALMAS,559,4585-030,BALTAR,-8.370695557133669,41.193099101521035
pt.ine.add.PTCONT.3540903,AV BARÃO LOURENÇO MARTINS,,4580-336,CETE,-8.353541947505018,41.17887034352847
pt.ine.add.PTCONT.3540904,R VÁRZEA,205,4580-311,CETE,-8.349663401044063,41.17366418207733
pt.ine.add.PTCONT.3540905,R NSA SRA DO ALIVIO,415,4580-511,LORDELO PRD,-8.412702843910644,41.24619304830531
pt.ine.add.PTCONT.3540906,R FOLHEDO,180,4580-458,LORDELO PRD,-8.419946157024553,41.24386114314365
pt.ine.add.PTCONT.3540907,R PRESA DA BOUCA,60,4585-500,REBORDOSA,-8.409133893564011,41.21456068735708
pt.ine.add.PTCONT.3540908,R PRESA DA BOUCA,130,4585-500,REBORDOSA,-8.410120947121264,41.21392801724759
pt.ine.add.PTCONT.3540909,RAMP MURO,2,4585-464,REBORDOSA,-8.415316655250892,41.213168046155396
pt.ine.add.PTCONT.3540910,R MAIA,165,4580-666,VILELA PRD,-8.380786031317921,41.23572215350352
pt.ine.add.PTCONT.3541053,R D ALBERTINA MEIRELES,124,4580-352,CRISTELO PRD,-8.36442461735081,41.22673391161121
pt.ine.add.PTCONT.3541054,TV COSTA VERDE,110,4580-425,LORDELO PRD,-8.43663143264283,41.23518329963454
pt.ine.add.PTCONT.3541055,RAMP PENEDO,77,4585-490,REBORDOSA,-8.416831468539241,41.21327237546415
pt.ine.add.PTCONT.3541056,PCT FERNANDO GONÇALVES,92,4585-537,REBORDOSA,-8.416400066956594,41.21001388481366
pt.ine.add.PTCONT.3541057,AV CENTRAL DA PORTELA,226,4585-378,REBORDOSA,-8.426992435788605,41.20030772031912
pt.ine.add.PTCONT.3541221,R NSA SRA DAS NECESSIDADES,25,4585-047,BALTAR,-8.388487151945451,41.19163834182894
pt.ine.add.PTCONT.3541222,R FERREIRO,34,4585-041,BALTAR,-8.38871698725462,41.186370300427704
pt.ine.add.PTCONT.3541223,R CALVÁRIO,283,4585-028,BALTAR,-8.38288561151878,41.18561772624203
pt.ine.add.PTCONT.3541224,R LAMEIRO DO CABO,357,4585-045,BALTAR,-8.382105006442519,41.17777663680254
pt.ine.add.PTCONT.3541225,R GAJAO,79,4580-350,CRISTELO PRD,-8.36484777789314,41.22160062433979
pt.ine.add.PTCONT.3541226,R JABEL,114,4585-897,RECAREI,-8.416731743793406,41.154258223804696
pt.ine.add.PTCONT.3541227,R PADRE ADRIANO MOREIRA MARTINS,582,4585-898,RECAREI,-8.43465793084489,41.16648564390229
pt.ine.add.PTCONT.3541228,TV PRAZERES,50,4585-590,RECAREI,-8.445774386226155,41.15628107280302
pt.ine.add.PTCONT.3541387,R MOINHOS,24,4580-282,BEIRE,-8.310605840107424,41.246557775870436
pt.ine.add.PTCONT.3541388,R TIJORES,1,4580-282,BEIRE,-8.309961150995814,41.24638768724931
pt.ine.add.PTCONT.3541389,R BAIRROS,179,4580-282,BEIRE,-8.309615744015307,41.24216522536453
pt.ine.add.PTCONT.3541390,R VINCAS,31,4580-281,BEIRE,-8.318856445927025,41.24054793272158
pt.ine.add.PTCONT.3541391,AV PADRE AMÉRICO,506,4580-147,BEIRE,-8.323505506547464,41.23941480762059
pt.ine.add.PTCONT.3541392,R CAPELAO,199,4580-650,DUAS IGREJAS PRD,-8.36856066471914,41.23934049762298
pt.ine.add.PTCONT.3541393,TV SANTEIRAS DE CIMA,90,4580-394,DUAS IGREJAS PRD,-8.382850533357193,41.22342687340656
pt.ine.add.PTCONT.3541394,AV 13 MAIO,,4580-369,DUAS IGREJAS PRD,-8.383579798787414,41.223893511729706
pt.ine.add.PTCONT.3541395,AV 13 MAIO,1455,4580-369,DUAS IGREJAS PRD,-8.383579798787414,41.223893511729706
pt.ine.add.PTCONT.3541396,TV ALDEIA NOVA,3,4580-374,DUAS IGREJAS PRD,-8.385023531873008,41.22407044788902
pt.ine.add.PTCONT.3541397,R COSTA VERDE,106,4580-424,LORDELO PRD,-8.43586680104214,41.232330964559736
pt.ine.add.PTCONT.3541398,R COSTA VERDE,292,4580-424,LORDELO PRD,-8.437270817604798,41.231588915552486
pt.ine.add.PTCONT.3541399,R OUTEIRO,24,4580-462,LORDELO PRD,-8.421104975800334,41.24151714811145
pt.ine.add.PTCONT.3541400,R OUTEIRO,332,4580-462,LORDELO PRD,-8.419371298273456,41.24334933213619
pt.ine.add.PTCONT.3541401,R OUTEIRO,332,4580-462,LORDELO PRD,-8.419371298273456,41.24334933213619
pt.ine.add.PTCONT.3541402,R S MARIA MADALENA,30,4585-583,RECAREI,-8.445399678738127,41.15514753822042
pt.ine.add.PTCONT.3541403,R NOVA,126,4585-583,RECAREI,-8.448872329482871,41.14890704099504
pt.ine.add.PTCONT.3541404,R DALIAS,37,4585-591,RECAREI,-8.417988653605189,41.150140119565364
pt.ine.add.PTCONT.3541405,R LOPES,51,4585-618,RECAREI,-8.44412986983997,41.14863180292216
pt.ine.add.PTCONT.3541580,R CRUZEIRO,66,4580-284,BEIRE,-8.316793280123965,41.23649032313508
pt.ine.add.PTCONT.3541581,CC CRUZES,,4580-817,LORDELO PRD,-8.415311171702328,41.242404905051195
pt.ine.add.PTCONT.3541582,R ANTERO FERREIRA LEAL,,4580-416,LORDELO PRD,-8.427385972313077,41.240240673082376
pt.ine.add.PTCONT.3541583,R RIBEIRINHOS,216,4580-467,LORDELO PRD,-8.430207411353916,41.238972833610234
pt.ine.add.PTCONT.3541584,R S JOSE,390,4580-434,LORDELO PRD,-8.427113178524273,41.23260576651695
pt.ine.add.PTCONT.3541585,TV REGATO,38,4580-854,LORDELO PRD,-8.432325313859192,41.229936084957025
pt.ine.add.PTCONT.3541586,R RIBEIRO,87,4585-621,RECAREI,-8.4048129059269,41.15006389793989
pt.ine.add.PTCONT.3541735,R LUIS DE CAMÕES,67,4585-171,GANDRA PRD,-8.445247017484984,41.19327234712703
pt.ine.add.PTCONT.3541727,R CARCAVELOS,196,4580-788,BITARÃES,-8.299954983164,41.22889834358684
pt.ine.add.PTCONT.3541728,URB SOUTO,46,4580-294,BITARÃES,-8.326437276978384,41.21824088336296
pt.ine.add.PTCONT.3541729,AV PADRE LUIS PINTO CARNEIRO,1154,4585-172,GANDRA PRD,-8.451068749482939,41.20406158853251
pt.ine.add.PTCONT.3541730,R BAIRRO DA POLÍCIA,103,4585-202,GANDRA PRD,-8.450872821945172,41.20545779521659
pt.ine.add.PTCONT.3541731,R BAIRRO DA POLÍCIA,103,4585-202,GANDRA PRD,-8.450872821945172,41.20545779521659
pt.ine.add.PTCONT.3541732,R BAIRRO DA POLÍCIA,103,4585-202,GANDRA PRD,-8.450872821945172,41.20545779521659
pt.ine.add.PTCONT.3541733,R BAIRRO DA POLÍCIA,103,4585-202,GANDRA PRD,-8.450872821945172,41.20545779521659
pt.ine.add.PTCONT.3541734,R LUIS DE CAMÕES,67,4585-171,GANDRA PRD,-8.445247017484984,41.19327234712703
pt.ine.add.PTCONT.3541736,R LUIS DE CAMÕES,67,4585-171,GANDRA PRD,-8.445247017484984,41.19327234712703
pt.ine.add.PTCONT.3541737,R S MIGUEL DA GANDRA,9,4585-175,GANDRA PRD,-8.446543371665392,41.19264752865289
pt.ine.add.PTCONT.3541738,R S MIGUEL GANDRA,N 1OO,4585-175,GANDRA PRD,-8.446664979939394,41.19315143928578
pt.ine.add.PTCONT.3541739,R CAMPA,155,4580-518,LORDELO PRD,-8.412815950868362,41.24194277286211
pt.ine.add.PTCONT.3541740,R CAMPA,155,4580-518,LORDELO PRD,-8.412815950868362,41.24194277286211
pt.ine.add.PTCONT.3541741,R FONTE DA SERRA,167,4585-682,SOBREIRA,-8.39074363498546,41.15300464038934
pt.ine.add.PTCONT.3541742,R CENTRAL DOS VALINHOS,179,4585-486,SOBREIRA,-8.391265419230534,41.14935669570982
pt.ine.add.PTCONT.3541743,R CENTRAL DOS VALINHOS,179,4585-486,SOBREIRA,-8.391265419230534,41.14935669570982
pt.ine.add.PTCONT.3541744,R CENTRAL DA QUINTA,38,4585-687,SOBREIRA,-8.384353764404661,41.142492619895535
pt.ine.add.PTCONT.3541914,R LINHEIRA,74,4580-297,BITARÃES,-8.307031182657585,41.221216228963065
pt.ine.add.PTCONT.3541915,R PRESA NEGRA,49,4580-307,BITARÃES,-8.313469041845913,41.22484405496267
pt.ine.add.PTCONT.3541916,R BAIXINHO,61,4580-184,PAREDES,-8.323090568108144,41.21558118367914
pt.ine.add.PTCONT.3541917,R CANCELAS,99,4580-051,PAREDES,-8.327378807525342,41.21402529113101
pt.ine.add.PTCONT.3541918,TV CANCELAS,23,4580-051,PAREDES,-8.32658089283408,41.21436879755655
pt.ine.add.PTCONT.3541919,TV CANCELAS,19,4580-051,PAREDES,-8.32658089283408,41.21436879755655
pt.ine.add.PTCONT.3541920,R CENTRAL GANDRA,375,4585-116,GANDRA PRD,-8.43591649287417,41.19397258078572
pt.ine.add.PTCONT.3541921,AV ADELINO AMARO DA COSTA,11,4580-795,LORDELO PRD,-8.413275392608426,41.23779069876009
pt.ine.add.PTCONT.3541922,AV ADELINO AMARO DA COSTA,11,4580-795,LORDELO PRD,-8.413275392608426,41.23779069876009
pt.ine.add.PTCONT.3541923,AV ADELINO AMARO DA COSTA,11,4580-795,LORDELO PRD,-8.413275392608426,41.23779069876009
pt.ine.add.PTCONT.3541924,AV ADELINO AMARO DA COSTA,11,4580-795,LORDELO PRD,-8.413275392608426,41.23779069876009
pt.ine.add.PTCONT.3541925,AV ADELINO AMARO DA COSTA,11,4580-795,LORDELO PRD,-8.413275392608426,41.23779069876009
pt.ine.add.PTCONT.3541926,AV ADELINO AMARO DA COSTA,11,4580-795,LORDELO PRD,-8.413275392608426,41.23779069876009
pt.ine.add.PTCONT.3541927,AV ADELINO AMARO DA COSTA,11,4580-795,LORDELO PRD,-8.413275392608426,41.23779069876009
pt.ine.add.PTCONT.3541928,AV ADELINO AMARO DA COSTA,11,4580-795,LORDELO PRD,-8.413275392608426,41.23779069876009
pt.ine.add.PTCONT.3541929,AV ADELINO AMARO DA COSTA,11,4580-795,LORDELO PRD,-8.413275392608426,41.23779069876009
pt.ine.add.PTCONT.3541930,AV ADELINO AMARO DA COSTA,11,4580-795,LORDELO PRD,-8.413275392608426,41.23779069876009
pt.ine.add.PTCONT.3541931,AV S PEDRO,1071,4585-404,SOBREIRA,-8.392362924674952,41.14975042400138
pt.ine.add.PTCONT.3542139,AV CENTRAL DO OURAL,95,4580-072,PAREDES,-8.318128196440194,41.21495896292675
pt.ine.add.PTCONT.3542140,R ESTREBUELA,64,4580-091,PAREDES,-8.32611591368446,41.210335653182035
pt.ine.add.PTCONT.3542141,R ESTREBUELA,64,4580-091,PAREDES,-8.32611591368446,41.210335653182035
pt.ine.add.PTCONT.3542142,R CALÇADA,27,4585-101,GANDRA PRD,-8.427115461068825,41.190501708911626
pt.ine.add.PTCONT.3542143,R MOINHOS,241,4585-177,GANDRA PRD,-8.418159370989533,41.18129478599959
pt.ine.add.PTCONT.3542144,R PORTELA MOINHO,143,4585-204,GANDRA PRD,-8.441344662015378,41.1847197471773
pt.ine.add.PTCONT.3542145,TV VILARINHO DE BAIXO,23,4585-230,GANDRA PRD,-8.45391482591717,41.19115952790646
pt.ine.add.PTCONT.3542146,R S CRUZ,7,4585-128,GANDRA PRD,-8.44253645704106,41.1846985428089
pt.ine.add.PTCONT.3542147,R PINHAL,855,4585-713,SOBREIRA,-8.401288805698481,41.15056739755499
pt.ine.add.PTCONT.3542148,R SOL,44,4585-661,SOBREIRA,-8.39620573300733,41.13956674365285
pt.ine.add.PTCONT.3542149,R EMIGRANTE,96,4585-728,SOBREIRA,-8.392076565831818,41.137523095489016
pt.ine.add.PTCONT.3542379,R PINGUELA,5,4580-849,LORDELO PRD,-8.416312908951605,41.231273192821256
pt.ine.add.PTCONT.3542375,R S JOSE,217,4580-119,PAREDES,-8.320113237871617,41.208544696832796
pt.ine.add.PTCONT.3542376,R S JOSE,217,4580-119,PAREDES,-8.320113237871617,41.208544696832796
pt.ine.add.PTCONT.3542377,AV DR FRANCISCO SA CARNEIRO,,4580-104,PAREDES,-8.323906049748178,41.20485571473017
pt.ine.add.PTCONT.3542378,R VALBOM ACAMPAMENTO ETNIA CIGANA,,4580-214,PAREDES,-8.334616187351923,41.209924904132976
pt.ine.add.PTCONT.3542380,R CASIMIRO NETO SILVA,06,4580-581,LOUREDO PRD,-8.354936477794144,41.23186700402047
pt.ine.add.PTCONT.3542381,AV S BENTO,6,4580-581,LOUREDO PRD,-8.331872692362102,41.24107545918409
pt.ine.add.PTCONT.3542382,R FORCA,48,4580-581,LOUREDO PRD,-8.333868191588897,41.24216151147142
pt.ine.add.PTCONT.3542383,R FORCA,48,4580-581,LOUREDO PRD,-8.333868191588897,41.24216151147142
pt.ine.add.PTCONT.3542384,R EIRA VELHA,,4580-581,LOUREDO PRD,-8.345072563701835,41.23560434340328
pt.ine.add.PTCONT.3542385,R OUTEIRO,130,4585-686,SOBREIRA,-8.403457378765566,41.110060457053976
pt.ine.add.PTCONT.3542386,R OUTEIRO SANTA COMBA,78,4585-742,SOBREIRA,-8.402253763964875,41.10977513263573
pt.ine.add.PTCONT.3542387,R PEIAS,448,4585-543,SOBREIRA,-8.398360628873043,41.109757148009756
pt.ine.add.PTCONT.3542388,R ESTRADA,383,4580-626,SOBROSA,-8.345452644716485,41.25721382205687
pt.ine.add.PTCONT.3542579,LG REDONDA,12,4580-270,PAREDES,-8.33606364455552,41.21530693065188
pt.ine.add.PTCONT.3542580,R DOMINGOS BRAGANÇA,172,4580-618,SOBROSA,-8.362456781829588,41.25063513240407
pt.ine.add.PTCONT.3542581,R ALCACES,56,4580-609,SOBROSA,-8.360858722074079,41.247396779559296
pt.ine.add.PTCONT.3542582,R D AFONSO III,163,4580-744,SOBROSA,-8.355473899574573,41.246146711178234
pt.ine.add.PTCONT.3542792,R PADRE MARCELINO CONCEIÇÃO,16,4580-140,PAREDES,-8.327413678615976,41.205660237727464
pt.ine.add.PTCONT.3542793,R VINHA,41,4585-539,GANDRA PRD,-8.4459067326696,41.18411316188125
pt.ine.add.PTCONT.3542794,R VINHA,41,4585-539,GANDRA PRD,-8.4459067326696,41.18411316188125
pt.ine.add.PTCONT.3542795,R VINHA,41,4585-539,GANDRA PRD,-8.4459067326696,41.18411316188125
pt.ine.add.PTCONT.3542796,R VINHA,41,4585-539,GANDRA PRD,-8.4459067326696,41.18411316188125
pt.ine.add.PTCONT.3542797,R VINHA,41,4585-539,GANDRA PRD,-8.4459067326696,41.18411316188125
pt.ine.add.PTCONT.3542798,R VINHA,41,4585-539,GANDRA PRD,-8.4459067326696,41.18411316188125
pt.ine.add.PTCONT.3542799,R VINHA,41,4585-539,GANDRA PRD,-8.4459067326696,41.18411316188125
pt.ine.add.PTCONT.3542800,R VINHA,41,4585-539,GANDRA PRD,-8.4459067326696,41.18411316188125
pt.ine.add.PTCONT.3542801,R VINHA,41,4585-539,GANDRA PRD,-8.4459067326696,41.18411316188125
pt.ine.add.PTCONT.3542802,R VINHA,41,4585-539,GANDRA PRD,-8.4459067326696,41.18411316188125
pt.ine.add.PTCONT.3542803,R ALBERTO COELHO MOREIRA,,4585-082,GANDRA PRD,-8.432111726180384,41.177792740092514
pt.ine.add.PTCONT.3542804,AV CENTRAL DE REIROS,156,4585-774,VANDOMA,-8.384191463418356,41.215437160916316
pt.ine.add.PTCONT.3542805,AV CENTRAL DE REIROS,313,4585-774,VANDOMA,-8.386724446123619,41.213639757110144
pt.ine.add.PTCONT.3542806,R ALMINHAS,47,4585-757,VANDOMA,-8.387643823542353,41.213952878802694
pt.ine.add.PTCONT.3542807,AV CENTRAL DE REIROS,665,4585-774,VANDOMA,-8.39225387284307,41.20975560154894
pt.ine.add.PTCONT.3548512,TV BACELO,16,4585-757,VANDOMA,-8.389448527426048,41.2119589276968
pt.ine.add.PTCONT.3543005,R ALBERTO COELHO MOREIRA,,4585-082,GANDRA PRD,-8.432111726180384,41.177792740092514
pt.ine.add.PTCONT.3543006,R ALBERTO COELHO MOREIRA,,4585-082,GANDRA PRD,-8.432111726180384,41.177792740092514
pt.ine.add.PTCONT.3543007,R ALBERTO COELHO MOREIRA,,4585-082,GANDRA PRD,-8.432111726180384,41.177792740092514
pt.ine.add.PTCONT.3543008,R ALBERTO COELHO MOREIRA,,4585-082,GANDRA PRD,-8.432111726180384,41.177792740092514
pt.ine.add.PTCONT.3543009,R ALBERTO COELHO MOREIRA,,4585-082,GANDRA PRD,-8.432111726180384,41.177792740092514
pt.ine.add.PTCONT.3543010,R ALBERTO COELHO MOREIRA,,4585-082,GANDRA PRD,-8.432111726180384,41.177792740092514
pt.ine.add.PTCONT.3543011,R PADRE AUGUSTO CORREIA,60,4580-245,PAREDES,-8.339173466841864,41.21071822228263
pt.ine.add.PTCONT.3543012,R RIBEIRO DE BAIXO,2,4580-271,PAREDES,-8.328022608520623,41.21398818609012
pt.ine.add.PTCONT.3543013,R MOGUEIRA,,4580-594,MOURIZ,-8.357506433660419,41.20208484948722
pt.ine.add.PTCONT.3543014,TV S SILVESTRE,94,4585-064,VANDOMA,-8.399703175208094,41.18847942046641
pt.ine.add.PTCONT.3544642,R 5 DE OUTUBRO,70,4580-079,MOURIZ,-8.364255567893164,41.192265800174965
pt.ine.add.PTCONT.3544650,TV SANTEIRAS DE CIMA,90,4580-394,DUAS IGREJAS PRD,-8.382850533357193,41.22342687340656
pt.ine.add.PTCONT.3544653,R CENTRAL DA QUINTA,173,4585-379,REBORDOSA,-8.404602035533816,41.22883423171709
pt.ine.add.PTCONT.3544673,R BOAVISTA,,4580-643,VILELA PRD,-8.368411575247418,41.24766072375289
pt.ine.add.PTCONT.3544787,R ALBERTO COELHO MOREIRA,,4585-082,GANDRA PRD,-8.432111726180384,41.177792740092514
pt.ine.add.PTCONT.3544850,R PADRE ADRIANO MOREIRA MARTINS,1030,4585-898,RECAREI,-8.43225186067096,41.16930127687019
pt.ine.add.PTCONT.3544853,R VÁRZEA DE CIMA,11,4580-311,CETE,-8.349335472327931,41.17541164274008
pt.ine.add.PTCONT.3544854,R EIRAS,185,4580-818,LORDELO PRD,-8.412208399129524,41.25055229624589
pt.ine.add.PTCONT.3544892,R NOVA DOS CASAIS,18,4585-190,GANDRA PRD,-8.420386442801579,41.191824316516175
pt.ine.add.PTCONT.3544911,R PISCINAS MUNICIPAIS,81,4580-503,LORDELO PRD,-8.413917911104264,41.23741095518887
pt.ine.add.PTCONT.3544953,R CENTRAL DA GANDARINHA,76,4585-041,BALTAR,-8.386820277840771,41.18596929928266
pt.ine.add.PTCONT.3544968,R CENTRAL DA GANDRA,1179,4585-116,GANDRA PRD,-8.44294054325241,41.18192412264008
pt.ine.add.PTCONT.3544969,PTO CASA QUEIMADA,93A,4585-375,REBORDOSA,-8.393119293743991,41.22957206893949
pt.ine.add.PTCONT.3545007,R CENTRAL DA GANDRA,1179,4585-116,GANDRA PRD,-8.44294054325241,41.18192412264008
pt.ine.add.PTCONT.3545008,R OUTEIRO CABO,173,4585-473,REBORDOSA,-8.406946983273018,41.2248577976667
pt.ine.add.PTCONT.3545009,R BOAVISTA,,4580-643,VILELA PRD,-8.368411575247418,41.24766072375289
pt.ine.add.PTCONT.3545083,R ESTREBUELA,64,4580-091,PAREDES,-8.32611591368446,41.210335653182035
pt.ine.add.PTCONT.3545105,ALDEIA DE CIMA,,4580-996,CETE,-8.360263320665183,41.17532757906462
pt.ine.add.PTCONT.3545109,TV D FAUSTINO MOREIRA SANTOS,30,4585-080,GANDRA PRD,-8.429699700688191,41.19261109796293
pt.ine.add.PTCONT.3545169,R VILA CHÃO,99,4580-868,LORDELO PRD,-8.415000712669768,41.239560324591004
pt.ine.add.PTCONT.3545211,R COSTA,86,4585-067,GANDRA PRD,-8.435582907943228,41.183654503354816
pt.ine.add.PTCONT.3545259,R TANQUE,,4585-662,SOBREIRA,-8.399602469920959,41.15481237565704
pt.ine.add.PTCONT.3545260,R TANQUE,199,4585-662,SOBREIRA,-8.398970439973912,41.15466076166657
pt.ine.add.PTCONT.3545365,AV CENTRAL DA PORTELA,226,4585-378,REBORDOSA,-8.426992435788605,41.20030772031912
pt.ine.add.PTCONT.3545640,AV JOSE VIEIRA CAMPOS,48,4585-709,SOBREIRA,-8.402672996948214,41.15113144300776
pt.ine.add.PTCONT.3545641,AV JOSE VIEIRA CAMPOS,48,4585-709,SOBREIRA,-8.402672996948214,41.15113144300776
pt.ine.add.PTCONT.3545915,RAMP MURO,63,4585-464,REBORDOSA,-8.414350812096316,41.21317040897953
pt.ine.add.PTCONT.3545916,AV CENTRAL DE REIROS,502,4585-774,VANDOMA,-8.38998375977664,41.21161557197861
pt.ine.add.PTCONT.3545993,R GRANJA FONSECA,120,4580-312,CETE,-8.35437649811135,41.178958786764184
pt.ine.add.PTCONT.3546005,R DIVINO ESPÍRITO SANTO,,4580-003,DUAS IGREJAS PRD,-8.36319305578465,41.2394503949889
pt.ine.add.PTCONT.3546006,AV 13 DE MAIO,1113,4580-369,DUAS IGREJAS PRD,-8.381704498339856,41.226274703102824
pt.ine.add.PTCONT.3546008,R FLORESTA,209,4580-430,LORDELO PRD,-8.433903930944167,41.23346164048321
pt.ine.add.PTCONT.3546009,R CASAIS,321,4585-111,GANDRA PRD,-8.423378787582672,41.19190685684738
pt.ine.add.PTCONT.3546070,R PADRE RUBENS MARQUES,61,4580-660,VILELA PRD,-8.389730919523142,41.23539642147076
pt.ine.add.PTCONT.3546072,R ANTERO FERREIRA LEAL,1904,4580-416,LORDELO PRD,-8.42827845178606,41.23975215956189
pt.ine.add.PTCONT.3546092,R FONTENARIO,106,4585-593,AGUIAR DE SOUSA,-8.418545214339048,41.13013996743146
pt.ine.add.PTCONT.3548298,R EÇA DE QUEIRÓS,33,4580-084,PAREDES,-8.340052615294251,41.20591735321327
pt.ine.add.PTCONT.3548299,R NORA,112,4585-053,BALTAR,-8.3858982991155,41.178677812682075
pt.ine.add.PTCONT.3548300,R CIMO VALES,220,4585-125,AGUIAR DE SOUSA,-8.450986535097078,41.130352166273504
pt.ine.add.PTCONT.3548301,R S COSME,,4580-288,BESTEIROS PRD,-8.348688561738976,41.22161400079668
pt.ine.add.PTCONT.3548302,R RIBEIRA,302,4580-775,BESTEIROS PRD,-8.345987699443606,41.21618944191773
pt.ine.add.PTCONT.3548303,R RIBEIRA,302,4580-775,BESTEIROS PRD,-8.345987699443606,41.21618944191773
pt.ine.add.PTCONT.3548304,R CAP LAURINDO DE VASCONCELOS,229,4580-765,BESTEIROS PRD,-8.349357286560458,41.218263153904054
pt.ine.add.PTCONT.3548305,R AMIZADE,122,4585-015,BALTAR,-8.380114165788024,41.20299303640008
pt.ine.add.PTCONT.3548306,AV REPUBLICA,450,4585-018,BALTAR,-8.393229357740404,41.19112348681016
pt.ine.add.PTCONT.3548307,R PADRE JOÃO PACHECO,72,4580-790,BITARÃES,-8.320864207169855,41.2293253671955
pt.ine.add.PTCONT.3548309,R ALTO DO CARREIRO,82,4585-810,ASTROMIL,-8.415828992357783,41.19645480872574
pt.ine.add.PTCONT.3548310,R CENTRAL DA GANDARINHA,108,4585-041,BALTAR,-8.387452198177366,41.186021931515384
pt.ine.add.PTCONT.3548311,AV S SEBASTIÃO,720,4585-125,AGUIAR DE SOUSA,-8.44558605696803,41.129160349637935
pt.ine.add.PTCONT.3548312,R PADARIA,35,4580-294,BITARÃES,-8.325360144991455,41.220988993465845
pt.ine.add.PTCONT.3548313,R NSA SRA DE FÁTIMA,41,4585-002,AGUIAR DE SOUSA,-8.43336587315062,41.10266577559269
pt.ine.add.PTCONT.3548314,R NSA SRA DE FÁTIMA,21,4585-002,AGUIAR DE SOUSA,-8.433141296145664,41.103017534466446
pt.ine.add.PTCONT.3548315,R SILVEIRAS,16,4580-282,BEIRE,-8.326701588017778,41.24720715679378
pt.ine.add.PTCONT.3548316,R OUTEIRO DA FONTE,,4585-002,AGUIAR DE SOUSA,-8.433322711512684,41.09841578237795
pt.ine.add.PTCONT.3548317,BR COOPERATIVA DE HABITACAO O NINHO O NINHO CHE,43,4585-027,BALTAR,-8.382551423017203,41.194919919277545
pt.ine.add.PTCONT.3548318,R PACO,274,4580-174,PAREDES,-8.3215200728906,41.216817351646434
pt.ine.add.PTCONT.3548319,R PACO,274,4580-174,PAREDES,-8.3215200728906,41.216817351646434
pt.ine.add.PTCONT.3548320,R VALBOM ACAMPAMENTO ETNIA CIGANA,,4580-214,PAREDES,-8.333840391119127,41.209674138605195
pt.ine.add.PTCONT.3548321,R PINHAL,37,4580-304,BITARÃES,-8.301945021684041,41.228211118291895
pt.ine.add.PTCONT.3548384,R SANTOS,526,4580-236,DUAS IGREJAS PRD,-8.368473878011761,41.23509967154208
pt.ine.add.PTCONT.3548385,R VILA,139,4580-390,DUAS IGREJAS PRD,-8.379759851715583,41.226107803710875
pt.ine.add.PTCONT.3548386,R FONTE SAGRADA,100,4580-102,PAREDES,-8.338751513095671,41.20162462870722
pt.ine.add.PTCONT.3548387,R FONTE SAGRADA,156,4580-102,PAREDES,-8.33841693838573,41.20138210921689
pt.ine.add.PTCONT.3548388,AV TELHA,1486,4580-395,DUAS IGREJAS PRD,-8.38094134457074,41.22631236517107
pt.ine.add.PTCONT.3548389,R GRANJA FONSECA,71-6,4580-312,CETE,-8.354557055065671,41.17948969615476
pt.ine.add.PTCONT.3548390,R GRANJA FONSECA,71-6,4580-312,CETE,-8.354557055065671,41.17948969615476
pt.ine.add.PTCONT.3548391,R GRANJA FONSECA,71,4580-312,CETE,-8.354557055065671,41.17948969615476
pt.ine.add.PTCONT.3548392,R GRANJA FONSECA,71,4580-312,CETE,-8.354557055065671,41.17948969615476
pt.ine.add.PTCONT.3548393,R GRANJA FONSECA,71-6,4580-312,CETE,-8.354557055065671,41.17948969615476
pt.ine.add.PTCONT.3548394,R GRANJA FONSECA,71,4580-312,CETE,-8.354557055065671,41.17948969615476
pt.ine.add.PTCONT.3548395,R GRANJA FONSECA,71,4580-312,CETE,-8.354557055065671,41.17948969615476
pt.ine.add.PTCONT.3548396,R GRANJA FONSECA,71-6,4580-312,CETE,-8.354557055065671,41.17948969615476
pt.ine.add.PTCONT.3548397,R GRANJA FONSECA,71-6,4580-312,CETE,-8.354557055065671,41.17948969615476
pt.ine.add.PTCONT.3548398,TV VALE,90,4580-388,DUAS IGREJAS PRD,-8.375079633536373,41.224740079783636
pt.ine.add.PTCONT.3548399,AV DR FRANCISCO SA CARNEIRO,145 D,4580-104,PAREDES,-8.325570274375306,41.203169139714404
pt.ine.add.PTCONT.3548400,AV DR FRANCISCO SA CARNEIRO,145 D,4580-104,PAREDES,-8.325570274375306,41.203169139714404
pt.ine.add.PTCONT.3548401,AV DR FRANCISCO SA CARNEIRO,145D,4580-104,PAREDES,-8.325570274375306,41.203169139714404
pt.ine.add.PTCONT.3548402,AV DR FRANCISCO SA CARNEIRO,145 D,4580-104,PAREDES,-8.325570274375306,41.203169139714404
pt.ine.add.PTCONT.3548403,AV DR FRANCISCO SA CARNEIRO,145 D,4580-104,PAREDES,-8.325570274375306,41.203169139714404
pt.ine.add.PTCONT.3548404,AV DR FRANCISCO SA CARNEIRO,145 D,4580-104,PAREDES,-8.325570274375306,41.203169139714404
pt.ine.add.PTCONT.3548405,R D GABRIEL DE SOUSA,1056,4580-105,PAREDES,-8.328817201308553,41.196527487288066
pt.ine.add.PTCONT.3548406,R CIDADE DE PAREDES,39,4580-360,CRISTELO PRD,-8.36355313958265,41.23668536929169
pt.ine.add.PTCONT.3548407,R SAUDADE,195,4585-571,GANDRA PRD,-8.422286766054084,41.19025280891606
pt.ine.add.PTCONT.3548408,AV DR FRANCISCO SA CARNEIRO,145 D,4580-104,PAREDES,-8.325570274375306,41.203169139714404
pt.ine.add.PTCONT.3548409,AV DR FRANCISCO SA CARNEIRO,145D,4580-104,PAREDES,-8.325570274375306,41.203169139714404
pt.ine.add.PTCONT.3548410,AV DR FRANCISCO SA CARNEIRO,145D,4580-104,PAREDES,-8.325570274375306,41.203169139714404
pt.ine.add.PTCONT.3548411,AV DR FRANCISCO SA CARNEIRO,145D,4580-104,PAREDES,-8.325570274375306,41.203169139714404
pt.ine.add.PTCONT.3548412,URB CIDADE DE GANDRA,6,4585-739,GANDRA PRD,-8.435921828524227,41.189956640967594
pt.ine.add.PTCONT.3548413,R ALTO DO FACHO,498,4580-335,CETE,-8.357433823897507,41.180816772079986
pt.ine.add.PTCONT.3548414,R CASIMIRO NETO DA SILVA,274,4580-191,CRISTELO PRD,-8.359533357184723,41.23325371732758
pt.ine.add.PTCONT.3548415,R DR ROSALINA GUIMARÃES,38,4580-195,PAREDES,-8.328985622445389,41.205036277644645
pt.ine.add.PTCONT.3548416,R CASIMIRO NETO DA SILVA,143,4580-191,CRISTELO PRD,-8.356645475632243,41.23285416795036
pt.ine.add.PTCONT.3548417,BR LEÃO DA ROCHA,3,4585-238,GANDRA PRD,-8.436615732487832,41.20083202390897
pt.ine.add.PTCONT.3548418,R ESCOLA DAS LAGES,14,4580-321,CETE,-8.354136195769359,41.17483525611932
pt.ine.add.PTCONT.3548419,R BARREIRO,248,4580-312,CETE,-8.361774435304536,41.17807091544838
pt.ine.add.PTCONT.3548420,R VALE DO GALO,14,4585-573,GANDRA PRD,-8.44122026901919,41.2090317160261
pt.ine.add.PTCONT.3548421,R BELAVISTA,312,4580-400,DUAS IGREJAS PRD,-8.364222171562032,41.23698116882457
pt.ine.add.PTCONT.3548422,R S SEBASTIÃO,158,4585-211,GANDRA PRD,-8.441049307351335,41.185278805592624
pt.ine.add.PTCONT.3548423,R OUTEIRO DO VALE,25,4585-196,GANDRA PRD,-8.441586967823342,41.18555650095027
pt.ine.add.PTCONT.3548424,R ALDEIA NOVA,35,4585-116,GANDRA PRD,-8.428944952879306,41.19442290671126
pt.ine.add.PTCONT.3548425,AV TELHA,1085,4580-395,DUAS IGREJAS PRD,-8.38060799168243,41.223305655248524
pt.ine.add.PTCONT.3548426,TV 13 DE MAIO,24,4580-369,DUAS IGREJAS PRD,-8.37702615472583,41.228634821829395
pt.ine.add.PTCONT.3548427,AV BETANIA,63,4580-373,DUAS IGREJAS PRD,-8.37876177692521,41.227109411110064
pt.ine.add.PTCONT.3548428,R CENTRAL DO CARRICO,101,4580-592,MOURIZ,-8.34724535923323,41.195954438451324
pt.ine.add.PTCONT.3548429,R CENTRAL DO CARRICO,101,4580-592,MOURIZ,-8.34724535923323,41.195954438451324
pt.ine.add.PTCONT.3548430,R ESCOLA LAGE,45,4585-409,REBORDOSA,-8.402956136929133,41.22593872685816
pt.ine.add.PTCONT.3548431,TV PELAME,34,4585-488,REBORDOSA,-8.414331938550305,41.214332007983565
pt.ine.add.PTCONT.3548432,R MARGARIDAS,60,4585-592,RECAREI,-8.409610832659808,41.15221353351993
pt.ine.add.PTCONT.3548433,R MARGARIDAS,60,4585-592,RECAREI,-8.409610832659808,41.15221353351993
pt.ine.add.PTCONT.3548434,ENCOSTINHA DE PARADA,,4585-916,PARADA DE TODEIA,-8.365963699040513,41.16970648251833
pt.ine.add.PTCONT.3548435,ENCOSTINHA DE PARADA,,4585-916,PARADA DE TODEIA,-8.365963699040513,41.16970648251833
pt.ine.add.PTCONT.3548436,ENCOSTINHA DE PARADA,,4585-916,PARADA DE TODEIA,-8.365963699040513,41.16970648251833
pt.ine.add.PTCONT.3548437,ENCOSTINHA DE PARADA,,4585-916,PARADA DE TODEIA,-8.365963699040513,41.16970648251833
pt.ine.add.PTCONT.3548438,ENCOSTINHA DE PARADA,,4585-916,PARADA DE TODEIA,-8.365963699040513,41.16970648251833
pt.ine.add.PTCONT.3548439,ENCOSTINHA DE PARADA,,4585-916,PARADA DE TODEIA,-8.365963699040513,41.16970648251833
pt.ine.add.PTCONT.3548440,ENCOSTINHA DE PARADA,,4585-916,PARADA DE TODEIA,-8.365963699040513,41.16970648251833
pt.ine.add.PTCONT.3548441,ENCOSTINHA DE PARADA,,4585-916,PARADA DE TODEIA,-8.365963699040513,41.16970648251833
pt.ine.add.PTCONT.3548442,R PADRE BERNARDINO MOREIRA LOPES,33,4585-592,RECAREI,-8.40230092307892,41.15336540024424
pt.ine.add.PTCONT.3548443,R NSA SRA AJUDA,3B,4585-341,REBORDOSA,-8.418772412805176,41.20717167198789
pt.ine.add.PTCONT.3548444,R CENTRAL DE COSTEIRAS,228,4585-903,RECAREI,-8.434336915462977,41.1692418167376
pt.ine.add.PTCONT.3548445,R CAL,42,4580-594,MOURIZ,-8.354684579640518,41.19257274976231
pt.ine.add.PTCONT.3548446,R CAPELMONTE,95,4585-369,REBORDOSA,-8.42164275202066,41.21189176957772
pt.ine.add.PTCONT.3548447,R DEVESA,43,4580-594,MOURIZ,-8.36135740791481,41.19869166024694
pt.ine.add.PTCONT.3548448,TV MURO,15,4580-067,MOURIZ,-8.353724607134632,41.19068368410117
pt.ine.add.PTCONT.3548449,URB ENCOSTA PARADA,49,4585-295,PARADA DE TODEIA,-8.383957107388559,41.172802217147854
pt.ine.add.PTCONT.3548450,R SACOTO,83,4585-510,REBORDOSA,-8.412304153037383,41.21137453139246
pt.ine.add.PTCONT.3548451,R PADRE ADRIANO MOREIRA MARTINS,108,4585-898,RECAREI,-8.439164352266516,41.16442076418452
pt.ine.add.PTCONT.3548452,R PADRE ADRIANO MOREIRA MARTINS,108,4585-898,RECAREI,-8.439164352266516,41.16442076418452
pt.ine.add.PTCONT.3548453,R RIBEIROS ALTOS,25,4580-597,MOURIZ,-8.367020038301273,41.19197208034883
pt.ine.add.PTCONT.3548454,R MARCO,113,4585-281,PARADA DE TODEIA,-8.376490287215253,41.17093632655064
pt.ine.add.PTCONT.3548455,R MARCO,79 C,4585-281,PARADA DE TODEIA,-8.376765030830656,41.171115832818735
pt.ine.add.PTCONT.3548456,TV PARTILHAS,13,4585-478,REBORDOSA,-8.403620508466306,41.227981136575636
pt.ine.add.PTCONT.3548457,R TRAZ DO PADRAO,45,4585-531,REBORDOSA,-8.405671153248058,41.23066857553672
pt.ine.add.PTCONT.3548458,R TRAZ DO PADRAO,45,4585-531,REBORDOSA,-8.405671153248058,41.23066857553672
pt.ine.add.PTCONT.3548459,R TRAZ DO PADRAO,45,4585-531,REBORDOSA,-8.405671153248058,41.23066857553672
pt.ine.add.PTCONT.3548460,R TRAZ DO PADRAO,45,4585-531,REBORDOSA,-8.405671153248058,41.23066857553672
pt.ine.add.PTCONT.3548461,R ALTO CASA DE VALCEGAS,1236,4585-616,RECAREI,-8.433631345478371,41.158258337788716
pt.ine.add.PTCONT.3548462,R DALIAS,182,4585-591,RECAREI,-8.419219013590656,41.15091144730153
pt.ine.add.PTCONT.3548463,R DALIAS,,4585-591,RECAREI,-8.418800857420853,41.15063334923098
pt.ine.add.PTCONT.3548464,R BAIRRO,51,4585-356,REBORDOSA,-8.419912101275356,41.2169655048889
pt.ine.add.PTCONT.3548465,R RIO SOUSA,386,4585-592,RECAREI,-8.40701103311647,41.148690025349886
pt.ine.add.PTCONT.3548466,R NSA SRA FÁTIMA,56,4585-414,REBORDOSA,-8.4133770139382,41.21130889532181
pt.ine.add.PTCONT.3548467,R NSA SRA FÁTIMA,56,4585-414,REBORDOSA,-8.4133770139382,41.21130889532181
pt.ine.add.PTCONT.3548468,R NSA SRA FÁTIMA,56,4585-414,REBORDOSA,-8.4133770139382,41.21130889532181
pt.ine.add.PTCONT.3548469,R CENTRAL DA RIBEIRA,580,4585-621,RECAREI,-8.441192978662976,41.1498012606166
pt.ine.add.PTCONT.3548490,R ALMINHAS,99,4585-349,REBORDOSA,-8.390577236637519,41.21396436634263
pt.ine.add.PTCONT.3548470,AV JOSE VIEIRA CAMPOS,208,4585-709,SOBREIRA,-8.40205813346145,41.1522584282868
pt.ine.add.PTCONT.3548471,AV JOSE VIEIRA CAMPOS,202,4585-709,SOBREIRA,-8.40205813346145,41.1522584282868
pt.ine.add.PTCONT.3548472,AV JOSE VIEIRA CAMPOS,208,4585-709,SOBREIRA,-8.40205813346145,41.1522584282868
pt.ine.add.PTCONT.3548473,R COMBATENTES,1158,4585-917,PARADA DE TODEIA,-8.371212331399668,41.167930897546256
pt.ine.add.PTCONT.3548474,R AGRA,135,4585-829,REBORDOSA,-8.408144164514187,41.223099111717104
pt.ine.add.PTCONT.3548475,R CENTRAL VILAR,54,4585-720,SOBREIRA,-8.401753141895895,41.15050328489372
pt.ine.add.PTCONT.3548476,R MIMOSAS,146,4585-459,REBORDOSA,-8.418160589569965,41.20905508556742
pt.ine.add.PTCONT.3548477,R NSA SRA DA CONCEIÇÃO,119,4585-607,RECAREI,-8.405642832664334,41.149107472341974
pt.ine.add.PTCONT.3548478,TV ALTO DO FOJO,293,4585-579,SOBREIRA,-8.403865553418052,41.148544386968226
pt.ine.add.PTCONT.3548479,AV MONTE DE AZEVIDO,933,4585-463,REBORDOSA,-8.405102288972378,41.22003587903987
pt.ine.add.PTCONT.3548480,R FIJO DE CIMA,161,4585-423,REBORDOSA,-8.419534767361391,41.22614179861704
pt.ine.add.PTCONT.3548481,TV S MIGUEL,14,4585-458,REBORDOSA,-8.413979983701116,41.22125715814058
pt.ine.add.PTCONT.3548482,AV DR FRANCISCO SA CARNEIRO,,4585-429,REBORDOSA,-8.425668679900227,41.20288632163112
pt.ine.add.PTCONT.3548483,R TRAS DE VÁRZEA,154,4585-641,RECAREI,-8.405515984526374,41.15299766677435
pt.ine.add.PTCONT.3548484,R CENTRAL DE CASCONHA,195,4585-685,SOBREIRA,-8.393447727227443,41.140905661214425
pt.ine.add.PTCONT.3548485,R MOINHOS,9,4585-283,PARADA DE TODEIA,-8.376780645939668,41.159248045635614
pt.ine.add.PTCONT.3548486,R ALARDO,112,4585-342,REBORDOSA,-8.394949799217285,41.230990594554186
pt.ine.add.PTCONT.3548487,R ALARDO,112,4585-342,REBORDOSA,-8.394949799217285,41.230990594554186
pt.ine.add.PTCONT.3548488,RAMP FIJO,56B,4585-421,REBORDOSA,-8.423171663888358,41.22598862668266
pt.ine.add.PTCONT.3548489,R CENTRAL DAS ALMINHAS,128,4585-381,REBORDOSA,-8.391327113057063,41.21362052440212
pt.ine.add.PTCONT.3548491,R PONTE DO FORNO,35,4580-076,MOURIZ,-8.348845187445328,41.19668980693326
pt.ine.add.PTCONT.3548492,TV FIJO,1,4585-851,REBORDOSA,-8.423072434809342,41.2251244669831
pt.ine.add.PTCONT.3548493,R PRESA DA BOUCA,140,4585-500,REBORDOSA,-8.410442822625155,41.21390923396372
pt.ine.add.PTCONT.3548494,AV BOMBEIROS VOLUNTARIOS,431,4585-359,REBORDOSA,-8.415057094990233,41.2165903099715
pt.ine.add.PTCONT.3548495,R ABOIM,75,4585-339,REBORDOSA,-8.414671646248465,41.2156908248076
pt.ine.add.PTCONT.3548496,TV MURALHA,13,4585-776,VANDOMA,-8.387911544744819,41.20304808312255
pt.ine.add.PTCONT.3548497,R PADRE HERNÂNI CARVALHO,130,4580-743,SOBROSA,-8.351191839434202,41.24999070656997
pt.ine.add.PTCONT.3548498,R SOUTO,60,4580-097,VILELA PRD,-8.371211372269155,41.249888018465185
pt.ine.add.PTCONT.3548499,R TALHOS,172,4580-689,VILELA PRD,-8.36913238959196,41.24573234133874
pt.ine.add.PTCONT.3548502,R CALVÁRIO,58,4580-630,VILA COVA DE CARROS,-8.368699846008463,41.208329490930716
pt.ine.add.PTCONT.3548504,R FACHO,,4580-627,SOBROSA,-8.354084800020786,41.258764313161684
pt.ine.add.PTCONT.3548505,TV FACHO,,4580-627,SOBROSA,-8.354084800020786,41.258764313161684
pt.ine.add.PTCONT.3548506,R CALVÁRIO,58,4580-630,VILA COVA DE CARROS,-8.368699846008463,41.208329490930716
pt.ine.add.PTCONT.3548509,R OUSAREM,,4580-740,SOBROSA,-8.348689793879752,41.243773488398176
pt.ine.add.PTCONT.3548510,AV CENTRAL DE REIROS,411,4585-774,VANDOMA,-8.388114041336301,41.21221401060147
pt.ine.add.PTCONT.3548511,R FLORES,87,4585-779,VANDOMA,-8.390545128190174,41.211857434308165
pt.ine.add.PTCONT.3548513,R BACELO,16,4585-735,VANDOMA,-8.389448527426048,41.2119589276968
pt.ine.add.PTCONT.3548516,R CASALMIDO,100,4585-651,SOBREIRA,-8.392130016405774,41.13899969798968
pt.ine.add.PTCONT.3548517,R AGRO VERDE,227,4580-608,SOBROSA,-8.35187840420702,41.25551800182835
pt.ine.add.PTCONT.3548518,R CENTRAL DE VANDOMA,235,4585-766,VANDOMA,-8.403420552909363,41.19100097100626
pt.ine.add.PTCONT.3548520,R MARTIR S SEBASTIÃO,,4580-743,SOBROSA,-8.349298146385976,41.25099374778453
pt.ine.add.PTCONT.3548526,AV INDUSTRIA,497,4585-781,VANDOMA,-8.380878440472099,41.20648506441569
pt.ine.add.PTCONT.3548527,AV INDUSTRIA,497,4585-781,VANDOMA,-8.380878440472099,41.20648506441569
pt.ine.add.PTCONT.3548535,R ESCOLA,,4585-549,SOBREIRA,-8.39013950435381,41.13558248127259
pt.ine.add.PTCONT.3548536,R VALCISAO,,4580-709,VILELA PRD,-8.376114837757335,41.25308328020198
pt.ine.add.PTCONT.3548538,R S COMBA,1464,4585-694,SOBREIRA,-8.40709411652753,41.11999276939775
pt.ine.add.PTCONT.3548539,AV S JOSE,,4580-095,VILELA PRD,-8.37536103810215,41.25250859802025
pt.ine.add.PTCONT.3548540,AV MAIA,305,4580-666,VILELA PRD,-8.3817822263055,41.23419828715353
pt.ine.add.PTCONT.3548541,AV MAIA,,4580-666,VILELA PRD,-8.382306982947762,41.234179144189035
pt.ine.add.PTCONT.3548544,TV ESTRADA,44,4580-626,SOBROSA,-8.347341204982024,41.25821879657371
pt.ine.add.PTCONT.3548545,R ESTRADA,261,4580-626,SOBROSA,-8.346730636406912,41.257598639632796
pt.ine.add.PTCONT.3548546,TV CARVALHOS,58,4580-703,VILELA PRD,-8.377318818076603,41.24958709128477
pt.ine.add.PTCONT.3548547,R ESTRADA VELHA,,4580-657,VILELA PRD,-8.383129489116206,41.23404229737526
pt.ine.add.PTCONT.3548548,R ESTRADA VELHA,145,4580-657,VILELA PRD,-8.38443999644986,41.23363425284753
pt.ine.add.PTCONT.3548551,R PEDREIRA DO BECA,103,4585-647,SOBREIRA,-8.395205534121406,41.11270882327218
pt.ine.add.PTCONT.3548552,R CERRADO - OUTEIRO,67,4580-870,SOBROSA,-8.347925809984165,41.25455298759148
pt.ine.add.PTCONT.3548553,R CERRADO - OUTEIRO,67,4580-870,SOBROSA,-8.347925809984165,41.25455298759148
pt.ine.add.PTCONT.3548558,R OLIVEIRAS,7,4585-789,SOBREIRA,-8.398169320626181,41.11251294949278
pt.ine.add.PTCONT.3548559,R SOBREIRO,73,4585-715,SOBREIRA,-8.3995217375921,41.1113122387117
pt.ine.add.PTCONT.3548560,R SANT ANA,167,4585-655,SOBREIRA,-8.398000251023156,41.11191904485015
pt.ine.add.PTCONT.3548561,R PEDREGAL,38,4580-743,SOBROSA,-8.34860493968023,41.250625873675766
pt.ine.add.PTCONT.3548562,RAMP ALMINHAS,57,4580-513,LORDELO PRD,-8.415870179257988,41.25031825616618
pt.ine.add.PTCONT.3548563,RAMP ALMINHAS,57,4580-513,LORDELO PRD,-8.415870179257988,41.25031825616618
pt.ine.add.PTCONT.3548564,R S JOSE,441,4580-434,LORDELO PRD,-8.42784855891728,41.23168545246068
pt.ine.add.PTCONT.3548565,RAMP COSTA,30,4580-422,LORDELO PRD,-8.42743773906647,41.23050694552099
pt.ine.add.PTCONT.3548566,R RIBEIRA,,4580-552,LORDELO PRD,-8.40597707880332,41.23826744185653
pt.ine.add.PTCONT.3548567,R RIBEIRA,,4580-552,LORDELO PRD,-8.40597707880332,41.23826744185653
pt.ine.add.PTCONT.3548568,AV ENTRONCAMENTO,19,4580-801,LORDELO PRD,-8.41919755555391,41.236335457249226
pt.ine.add.PTCONT.3548569,AV ENTRONCAMENTO,19,4580-801,LORDELO PRD,-8.41919755555391,41.236335457249226
pt.ine.add.PTCONT.3548570,AV ENTRONCAMENTO,19,4580-801,LORDELO PRD,-8.41919755555391,41.236335457249226
pt.ine.add.PTCONT.3548571,AV ENTRONCAMENTO,19,4580-801,LORDELO PRD,-8.41919755555391,41.236335457249226
pt.ine.add.PTCONT.3548572,AV ENTRONCAMENTO,19,4580-801,LORDELO PRD,-8.41919755555391,41.236335457249226
pt.ine.add.PTCONT.3548573,AV ENTRONCAMENTO,19,4580-801,LORDELO PRD,-8.41919755555391,41.236335457249226
pt.ine.add.PTCONT.3548574,AV ENTRONCAMENTO,19,4580-801,LORDELO PRD,-8.41919755555391,41.236335457249226
pt.ine.add.PTCONT.3548575,R RIBEIRO,225,4580-271,PAREDES,-8.327832168216883,41.214105564075076
pt.ine.add.PTCONT.3548576,R FRANCISCO JOSE A A SA,120,4580-584,MOURIZ,-8.35795247516326,41.20004000086599
pt.ine.add.PTCONT.3548577,R COMBATENTES,142,4580-421,LORDELO PRD,-8.43281444489507,41.22996182570044
pt.ine.add.PTCONT.3548578,TV PRESA GRANDE,82,4580-581,LOUREDO PRD,-8.352509999037938,41.2303139150827
pt.ine.add.PTCONT.3548579,R CRUZEIRO VINHAL,130,4580-816,LORDELO PRD,-8.411332613314114,41.24660155799446
pt.ine.add.PTCONT.3548580,R PEDRINHAS DO SAL,97,4580-440,LORDELO PRD,-8.433338162827487,41.22972635068492
pt.ine.add.PTCONT.3548581,TV S TECLA,401,4580-447,LORDELO PRD,-8.42136684683796,41.233241588522496
pt.ine.add.PTCONT.3548582,AV CRUZ,277,4580-581,LOUREDO PRD,-8.347347816142587,41.238328422196105
pt.ine.add.PTCONT.3548583,R MADEIRA,75,4580-437,LORDELO PRD,-8.417645503683321,41.233268852699815
pt.ine.add.PTCONT.3548584,R ALDEIA,105,4585-083,GANDRA PRD,-8.444300566188046,41.184720802826426
pt.ine.add.PTCONT.3548585,R ALDEIA,105,4585-083,GANDRA PRD,-8.444300566188046,41.184720802826426
pt.ine.add.PTCONT.3548586,R ALDEIA,91,4585-083,GANDRA PRD,-8.44391716369088,41.184298634663094
pt.ine.add.PTCONT.3548587,R TALHO,245,4580-402,GONDALÃES,-8.323326963639566,41.23132027283286
pt.ine.add.PTCONT.3548588,R BENEIRAS,,4580-481,LORDELO PRD,-8.419092877198691,41.24242258726421
pt.ine.add.PTCONT.3548589,R GUIMBRA,49,4585-162,GANDRA PRD,-8.436505029812652,41.179438049593976
pt.ine.add.PTCONT.3548590,R BENEIRAS,404,4580-481,LORDELO PRD,-8.417832201187892,41.24330812704153
pt.ine.add.PTCONT.3548591,R BENEIRAS,404,4580-481,LORDELO PRD,-8.417832201187892,41.24330812704153
pt.ine.add.PTCONT.3548592,R BENEIRAS,404,4580-481,LORDELO PRD,-8.417832201187892,41.24330812704153
pt.ine.add.PTCONT.3548593,R REBOLIDO,80,4580-402,GONDALÃES,-8.32389199080374,41.228744117291576
pt.ine.add.PTCONT.3548594,R CRUZEIRO DO VINHAL,53,4580-816,LORDELO PRD,-8.410757873628185,41.246107712378766
pt.ine.add.PTCONT.3548595,R CRUZEIRO DO VINHAL,53,4580-816,LORDELO PRD,-8.410757873628185,41.246107712378766
pt.ine.add.PTCONT.3548596,R PADRAO,874,4580-493,LORDELO PRD,-8.39745438137332,41.23391125617614
pt.ine.add.PTCONT.3548597,R S RITA,152,4580-554,LORDELO PRD,-8.411118467357781,41.24392781681336
pt.ine.add.PTCONT.3548598,R CABINE,4,4580-588,MOURIZ,-8.353043556130055,41.20800928747848
pt.ine.add.PTCONT.3551387,R TRABALHADORES UNIDOS,17,4585-631,RECAREI,-8.408233654141648,41.150496993591815
pt.ine.add.PTCONT.3551390,R CAVADINHAS,67,4585-176,AGUIAR DE SOUSA,-8.412923454453573,41.132783048339064
pt.ine.add.PTCONT.3551391,R S TIAGO,46A,4585-513,REBORDOSA,-8.418765524264968,41.211070547913565
pt.ine.add.PTCONT.3551412,R PRESA DORNAS,319,4580-630,VILA COVA DE CARROS,-8.366895058567286,41.210449178796026
pt.ine.add.PTCONT.3551472,R VENDA NOVA,131,4580-581,LOUREDO PRD,-8.3318186106385,41.24291241935574
pt.ine.add.PTCONT.3551549,AV CENTRAL DE REIROS,2,4585-774,VANDOMA,-8.380533749937051,41.21626446784756
pt.ine.add.PTCONT.3551560,R S TECLA,401,4580-447,LORDELO PRD,-8.42136684683796,41.233241588522496
pt.ine.add.PTCONT.3551581,R CARREIRO DE LAMA,57,4580-063,PAREDES,-8.328587436028524,41.20745010806219
pt.ine.add.PTCONT.3551622,URB OURAL,162,4580-227,PAREDES,-8.316669392601234,41.21352061046541
pt.ine.add.PTCONT.3551638,R ALTO DO MONTE,58,4580-327,CETE,-8.372313149864393,41.17573539319844
pt.ine.add.PTCONT.3551639,R CAPELAO,192,4580-650,DUAS IGREJAS PRD,-8.368416841063091,41.23915170236259
pt.ine.add.PTCONT.3551648,BR COOPERATIVA DE HABITACAO O NINHO O NINHO CHE,43,4585-027,BALTAR,-8.382551423017203,41.194919919277545
pt.ine.add.PTCONT.3551823,R CIRCULAR DA VENDA NOVA,49,4580-874,BEIRE,-8.330344635989237,41.244670781676874
pt.ine.add.PTCONT.3551835,R CENTRAL DA BOUCA,,4580-591,MOURIZ,-8.347317231858005,41.20702960787767
pt.ine.add.PTCONT.3551851,R FROUFE,97,4580-402,GONDALÃES,-8.33419725844094,41.2327604939025
pt.ine.add.PTCONT.3551876,AV SA CARNEIRO,300,4580-386,DUAS IGREJAS PRD,-8.371948698067603,41.21974023824618
pt.ine.add.PTCONT.3551877,R S TIAGO,84,4585-513,REBORDOSA,-8.420628442885912,41.206266623462035
pt.ine.add.PTCONT.3551878,R BOAVISTA,50,4580-402,GONDALÃES,-8.343007450535362,41.22766636498302
pt.ine.add.PTCONT.3551907,AV SA CARNEIRO,300,4580-386,DUAS IGREJAS PRD,-8.371948698067603,41.21974023824618
pt.ine.add.PTCONT.3551956,R ERNESTO BRITO,217,4585-544,SOBREIRA,-8.394706051325189,41.154823599479286
pt.ine.add.PTCONT.3551994,R ALMINHAS,99,4585-349,REBORDOSA,-8.390577236637519,41.21396436634263
pt.ine.add.PTCONT.3551995,AV ENTRONCAMENTO,19,4580-801,LORDELO PRD,-8.41919755555391,41.236335457249226
pt.ine.add.PTCONT.3552048,AV PADRE AMÉRICO,202,4580-147,BEIRE,-8.321994118568009,41.244801838112465
pt.ine.add.PTCONT.3552049,AV PADRE AMÉRICO,202,4580-147,BEIRE,-8.321994118568009,41.244801838112465
pt.ine.add.PTCONT.3552594,R CEPEDA,658,4580-073,PAREDES,-8.319541536210082,41.20876172701502
pt.ine.add.PTCONT.3552595,R CEPEDA,658,4580-073,PAREDES,-8.319541536210082,41.20876172701502
pt.ine.add.PTCONT.3552645,R TRAS,48,4585-529,REBORDOSA,-8.420407672669354,41.210310102464035
pt.ine.add.PTCONT.3552703,R VÁRZEA,284,4580-311,CETE,-8.348700849461704,41.17449438837024
pt.ine.add.PTCONT.3552704,R SOBREIRA,439,4580-385,DUAS IGREJAS PRD,-8.379361110617136,41.231088016353965
pt.ine.add.PTCONT.3552705,R SOBREIRA,439,4580-385,DUAS IGREJAS PRD,-8.379361110617136,41.231088016353965
pt.ine.add.PTCONT.3552706,TV FONTAÍNHAS,,4585-147,GANDRA PRD,-8.425703104373573,41.1891996789387
pt.ine.add.PTCONT.3552707,R DIVINO ESPÍRITO SANTO,121,4580-003,DUAS IGREJAS PRD,-8.363117158178856,41.23821696414372
pt.ine.add.PTCONT.3552708,R COELHO,48,4580-331,CETE,-8.373706795615572,41.18206254471735
pt.ine.add.PTCONT.3552709,R CIDADE DE PAREDES,188,4580-240,DUAS IGREJAS PRD,-8.364888251406999,41.23643957471491
pt.ine.add.PTCONT.3552710,R BELA VISTA,10,4580-479,LORDELO PRD,-8.406354401806436,41.240076400759364
pt.ine.add.PTCONT.3552711,R OUTEIRO,240,4580-462,LORDELO PRD,-8.420205612317828,41.24317617435609
pt.ine.add.PTCONT.3552712,R SAMEIRO,49,4585-210,GANDRA PRD,-8.43971454121732,41.180203923418624
pt.ine.add.PTCONT.3552726,R SAMEIRO,49,4585-210,GANDRA PRD,-8.43971454121732,41.180203923418624
pt.ine.add.PTCONT.3552727,R DIVINO ESPÍRITO SANTO,2223,4580-003,DUAS IGREJAS PRD,-8.363216155460426,41.239234246808415
pt.ine.add.PTCONT.3552814,R MURO,121,4580-672,VILELA PRD,-8.38462161843753,41.237451660375605
pt.ine.add.PTCONT.3552864,R POLIDESPORTIVO,141,4580-103,VILELA PRD,-8.387957937429643,41.245719225920716
pt.ine.add.PTCONT.3554926,AV REPUBLICA,744,4585-018,BALTAR,-8.396302195534494,41.190486202979166
pt.ine.add.PTCONT.3554908,R EÇA DE QUEIRÓS,9,4580-084,PAREDES,-8.339612577957633,41.20626931098695
pt.ine.add.PTCONT.3554910,R IGREJA,225,4585-044,BALTAR,-8.376482427871238,41.18491108798762
pt.ine.add.PTCONT.3554911,R ALFAIATE,1,4580-297,BITARÃES,-8.311867146690513,41.22783597211464
pt.ine.add.PTCONT.3554912,R ALFAIATE,1,4580-297,BITARÃES,-8.311867146690513,41.22783597211464
pt.ine.add.PTCONT.3554914,SIT AGUIAR,111,4585-004,AGUIAR DE SOUSA,-8.449475670626189,41.128204270227556
pt.ine.add.PTCONT.3554915,AV BOMBEIROS VOLUNTARIOS,1296,4585-015,BALTAR,-8.383797670956087,41.190370030615874
pt.ine.add.PTCONT.3554916,R VERGEL,64,4580-151,BEIRE,-8.319214880746816,41.249155412715446
pt.ine.add.PTCONT.3554917,AV S TOME,571,4580-792,BITARÃES,-8.314689499130232,41.22628282112845
pt.ine.add.PTCONT.3554918,R OURAL,,4580-172,PAREDES,-8.318237699255862,41.21573315604453
pt.ine.add.PTCONT.3554919,R OUTEIRO,191,4585-047,BALTAR,-8.389839501496128,41.18996053085562
pt.ine.add.PTCONT.3554920,R S LUIS,54,4580-281,BEIRE,-8.315199659429636,41.23821266745577
pt.ine.add.PTCONT.3554921,R PADRE JOAO PACHECO,170,4580-291,BITARÃES,-8.322626491620925,41.228314002005746
pt.ine.add.PTCONT.3554922,AV REBOLIDO,79,4580-291,BITARÃES,-8.323480443174729,41.226664811539884
pt.ine.add.PTCONT.3554925,R CAPELA ALMAS,464,4585-030,BALTAR,-8.37080046310164,41.19244156947097
pt.ine.add.PTCONT.3554927,AV REPUBLICA,337,4585-018,BALTAR,-8.396302195534494,41.190486202979166
pt.ine.add.PTCONT.3554928,AV REPUBLICA,333,4585-018,BALTAR,-8.396302195534494,41.190486202979166
pt.ine.add.PTCONT.3554929,R DR JOSE MAGALHÃES,56,4580-133,PAREDES,-8.329973178863895,41.20833917352556
pt.ine.add.PTCONT.3554930,R ESPINHEIRAS,42,4585-822,ASTROMIL,-8.425597716176304,41.19498071933153
pt.ine.add.PTCONT.3554931,TV SEDOUROS,28,4580-203,PAREDES,-8.32167730657134,41.20512951484225
pt.ine.add.PTCONT.3554932,TV ANCEDE,58,4585-023,BALTAR,-8.391513775159433,41.18529254396663
pt.ine.add.PTCONT.3554933,TV FORMARIZ,73,4580-781,BITARÃES,-8.316379259445625,41.22492049854887
pt.ine.add.PTCONT.3554934,URB OURAL,12,4580-227,PAREDES,-8.318206413221422,41.21309494838691
pt.ine.add.PTCONT.3554935,AV S SEBASTIÃO,,4585-125,AGUIAR DE SOUSA,-8.445133482393539,41.1291525718913
pt.ine.add.PTCONT.3554936,R GIESTEIRA,194,4585-042,BALTAR,-8.384039253277505,41.19744690018091
pt.ine.add.PTCONT.3554937,R CALVARIO,305,4585-028,BALTAR,-8.382254551841836,41.18579017541382
pt.ine.add.PTCONT.3554938,R CALVARIO,297,4585-028,BALTAR,-8.382254551841836,41.18579017541382
pt.ine.add.PTCONT.3554939,R CEPEDA,61,4580-073,PAREDES,-8.323483575245456,41.21129449046507
pt.ine.add.PTCONT.3554940,BR COOPERATIVA DE HABITACAO O NINHO,16,4585-027,BALTAR,-8.381787032344967,41.19453438659474
pt.ine.add.PTCONT.3554941,BR COOPERATIVA DE HABITACAO O NINHO,16,4585-027,BALTAR,-8.381787032344967,41.19453438659474
pt.ine.add.PTCONT.3554942,R TORRE DA MADUREIRA,40,4580-874,BEIRE,-8.329047558309126,41.241773628531
pt.ine.add.PTCONT.3554943,AV S TOME,13,4580-792,BITARÃES,-8.307552218931564,41.23329017217837
pt.ine.add.PTCONT.3554944,R PADRE AMÉRICO,18,4580-041,PAREDES,-8.325652901489399,41.21102075494435
pt.ine.add.PTCONT.3554945,R VALES,53,4585-008,AGUIAR DE SOUSA,-8.415174674879161,41.13007623388268
pt.ine.add.PTCONT.3554946,R DR ANTONIO MENDES MOREIRA,17,4580-044,PAREDES,-8.330418502577462,41.2097250737484
pt.ine.add.PTCONT.3554947,R DR ANTONIO MENDES MOREIRA,17,4580-044,PAREDES,-8.330418502577462,41.2097250737484
pt.ine.add.PTCONT.3554948,R DR ANTONIO MENDES MOREIRA,17,4580-044,PAREDES,-8.330418502577462,41.2097250737484
pt.ine.add.PTCONT.3554949,R DR ANTONIO MENDES MOREIRA,17,4580-044,PAREDES,-8.330418502577462,41.2097250737484
pt.ine.add.PTCONT.3554950,R DR ANTONIO MENDES MOREIRA,17,4580-044,PAREDES,-8.330418502577462,41.2097250737484
pt.ine.add.PTCONT.3554951,R DR ANTONIO MENDES MOREIRA,17,4580-044,PAREDES,-8.330418502577462,41.2097250737484
pt.ine.add.PTCONT.3554952,R IGREJA,258,4585-812,ASTROMIL,-8.417198531711396,41.198891606865104
pt.ine.add.PTCONT.3554953,R PINHAL,7,4580-304,BITARÃES,-8.301241362675587,41.22822115211876
pt.ine.add.PTCONT.3554954,R CARCAVELOS,198,4580-788,BITARÃES,-8.29990743558962,41.228961442372096
pt.ine.add.PTCONT.3554955,R DR ANTONIO MENDES MOREIRA,17,4580-044,PAREDES,-8.330418502577462,41.2097250737484
pt.ine.add.PTCONT.3554956,R DR ANTONIO MENDES MOREIRA,17,4580-044,PAREDES,-8.330418502577462,41.2097250737484
pt.ine.add.PTCONT.3554957,R DR ANTONIO MENDES MOREIRA,17,4580-044,PAREDES,-8.330418502577462,41.2097250737484
pt.ine.add.PTCONT.3555004,R CENTRAL DA GANDRA,14,4585-116,GANDRA PRD,-8.43942065813312,41.183635356334726
pt.ine.add.PTCONT.3555005,R CENTRAL DA GANDRA,14,4585-116,GANDRA PRD,-8.43942065813312,41.183635356334726
pt.ine.add.PTCONT.3555006,R CENTRAL DA GANDRA,14,4585-116,GANDRA PRD,-8.43942065813312,41.183635356334726
pt.ine.add.PTCONT.3555007,R CENTRAL DA GANDRA,14,4585-116,GANDRA PRD,-8.43942065813312,41.183635356334726
pt.ine.add.PTCONT.3555008,R CASSIL,14,4585-112,GANDRA PRD,-8.43942065813312,41.183635356334726
pt.ine.add.PTCONT.3555009,R CENTRAL DA GANDRA,14,4585-116,GANDRA PRD,-8.43942065813312,41.183635356334726
pt.ine.add.PTCONT.3555031,TV VALINHOS,,4580-389,DUAS IGREJAS PRD,-8.383035357532991,41.228117697285604
pt.ine.add.PTCONT.3555010,R CENTRAL DA GANDRA,14,4585-116,GANDRA PRD,-8.43942065813312,41.183635356334726
pt.ine.add.PTCONT.3555011,R CENTRAL DA GANDRA,14,4585-116,GANDRA PRD,-8.43942065813312,41.183635356334726
pt.ine.add.PTCONT.3555012,R CENTRAL DA GANDRA,14,4585-116,GANDRA PRD,-8.43942065813312,41.183635356334726
pt.ine.add.PTCONT.3555013,R CASSIL,14,4585-112,GANDRA PRD,-8.43942065813312,41.183635356334726
pt.ine.add.PTCONT.3555014,R PISAO,302 B,4580-311,CETE,-8.347633515932085,41.17609015162385
pt.ine.add.PTCONT.3555015,R NOVA CARDAL,26,4580-311,CETE,-8.348302465970317,41.18021289509894
pt.ine.add.PTCONT.3555016,R NOVA CARDAL,26,4580-311,CETE,-8.348302465970317,41.18021289509894
pt.ine.add.PTCONT.3555017,R NOVA CARDAL,26,4580-311,CETE,-8.348302465970317,41.18021289509894
pt.ine.add.PTCONT.3555018,R NOVA CARDAL,26,4580-311,CETE,-8.348302465970317,41.18021289509894
pt.ine.add.PTCONT.3555019,R ENGENHO VELHO,,4580-319,CETE,-8.35669813255789,41.171255582305385
pt.ine.add.PTCONT.3555020,AV ANTÓNIO PINTO LOPES,214,4580-311,CETE,-8.355402040598493,41.17208649185632
pt.ine.add.PTCONT.3555021,R CENTRAL DA GANDRA,14,4585-116,GANDRA PRD,-8.43942065813312,41.183635356334726
pt.ine.add.PTCONT.3555022,R CENTRAL DA GANDRA,14,4585-116,GANDRA PRD,-8.43942065813312,41.183635356334726
pt.ine.add.PTCONT.3555023,R CENTRAL DA GANDRA,14,4585-116,GANDRA PRD,-8.43942065813312,41.183635356334726
pt.ine.add.PTCONT.3555024,R CENTRAL DA GANDRA,14,4585-116,GANDRA PRD,-8.43942065813312,41.183635356334726
pt.ine.add.PTCONT.3555025,R CENTRAL DA GANDRA,14,4585-116,GANDRA PRD,-8.43942065813312,41.183635356334726
pt.ine.add.PTCONT.3555026,AV CAMPO DAS LARANJEIRAS,32,4580-058,PAREDES,-8.332282663700965,41.20321175237673
pt.ine.add.PTCONT.3555027,AV CAMPO DAS LARANJEIRAS,32,4580-058,PAREDES,-8.332282663700965,41.20321175237673
pt.ine.add.PTCONT.3555028,R ABADIM,15,4580-027,PAREDES,-8.333703254087336,41.20381257548415
pt.ine.add.PTCONT.3555029,R CAMPINAS,234,4580-311,CETE,-8.353020769472836,41.172703359193896
pt.ine.add.PTCONT.3555030,LG URBANIZAÇÃO DO VAU,,4580-319,CETE,-8.35683825041382,41.1704089005075
pt.ine.add.PTCONT.3555032,AV 13 DE MAIO,1107,4580-369,DUAS IGREJAS PRD,-8.381717311466641,41.22650878644842
pt.ine.add.PTCONT.3555033,R ALDEIA NOVA,7,4580-374,DUAS IGREJAS PRD,-8.386108207699985,41.22391499727232
pt.ine.add.PTCONT.3555034,R ALDEIA NOVA,7,4580-374,DUAS IGREJAS PRD,-8.386108207699985,41.22391499727232
pt.ine.add.PTCONT.3555035,TV MARCOS,24,4580-360,CRISTELO PRD,-8.363551621623024,41.23625316807363
pt.ine.add.PTCONT.3555036,TV MARCOS,24,4580-360,CRISTELO PRD,-8.363551621623024,41.23625316807363
pt.ine.add.PTCONT.3555037,R DR JERONIMO PEREIRA LEITE,175,4580-352,CRISTELO PRD,-8.362268445306679,41.23429280081948
pt.ine.add.PTCONT.3555038,AV VALVERDE,519,4580-332,CETE,-8.359193107464591,41.186405026370466
pt.ine.add.PTCONT.3555039,AV BOMBEIROS VOLUNTARIOS,27,4580-053,PAREDES,-8.336474677738513,41.20556355478787
pt.ine.add.PTCONT.3555040,AV BOMBEIROS VOLUNTARIOS,ENT 27,4580-053,PAREDES,-8.336474677738513,41.20556355478787
pt.ine.add.PTCONT.3555041,AV BOMBEIROS VOLUNTARIOS,27,4580-053,PAREDES,-8.336474677738513,41.20556355478787
pt.ine.add.PTCONT.3555042,AV BOMBEIROS VOLUNTARIOS,27,4580-053,PAREDES,-8.336474677738513,41.20556355478787
pt.ine.add.PTCONT.3555043,AV BOMBEIROS VOLUNTARIOS,27,4580-053,PAREDES,-8.336474677738513,41.20556355478787
pt.ine.add.PTCONT.3555044,AV BOMBEIROS VOLUNTARIOS,27,4580-053,PAREDES,-8.336474677738513,41.20556355478787
pt.ine.add.PTCONT.3555045,AV BOMBEIROS VOLUNTARIOS,27,4580-053,PAREDES,-8.336474677738513,41.20556355478787
pt.ine.add.PTCONT.3555046,AV BOMBEIROS VOLUNTARIOS,27,4580-053,PAREDES,-8.336474677738513,41.20556355478787
pt.ine.add.PTCONT.3555047,AV BARÃO LOURENÇO MARTINS,5,4580-336,CETE,-8.351362471964846,41.17573197628614
pt.ine.add.PTCONT.3555048,AV BARÃO LOURENÇO MARTINS,5,4580-336,CETE,-8.351362471964846,41.17573197628614
pt.ine.add.PTCONT.3555088,R FEITEIRA,88,4585-415,REBORDOSA,-8.427058297755373,41.207033764761604
pt.ine.add.PTCONT.3555049,AV BARÃO LOURENÇO MARTINS,5,4580-336,CETE,-8.351362471964846,41.17573197628614
pt.ine.add.PTCONT.3555050,AV BARÃO LOURENÇO MARTINS,5,4580-336,CETE,-8.351362471964846,41.17573197628614
pt.ine.add.PTCONT.3555051,AV BARÃO LOURENÇO MARTINS,5,4580-336,CETE,-8.351362471964846,41.17573197628614
pt.ine.add.PTCONT.3555052,AV BARÃO LOURENÇO MARTINS,5,4580-336,CETE,-8.351362471964846,41.17573197628614
pt.ine.add.PTCONT.3555053,AV BARÃO LOURENÇO MARTINS,5,4580-336,CETE,-8.351362471964846,41.17573197628614
pt.ine.add.PTCONT.3555054,AV PADRE LUIS PINTO CARNEIRO,213,4585-172,GANDRA PRD,-8.436762058434642,41.1989587426647
pt.ine.add.PTCONT.3555055,R BARREIRO,1,4580-312,CETE,-8.363747177914105,41.17647321242986
pt.ine.add.PTCONT.3555056,R ALEM,89,4580-323,CETE,-8.370004384389427,41.176622591114736
pt.ine.add.PTCONT.3555057,AV PADRE MANUEL PINTO PREDA,2,4580-238,DUAS IGREJAS PRD,-8.37735858064462,41.24104198291583
pt.ine.add.PTCONT.3555058,R BARREIRO,85,4585-094,GANDRA PRD,-8.44413703741151,41.18794479318458
pt.ine.add.PTCONT.3555059,R DR BERNARDO PEREIRA LEITE,396,4580-352,CRISTELO PRD,-8.363102669360675,41.230680428690874
pt.ine.add.PTCONT.3555060,URB COCA,62,4580-310,CETE,-8.359583492141239,41.17170916738297
pt.ine.add.PTCONT.3555061,R MARGARIDAS,134,4585-592,RECAREI,-8.410371933229193,41.151896550679126
pt.ine.add.PTCONT.3555062,R SENHORA DOS BONS CAMINHOS,20,4585-594,RECAREI,-8.421006161239518,41.15640867045305
pt.ine.add.PTCONT.3555063,R FUNDÕES,9,4580-592,MOURIZ,-8.34517821473817,41.19446354602991
pt.ine.add.PTCONT.3555064,TV JOÃO PAULO II,51,4585-899,RECAREI,-8.427110386681724,41.16271431964351
pt.ine.add.PTCONT.3555065,R AGUIM,301,4585-696,SOBREIRA,-8.397920475137145,41.15722942802605
pt.ine.add.PTCONT.3555066,R FLORES,34,4585-424,REBORDOSA,-8.397869213379929,41.23029959522245
pt.ine.add.PTCONT.3555067,R PADRE ADRIANO MOREIRA MARTINS,644,4585-898,RECAREI,-8.433645524552661,41.166578333488246
pt.ine.add.PTCONT.3555068,AV JOSE VIEIRA CAMPOS,2,4585-900,RECAREI,-8.402959530710932,41.151283846675675
pt.ine.add.PTCONT.3555069,R CRUZ DAS ALMAS,,4585-271,PARADA DE TODEIA,-8.369878018133573,41.168005682959134
pt.ine.add.PTCONT.3555070,R CENTRO DO ALARDO,26-28,4585-383,REBORDOSA,-8.398215354416564,41.23036182867086
pt.ine.add.PTCONT.3555071,R GUIMBRA,118,4585-433,REBORDOSA,-8.39962394804173,41.22184053930875
pt.ine.add.PTCONT.3555072,R FONTE DA SERRA,,4585-682,SOBREIRA,-8.389455897124929,41.152719373034124
pt.ine.add.PTCONT.3555073,R FLORES,43,4585-273,PARADA DE TODEIA,-8.369602529242885,41.16761005697604
pt.ine.add.PTCONT.3555074,R LUIS DE CAMÕES,18 A,4585-444,REBORDOSA,-8.404861969403788,41.23112070105058
pt.ine.add.PTCONT.3555075,TV PADRAO,5,4585-476,REBORDOSA,-8.4060989210692,41.230280378998195
pt.ine.add.PTCONT.3555076,TV VALES,13,4585-533,REBORDOSA,-8.417091655004368,41.21277649835516
pt.ine.add.PTCONT.3555077,R JOÃO PAULO II,758,4585-899,RECAREI,-8.41922032109453,41.15669225565616
pt.ine.add.PTCONT.3555078,R ALAMBIQUE,219,4585-592,RECAREI,-8.407995025363409,41.15040751942426
pt.ine.add.PTCONT.3555079,R FLORES,43,4585-273,PARADA DE TODEIA,-8.369602529242885,41.16761005697604
pt.ine.add.PTCONT.3555080,R CRUZ DAS ALMAS,100,4585-271,PARADA DE TODEIA,-8.369066933372578,41.167782238297185
pt.ine.add.PTCONT.3555081,R FLORES,80,4585-273,PARADA DE TODEIA,-8.369053983941242,41.167494125218624
pt.ine.add.PTCONT.3555082,R ALDEIA NOVA,44,4585-346,REBORDOSA,-8.402459378862199,41.22985674524056
pt.ine.add.PTCONT.3555083,TV PASSOS,2,4585-482,REBORDOSA,-8.405097589678837,41.22753644819498
pt.ine.add.PTCONT.3555084,TV PASSOS,2,4585-482,REBORDOSA,-8.405097589678837,41.22753644819498
pt.ine.add.PTCONT.3555085,TV PASSOS,2,4585-482,REBORDOSA,-8.405097589678837,41.22753644819498
pt.ine.add.PTCONT.3555086,TV PASSOS,2,4585-482,REBORDOSA,-8.405097589678837,41.22753644819498
pt.ine.add.PTCONT.3555087,AV BOMBEIROS VOLUNTARIOS,693,4585-359,REBORDOSA,-8.417735273248553,41.212711879390326
pt.ine.add.PTCONT.3555089,R JOÃO PAULO II,758,4585-899,RECAREI,-8.41922032109453,41.15669225565616
pt.ine.add.PTCONT.3555090,R FLORES,60,4585-273,PARADA DE TODEIA,-8.369375515077094,41.167439439961065
pt.ine.add.PTCONT.3555091,R CENTRAL DO OUTEIRO,68,4585-591,RECAREI,-8.416004752019429,41.151423631408235
pt.ine.add.PTCONT.3555092,R GIESTAL,83,4585-275,PARADA DE TODEIA,-8.369107391954882,41.16577418223618
pt.ine.add.PTCONT.3555093,R CENTRAL DO OUTEIRO,854,4585-591,RECAREI,-8.422267397693194,41.15061569522819
pt.ine.add.PTCONT.3555094,R PINHAL,952,4585-713,SOBREIRA,-8.402254209309511,41.150682202974195
pt.ine.add.PTCONT.3555095,R ESCOLA SECUNDARIA,57,4585-410,REBORDOSA,-8.410039796691326,41.22295950450204
pt.ine.add.PTCONT.3555096,R CENTRAL DO OUTEIRO,854,4585-591,RECAREI,-8.422267397693194,41.15061569522819
pt.ine.add.PTCONT.3555097,R JUNQUEIRA,189,4585-552,SOBREIRA,-8.38892984487119,41.149172814040604
pt.ine.add.PTCONT.3555098,R TRAS DE VÁRZEA,682,4585-641,RECAREI,-8.405398949751737,41.156383590170094
pt.ine.add.PTCONT.3555099,R SOBREMOINHOS,81,4585-520,REBORDOSA,-8.414925805710022,41.22767489136162
pt.ine.add.PTCONT.3555100,LG PADRE ADRIANO DA ROCHA,6,4585-599,RECAREI,-8.416702988911636,41.153114738355406
pt.ine.add.PTCONT.3555101,R CENTRAL DE BUSTELO,397,4585-583,RECAREI,-8.451622197142266,41.1485122818348
pt.ine.add.PTCONT.3555102,R TALHADOURO,492,4585-628,RECAREI,-8.449306985243025,41.14763623046839
pt.ine.add.PTCONT.3555103,R REDONDO,,4585-722,SOBREIRA,-8.384746899818463,41.15497184749606
pt.ine.add.PTCONT.3555104,R CARVALHAL,,4585-578,SOBREIRA,-8.388753687885584,41.15902399908459
pt.ine.add.PTCONT.3555105,R POCINHO,150,4585-412,SOBREIRA,-8.394800560388502,41.13964197952842
pt.ine.add.PTCONT.3555106,R VALVIDE,103,4585-634,RECAREI,-8.422730452135346,41.1583853101201
pt.ine.add.PTCONT.3555107,R VALVIDE,103,4585-634,RECAREI,-8.422730452135346,41.1583853101201
pt.ine.add.PTCONT.3555110,AV PADRE MANUEL PINTO DE ABREU,206,4580-615,SOBROSA,-8.353547249328335,41.251489928250486
pt.ine.add.PTCONT.3555111,R CODECAL,8,4580-653,VILELA PRD,-8.37169378335317,41.24803214744083
pt.ine.add.PTCONT.3555112,TV OUTEIRO,52,4585-686,SOBREIRA,-8.403290445793996,41.109997817491674
pt.ine.add.PTCONT.3555113,R S COMBA,36,4585-694,SOBREIRA,-8.39845724868221,41.110099094635856
pt.ine.add.PTCONT.3555114,R S COMBA,36,4585-694,SOBREIRA,-8.39845724868221,41.110099094635856
pt.ine.add.PTCONT.3555115,R SANTO ESTEVÃO,79,4580-101,VILELA PRD,-8.395133282902448,41.23512313153055
pt.ine.add.PTCONT.3555117,R PADRE J B PEREIRA,71,4580-660,VILELA PRD,-8.3895422524387,41.23595510554834
pt.ine.add.PTCONT.3555120,R FACHO,,4580-627,SOBROSA,-8.355592292570753,41.25642931630264
pt.ine.add.PTCONT.3555121,R REIROS,71,4585-757,VANDOMA,-8.391358281896583,41.21244989686849
pt.ine.add.PTCONT.3555122,R CENTRAL DE VANDOMA RADIO JORNAL,655,4585-766,VANDOMA,-8.40888052575885,41.19397746104623
pt.ine.add.PTCONT.3555123,R CENTRAL DE VANDOMA RADIO JORNAL,655,4585-766,VANDOMA,-8.40888052575885,41.19397746104623
pt.ine.add.PTCONT.3555124,R CENTRAL DE VANDOMA RADIO JORNAL,655,4585-766,VANDOMA,-8.40888052575885,41.19397746104623
pt.ine.add.PTCONT.3555125,R CENTRAL DE VANDOMA RADIO JORNAL,655,4585-766,VANDOMA,-8.40888052575885,41.19397746104623
pt.ine.add.PTCONT.3555129,AV CENTRAL DE REIROS,427,4585-774,VANDOMA,-8.388315871838302,41.211988456219025
pt.ine.add.PTCONT.3555131,R ESCOLA,336,4585-549,SOBREIRA,-8.39082355220114,41.13690460126597
pt.ine.add.PTCONT.3555133,R PORTAS MAIORES,233,4585-678,SOBREIRA,-8.392740666772623,41.136792243618565
pt.ine.add.PTCONT.3555135,R ENTRONCAMENTO,191,4580-602,SOBROSA,-8.361801243973112,41.24740391564305
pt.ine.add.PTCONT.3555136,CC MAIA,,4580-666,VILELA PRD,-8.377909808678353,41.235314108418564
pt.ine.add.PTCONT.3555143,TV MOINHOS,39,4580-701,VILELA PRD,-8.37951234396209,41.242775213515756
pt.ine.add.PTCONT.3555150,R MONTE ERGUDO,172,4585-753,VANDOMA,-8.40952451667872,41.18837522895518
pt.ine.add.PTCONT.3555158,R PONTE PINGUELA,16,4585-203,GANDRA PRD,-8.450407324421437,41.188071758508286
pt.ine.add.PTCONT.3555159,R PONTE PINGUELA,242,4585-203,GANDRA PRD,-8.450776390504394,41.18798069792241
pt.ine.add.PTCONT.3555160,TV BOUCO,272,4580-799,LORDELO PRD,-8.422259823145868,41.23829073436835
pt.ine.add.PTCONT.3555161,CC S JOÃO,58,4580-459,LORDELO PRD,-8.419457340207922,41.241197104600516
pt.ine.add.PTCONT.3555162,CC S JOÃO,58,4580-459,LORDELO PRD,-8.419457340207922,41.241197104600516
pt.ine.add.PTCONT.3555163,TV S JOAO,17,4580-459,LORDELO PRD,-8.418991517584878,41.24106319844674
pt.ine.add.PTCONT.3555164,R COSTA VERDE,229,4580-424,LORDELO PRD,-8.436938353630554,41.23191394645686
pt.ine.add.PTCONT.3555165,CC S JOAO,17,4580-459,LORDELO PRD,-8.418991517584878,41.24106319844674
pt.ine.add.PTCONT.3555166,R RIBEIRO,207,4580-271,PAREDES,-8.328071829220505,41.21450134746723
pt.ine.add.PTCONT.3555167,R OUTEIRO,258,4580-581,LOUREDO PRD,-8.348335731356762,41.2340315492716
pt.ine.add.PTCONT.3555168,R SEIXADELO,213,4580-272,PAREDES,-8.3313565219171,41.21237072631743
pt.ine.add.PTCONT.3555169,R 1 DE MAIO,32,4580-581,LOUREDO PRD,-8.353182872016722,41.23178933047604
pt.ine.add.PTCONT.3555170,R 1 DE MAIO,32,4580-581,LOUREDO PRD,-8.353182872016722,41.23178933047604
pt.ine.add.PTCONT.3555171,CC SANTA,63,4580-859,LORDELO PRD,-8.423429349157958,41.24379838796504
pt.ine.add.PTCONT.3555172,TV COSME,,4580-530,LORDELO PRD,-8.409046807815077,41.23923258520093
pt.ine.add.PTCONT.3555173,R MADEIRA,217,4580-437,LORDELO PRD,-8.418799779630676,41.2326447010308
pt.ine.add.PTCONT.3555174,R NORA,175,4580-245,PAREDES,-8.342897746320627,41.211999112375025
pt.ine.add.PTCONT.3555175,PC FRANCISCO SA CARNEIRO,132,4580-824,LORDELO PRD,-8.413982312046185,41.23573600753072
pt.ine.add.PTCONT.3555176,PC FRANCISCO SA CARNEIRO,132,4580-824,LORDELO PRD,-8.413982312046185,41.23573600753072
pt.ine.add.PTCONT.3555177,PC FRANCISCO SA CARNEIRO,132,4580-824,LORDELO PRD,-8.413982312046185,41.23573600753072
pt.ine.add.PTCONT.3555178,PC FRANCISCO SA CARNEIRO,132,4580-824,LORDELO PRD,-8.413982312046185,41.23573600753072
pt.ine.add.PTCONT.3555179,PC FRANCISCO SA CARNEIRO,132,4580-824,LORDELO PRD,-8.413982312046185,41.23573600753072
pt.ine.add.PTCONT.3555180,PC FRANCISCO SA CARNEIRO,132,4580-824,LORDELO PRD,-8.413982312046185,41.23573600753072
pt.ine.add.PTCONT.3555181,PC FRANCISCO SA CARNEIRO,132,4580-824,LORDELO PRD,-8.413982312046185,41.23573600753072
pt.ine.add.PTCONT.3555182,PC FRANCISCO SA CARNEIRO,132,4580-824,LORDELO PRD,-8.413982312046185,41.23573600753072
pt.ine.add.PTCONT.3555183,R BENEIRAS,296,4580-481,LORDELO PRD,-8.418592199212995,41.24250486787522
pt.ine.add.PTCONT.3555184,R FLORESTA,138,4580-430,LORDELO PRD,-8.43374767508955,41.23320092520299
pt.ine.add.PTCONT.3555185,R OUTEIRO,105,4580-462,LORDELO PRD,-8.421167942669452,41.2422733468802
pt.ine.add.PTCONT.3555186,R OUTEIRO,105,4580-462,LORDELO PRD,-8.421167942669452,41.2422733468802
pt.ine.add.PTCONT.3555187,R OUTEIRO,,4580-462,LORDELO PRD,-8.421225848976075,41.24187701539215
pt.ine.add.PTCONT.3555188,R CRISTINAS,,4580-426,LORDELO PRD,-8.430454471159425,41.23294835284841
pt.ine.add.PTCONT.3555189,R CARRETEIROS,108,4585-071,GANDRA PRD,-8.4511671790603,41.189915548381634
pt.ine.add.PTCONT.3555190,R AGRAS,214,4580-796,LORDELO PRD,-8.41231005564781,41.2520107346586
pt.ine.add.PTCONT.3555191,AV ADELINO AMARO DA COSTA,17,4580-795,LORDELO PRD,-8.413466748226805,41.23790728824009
pt.ine.add.PTCONT.3555192,AV ADELINO AMARO DA COSTA,17,4580-795,LORDELO PRD,-8.413466748226805,41.23790728824009
pt.ine.add.PTCONT.3555193,AV ADELINO AMARO DA COSTA,17,4580-795,LORDELO PRD,-8.413466748226805,41.23790728824009
pt.ine.add.PTCONT.3555194,AV ADELINO AMARO DA COSTA,17,4580-795,LORDELO PRD,-8.413466748226805,41.23790728824009
pt.ine.add.PTCONT.3555195,AV ADELINO AMARO DA COSTA,17,4580-795,LORDELO PRD,-8.413466748226805,41.23790728824009
pt.ine.add.PTCONT.3555196,AV ADELINO AMARO DA COSTA,17,4580-795,LORDELO PRD,-8.413466748226805,41.23790728824009
pt.ine.add.PTCONT.3555197,AV ADELINO AMARO DA COSTA,17,4580-795,LORDELO PRD,-8.413466748226805,41.23790728824009
pt.ine.add.PTCONT.3555198,AV ADELINO AMARO DA COSTA,17,4580-795,LORDELO PRD,-8.413466748226805,41.23790728824009
pt.ine.add.PTCONT.3555199,R BALMONTES,,4580-278,PAREDES,-8.33383271638164,41.22276638877383
pt.ine.add.PTCONT.3555200,R CENTRAL DA BOUCA,,4580-591,MOURIZ,-8.345473747460932,41.20844669746461
pt.ine.add.PTCONT.3558133,PC FRANCISCO SA CARNEIRO,132,4580-824,LORDELO PRD,-8.413982312046185,41.23573600753072
pt.ine.add.PTCONT.3558154,R DR ANTONIO MENDES MOREIRA,17,4580-044,PAREDES,-8.330418502577462,41.2097250737484
pt.ine.add.PTCONT.3558192,R CENTRAL DA GANDRA,14,4585-116,GANDRA PRD,-8.43942065813312,41.183635356334726
pt.ine.add.PTCONT.3558215,AV BOMBEIROS VOLUNTARIOS,27,4580-053,PAREDES,-8.336474677738513,41.20556355478787
pt.ine.add.PTCONT.3558304,R BARROSAS,4,4585-596,RECAREI,-8.436993933672595,41.1691808112775
pt.ine.add.PTCONT.3558313,R ALBERTO COELHO MOREIRA,97,4585-082,GANDRA PRD,-8.433229594216819,41.17987883926779
pt.ine.add.PTCONT.3558346,R OUTEIRO DE VEZ,164,4585-013,BALTAR,-8.386825459553668,41.19039941767637
pt.ine.add.PTCONT.3558355,R SERZEDO,7,4585-058,BALTAR,-8.391158599264076,41.19197455149221
pt.ine.add.PTCONT.3558356,R JOÃO PAULO II,758,4585-899,RECAREI,-8.41922032109453,41.15669225565616
pt.ine.add.PTCONT.3558369,R SARGEAL,461,4585-057,BALTAR,-8.374455325679536,41.197656473676524
pt.ine.add.PTCONT.3558370,AV BOMBEIROS VOLUNTARIOS,27,4580-053,PAREDES,-8.336474677738513,41.20556355478787
pt.ine.add.PTCONT.3558371,AV BARÃO LOURENÇO MARTINS,5,4580-336,CETE,-8.351362471964846,41.17573197628614
pt.ine.add.PTCONT.3558387,CC CRUZES,73,4580-817,LORDELO PRD,-8.415130064411942,41.24190111124619
pt.ine.add.PTCONT.3558397,R BAIRRO,76,4580-402,GONDALÃES,-8.342557397194893,41.22865765415932
pt.ine.add.PTCONT.3558419,R S CRUZ,84,4585-248,GANDRA PRD,-8.442327382906655,41.185860662584055
pt.ine.add.PTCONT.3558420,R PROF ANA DO ANJO,7,4585-775,VANDOMA,-8.3936150323883,41.21022975811069
pt.ine.add.PTCONT.3558437,R DR ANTONIO MENDES MOREIRA,17C,4580-044,PAREDES,-8.330418502577462,41.2097250737484
pt.ine.add.PTCONT.3558438,R MAESTRO VIRGILIO PEREIRA,60,4580-218,PAREDES,-8.340377569511464,41.20688022938812
pt.ine.add.PTCONT.3558451,R RIBEIRA,550,4580-552,LORDELO PRD,-8.40582515148314,41.23902415862063
pt.ine.add.PTCONT.3558660,R CASTANHEIROS,82,4585-919,SOBREIRA,-8.394890950048419,41.156380937012635
pt.ine.add.PTCONT.3558661,R CASTANHEIROS,82,4585-919,SOBREIRA,-8.394890950048419,41.156380937012635
pt.ine.add.PTCONT.3558662,R CRUZEIRO,246,4585-704,SOBREIRA,-8.386871362498116,41.14670115934807
pt.ine.add.PTCONT.3558679,R S TIAGO,418,4585-513,REBORDOSA,-8.417879031556474,41.20461666392037
pt.ine.add.PTCONT.3558709,R BAIRRO,67,4580-402,GONDALÃES,-8.342557397194893,41.22865765415932
pt.ine.add.PTCONT.3558732,R SANTO ANTÓNIO,253,4580-371,DUAS IGREJAS PRD,-8.370173739802805,41.23677998025297
pt.ine.add.PTCONT.3558733,R SANTO ANTÓNIO,308 C,4585-352,REBORDOSA,-8.40092610455921,41.228239554084794
pt.ine.add.PTCONT.3558734,CC ARCO,1,4585-689,SOBREIRA,-8.392945070431683,41.152369388796785
pt.ine.add.PTCONT.3558744,R SANTO ANTÓNIO,31,4585-092,GANDRA PRD,-8.436257914475654,41.20079694912584
pt.ine.add.PTCONT.3558776,R FLORES,34,4585-424,REBORDOSA,-8.397869213379929,41.23029959522245
pt.ine.add.PTCONT.3558777,R CENTRO DO ALARDO,26-28,4585-383,REBORDOSA,-8.398215354416564,41.23036182867086
pt.ine.add.PTCONT.3558778,PC FRANCISCO SA CARNEIRO,132,4580-824,LORDELO PRD,-8.413982312046185,41.23573600753072
pt.ine.add.PTCONT.3558779,AV ADELINO AMARO DA COSTA,17,4580-795,LORDELO PRD,-8.413466748226805,41.23790728824009
pt.ine.add.PTCONT.3558816,R JOÃO PAULO II,758,4585-899,RECAREI,-8.41922032109453,41.15669225565616
pt.ine.add.PTCONT.3558817,R JOÃO PAULO II,758,4585-899,RECAREI,-8.41922032109453,41.15669225565616
pt.ine.add.PTCONT.3558818,R JOÃO PAULO II,758,4585-899,RECAREI,-8.41922032109453,41.15669225565616
pt.ine.add.PTCONT.3558819,R JOÃO PAULO II,758,4585-899,RECAREI,-8.41922032109453,41.15669225565616
pt.ine.add.PTCONT.3558820,R JOÃO PAULO II,758,4585-899,RECAREI,-8.41922032109453,41.15669225565616
pt.ine.add.PTCONT.3558821,R JOÃO PAULO II,758,4585-899,RECAREI,-8.41922032109453,41.15669225565616
pt.ine.add.PTCONT.3558822,R JOÃO PAULO II,758,4585-899,RECAREI,-8.41922032109453,41.15669225565616
pt.ine.add.PTCONT.3558823,R JOÃO PAULO II,758,4585-899,RECAREI,-8.41922032109453,41.15669225565616
pt.ine.add.PTCONT.3558824,R JOÃO PAULO II,758,4585-899,RECAREI,-8.41922032109453,41.15669225565616
pt.ine.add.PTCONT.3559336,R ZONA INDUSTRIAL,197,4585-538,REBORDOSA,-8.427903122878499,41.20930969151381
pt.ine.add.PTCONT.3559337,R CARVALHA,60,4585-373,REBORDOSA,-8.416743030336898,41.22592360214473
pt.ine.add.PTCONT.3559338,CC DE CAPELMONTE,45,4585-369,REBORDOSA,-8.42067507501052,41.21147098845509
pt.ine.add.PTCONT.3559413,R ALTO ALÉM DO RIO,60,4585-021,BALTAR,-8.375109266438827,41.19071277026911
pt.ine.add.PTCONT.3559414,R CASAIS,52,4585-111,GANDRA PRD,-8.416925954732426,41.190986490076845
pt.ine.add.PTCONT.3559415,URB CIDADE DE GANDRA,15,4585-739,GANDRA PRD,-8.436729959109853,41.18943226273029
pt.ine.add.PTCONT.3559416,R RIBEIRA,1064,4580-552,LORDELO PRD,-8.406377395200206,41.242732598074575
pt.ine.add.PTCONT.3559417,R EIRAS,214,4580-818,LORDELO PRD,-8.411443796935034,41.250311032915505
pt.ine.add.PTCONT.3559443,AV BOMBEIROS VOLUNTÁRIOS,1287,4585-015,BALTAR,-8.383797670956087,41.190370030615874
pt.ine.add.PTCONT.3559444,R S DAMIÃO,283,4580-288,BESTEIROS PRD,-8.345191954393124,41.228256644203796
pt.ine.add.PTCONT.3559445,R FACHO,297,4580-764,BESTEIROS PRD,-8.34887620787893,41.22790763749227
pt.ine.add.PTCONT.3559446,TV VALE DA ESTRADA,77,4585-220,GANDRA PRD,-8.42477034889156,41.185834426862854
pt.ine.add.PTCONT.3559447,TV VALE DA ESTRADA,77,4585-220,GANDRA PRD,-8.42477034889156,41.185834426862854
pt.ine.add.PTCONT.3559448,TV VALE DA ESTRADA,77,4585-220,GANDRA PRD,-8.42477034889156,41.185834426862854
pt.ine.add.PTCONT.3559451,R FACHO,297,4580-764,BESTEIROS PRD,-8.34887620787893,41.22790763749227
pt.ine.add.PTCONT.3559505,R FÁBRICA,229,4580-658,VILELA PRD,-8.38740465740061,41.2445589022677
pt.ine.add.PTCONT.3561495,R S DAMIÃO,625,4580-288,BESTEIROS PRD,-8.347952043535091,41.22613552397607
pt.ine.add.PTCONT.3561496,AV S TOME,1263,4580-291,BITARÃES,-8.325862498456043,41.21743146100729
pt.ine.add.PTCONT.3561497,TV RAPOSINHOS,,4585-206,AGUIAR DE SOUSA,-8.412083242862568,41.12842694848731
pt.ine.add.PTCONT.3561500,AV S TOME,325,4580-792,BITARÃES,-8.311487742431785,41.228664953495525
pt.ine.add.PTCONT.3561501,R S JOSE,518,4580-119,PAREDES,-8.32169240891161,41.20623701984727
pt.ine.add.PTCONT.3561503,R OUTEIRO DO MOINHO,363,4580-282,BEIRE,-8.316475041949127,41.24639550655172
pt.ine.add.PTCONT.3561506,R MARECOS,46,4580-141,PAREDES,-8.319324236160806,41.212021635033594
pt.ine.add.PTCONT.3561507,R MARECOS,244,4580-141,PAREDES,-8.321314075936588,41.21151415961451
pt.ine.add.PTCONT.3561510,R PADRE ANTÓNIO VIDINHA,,4585-004,AGUIAR DE SOUSA,-8.44650084251941,41.12619541148044
pt.ine.add.PTCONT.3561511,R FEITAL,390,4585-038,BALTAR,-8.37580195354239,41.184615380812794
pt.ine.add.PTCONT.3561512,TV PEREIRO,12,4580-299,BITARÃES,-8.311945776088079,41.226053003751055
pt.ine.add.PTCONT.3561513,R PADRE ANTÓNIO VIDINHA,,4585-004,AGUIAR DE SOUSA,-8.447964775890197,41.12602934030379
pt.ine.add.PTCONT.3561514,AV CENTRAL DE ASTROMIL,744,4585-820,ASTROMIL,-8.415801459833832,41.19282613700204
pt.ine.add.PTCONT.3561515,R NOSSA SENHORA DE FATIMA,140,4585-017,BALTAR,-8.37454265678925,41.18573456498717
pt.ine.add.PTCONT.3561516,R NSA SRA FATIMA,138,4585-017,BALTAR,-8.37454265678925,41.18573456498717
pt.ine.add.PTCONT.3561518,AV REPUBLICA,160,4585-018,BALTAR,-8.39036153425155,41.19238152912631
pt.ine.add.PTCONT.3561519,AV REPUBLICA,160,4585-018,BALTAR,-8.39036153425155,41.19238152912631
pt.ine.add.PTCONT.3561520,AV REPUBLICA,160,4585-018,BALTAR,-8.39036153425155,41.19238152912631
pt.ine.add.PTCONT.3561521,AV REPUBLICA,160,4585-018,BALTAR,-8.39036153425155,41.19238152912631
pt.ine.add.PTCONT.3561522,AV REPUBLICA,160,4585-018,BALTAR,-8.39036153425155,41.19238152912631
pt.ine.add.PTCONT.3561523,AV REPUBLICA,160,4585-018,BALTAR,-8.39036153425155,41.19238152912631
pt.ine.add.PTCONT.3561524,R D GABRIEL DE SOUSA,6,4580-288,BESTEIROS PRD,-8.351827255689129,41.21870870340232
pt.ine.add.PTCONT.3561525,AV S TOME,,4580-792,BITARÃES,-8.324786801455927,41.220674799328435
pt.ine.add.PTCONT.3561526,AV S TOME,10,4580-792,BITARÃES,-8.324786801455927,41.220674799328435
pt.ine.add.PTCONT.3561527,R CENTRAL DE ALVRE,1400,4585-008,AGUIAR DE SOUSA,-8.418416818183305,41.1334899274641
pt.ine.add.PTCONT.3561529,R MAGALHÃES,17,4580-166,BEIRE,-8.327038650910298,41.240156264295855
pt.ine.add.PTCONT.3561530,URB SOUTO,239,4580-276,PAREDES,-8.327596641296957,41.21913035547793
pt.ine.add.PTCONT.3561531,R ENCOSTA DOS RAPOSINHOS,,4585-206,AGUIAR DE SOUSA,-8.411797985953282,41.131372083463816
pt.ine.add.PTCONT.3561532,R TORRE DA MADUREIRA,101,4580-874,BEIRE,-8.3285673294453,41.24074796015691
pt.ine.add.PTCONT.3561533,R OUTEIRO DO MOINHO,196,4580-282,BEIRE,-8.310001635070767,41.24370435979188
pt.ine.add.PTCONT.3561534,URB QUINTA DE CARREGOSO,49,4580-294,BITARÃES,-8.321525912617169,41.21885231112371
pt.ine.add.PTCONT.3561535,PCT TERREIRO DO PACO,76,4580-004,PAREDES,-8.319778421926042,41.21659508076412
pt.ine.add.PTCONT.3561536,PCT TERREIRO DO PACO,76,4580-004,PAREDES,-8.319778421926042,41.21659508076412
pt.ine.add.PTCONT.3561537,PCT TERREIRO DO PACO,76,4580-004,PAREDES,-8.319778421926042,41.21659508076412
pt.ine.add.PTCONT.3561538,PCT TERREIRO DO PACO,76,4580-004,PAREDES,-8.319778421926042,41.21659508076412
pt.ine.add.PTCONT.3561539,PCT TERREIRO DO PACO,76,4580-004,PAREDES,-8.319778421926042,41.21659508076412
pt.ine.add.PTCONT.3561540,AV BOMBEIROS VOLUNTARIOS,156,4580-053,PAREDES,-8.340061388996755,41.20491785949627
pt.ine.add.PTCONT.3561580,AV BOMBEIROS VOLUNTARIOS,250,4580-053,PAREDES,-8.341295113782396,41.20295269669642
pt.ine.add.PTCONT.3561581,AV BOMBEIROS VOLUNTARIOS,250,4580-053,PAREDES,-8.341295113782396,41.20295269669642
pt.ine.add.PTCONT.3561582,AV BOMBEIROS VOLUNTARIOS,250,4580-053,PAREDES,-8.341295113782396,41.20295269669642
pt.ine.add.PTCONT.3561583,R NOVA DO CARDAL,41,4580-311,CETE,-8.348052775266261,41.18039344823437
pt.ine.add.PTCONT.3561584,TV MAIA,60,4580-382,DUAS IGREJAS PRD,-8.377170805521784,41.235459745232745
pt.ine.add.PTCONT.3561585,TV MAIA,60,4580-382,DUAS IGREJAS PRD,-8.377170805521784,41.235459745232745
pt.ine.add.PTCONT.3561586,TV MAIA,60,4580-382,DUAS IGREJAS PRD,-8.377170805521784,41.235459745232745
pt.ine.add.PTCONT.3561587,R VALINHOS,477,4580-389,DUAS IGREJAS PRD,-8.38141035771464,41.22733784145687
pt.ine.add.PTCONT.3561588,AV BOMBEIROS VOLUNTARIOS,250,4580-053,PAREDES,-8.341295113782396,41.20295269669642
pt.ine.add.PTCONT.3561589,AV BOMBEIROS VOLUNTARIOS,250,4580-053,PAREDES,-8.341295113782396,41.20295269669642
pt.ine.add.PTCONT.3561590,AV BOMBEIROS VOLUNTARIOS,250,4580-053,PAREDES,-8.341295113782396,41.20295269669642
pt.ine.add.PTCONT.3561591,AV BOMBEIROS VOLUNTARIOS,950,4580-053,PAREDES,-8.341295113782396,41.20295269669642
pt.ine.add.PTCONT.3561592,AV BOMBEIROS VOLUNTARIOS,250,4580-053,PAREDES,-8.341295113782396,41.20295269669642
pt.ine.add.PTCONT.3561593,AV BOMBEIROS VOLUNTARIOS,250,4580-053,PAREDES,-8.341295113782396,41.20295269669642
pt.ine.add.PTCONT.3561594,R LIBERDADE,140,4580-311,CETE,-8.35097835893432,41.17130256085156
pt.ine.add.PTCONT.3561595,R VALE,,4580-388,DUAS IGREJAS PRD,-8.374308041577692,41.225723164179705
pt.ine.add.PTCONT.3561596,R MARGINAL DO RIO SOUSA,247,4580-144,PAREDES,-8.325034567654429,41.19936120912975
pt.ine.add.PTCONT.3561597,TV VALE,98,4580-388,DUAS IGREJAS PRD,-8.375067408691311,41.22465906701587
pt.ine.add.PTCONT.3561598,TV VALE DA ESTRADA,57,4585-220,GANDRA PRD,-8.425318943985863,41.185905070946404
pt.ine.add.PTCONT.3561599,R ESCOLA,55,4580-232,DUAS IGREJAS PRD,-8.382885143536104,41.22625413970058
pt.ine.add.PTCONT.3561600,TV TELHA,41,4580-395,DUAS IGREJAS PRD,-8.371693116739547,41.22160465388094
pt.ine.add.PTCONT.3561601,AV BARÃO LOURENÇO MARTINS,,4580-336,CETE,-8.353945671501657,41.17842835716611
pt.ine.add.PTCONT.3561602,AV TELHA,10,4580-395,DUAS IGREJAS PRD,-8.382129886131969,41.225229288601
pt.ine.add.PTCONT.3561603,TV CORRELO,7,4585-384,GANDRA PRD,-8.44309955599361,41.190369752750335
pt.ine.add.PTCONT.3561604,TV CORRELO,5,4585-384,GANDRA PRD,-8.44309955599361,41.190369752750335
pt.ine.add.PTCONT.3561605,TV CORRELO 4,,4585-384,GANDRA PRD,-8.44309955599361,41.190369752750335
pt.ine.add.PTCONT.3561606,R GRANJA,205,4585-158,GANDRA PRD,-8.435195634353997,41.19274988688485
pt.ine.add.PTCONT.3561607,R MOREIRO,59,4585-561,GANDRA PRD,-8.444634627268922,41.20741976651542
pt.ine.add.PTCONT.3561608,R COELHO,1081,4580-331,CETE,-8.373923074707795,41.18253932269819
pt.ine.add.PTCONT.3561609,TV CERQUEIRA,39,4585-117,GANDRA PRD,-8.435315435743375,41.20065535726814
pt.ine.add.PTCONT.3561610,R DR BERNARDO PEREIRA LEITE,15,4580-352,CRISTELO PRD,-8.363534009384036,41.231237830721994
pt.ine.add.PTCONT.3561611,R IGREJA,9,4580-302,DUAS IGREJAS PRD,-8.375337776705722,41.23974964003514
pt.ine.add.PTCONT.3561612,TV MOREIRO,126,4585-561,GANDRA PRD,-8.441335317658039,41.20813998332062
pt.ine.add.PTCONT.3561613,R ELIAS MOREIRA NETO,13,4585-132,GANDRA PRD,-8.432516301042043,41.19597142379048
pt.ine.add.PTCONT.3561614,R CALVÁRIO,90,4585-587,RECAREI,-8.4067001808057,41.15128402743607
pt.ine.add.PTCONT.3561615,R CORTINHA,100,4585-394,REBORDOSA,-8.401451358928377,41.22543800424013
pt.ine.add.PTCONT.3561616,R TAIPAS,194,4585-597,RECAREI,-8.422205685644538,41.15555025049777
pt.ine.add.PTCONT.3561617,AV JOSE VIEIRA CAMPOS,273,4585-900,RECAREI,-8.402533545888225,41.15198718580055
pt.ine.add.PTCONT.3561618,R BISCOVA,154,4585-638,RECAREI,-8.405583099250949,41.15769779358838
pt.ine.add.PTCONT.3561619,R CALVÁRIO,176,4580-594,MOURIZ,-8.361695123426081,41.19981652966183
pt.ine.add.PTCONT.3561620,R QUINTA DE BAIXO,165,4585-505,REBORDOSA,-8.425054090227874,41.22286839275049
pt.ine.add.PTCONT.3561621,RAMP MURO,92,4585-464,REBORDOSA,-8.414503470321783,41.21262077452224
pt.ine.add.PTCONT.3561622,R CENTRAL DA QUINTA,63,4585-379,REBORDOSA,-8.401895268074298,41.22899365413872
pt.ine.add.PTCONT.3561623,R GUIMBRA,114,4585-433,REBORDOSA,-8.39999393385234,41.2219117166188
pt.ine.add.PTCONT.3561624,R LAMAS,216,4585-441,REBORDOSA,-8.419639326954101,41.21730834656872
pt.ine.add.PTCONT.3561625,TV S MARCOS,222,4585-449,REBORDOSA,-8.415695001657488,41.22073071440616
pt.ine.add.PTCONT.3561626,R QUINTA,183,4585-503,REBORDOSA,-8.422339051977294,41.221083393821914
pt.ine.add.PTCONT.3561627,R CENTRAL DE CASTROMIL,,4585-679,SOBREIRA,-8.387191559204053,41.155587783343364
pt.ine.add.PTCONT.3561628,R MALMEQUERES,137,4585-591,RECAREI,-8.419519260608384,41.15146897294562
pt.ine.add.PTCONT.3561629,R CAL,105,4580-594,MOURIZ,-8.35660295263297,41.192334930601824
pt.ine.add.PTCONT.3561630,TV VALES,92,4585-533,REBORDOSA,-8.41722843094138,41.21131746624719
pt.ine.add.PTCONT.3561631,R FLORES,120,4585-273,PARADA DE TODEIA,-8.36842293246581,41.1676304815921
pt.ine.add.PTCONT.3561632,R LUIS DE CAMÕES,114,4585-444,REBORDOSA,-8.403070139143642,41.230458600515306
pt.ine.add.PTCONT.3561633,AV BOMBEIROS VOLUNTARIOS,383,4585-359,REBORDOSA,-8.414045467882946,41.21705200070761
pt.ine.add.PTCONT.3561634,R JUNQUEIRA,297,4585-552,SOBREIRA,-8.388159655493094,41.15023703979892
pt.ine.add.PTCONT.3561635,R JUNQUEIRA,297,4585-552,SOBREIRA,-8.388159655493094,41.15023703979892
pt.ine.add.PTCONT.3561636,TV FONTE,67,4585-612,RECAREI,-8.443261965690356,41.15657600494536
pt.ine.add.PTCONT.3561637,R COLONIA,35,4580-068,MOURIZ,-8.353851432129112,41.189404826395425
pt.ine.add.PTCONT.3561638,R S TIAGO,46F,4585-513,REBORDOSA,-8.41908812815496,41.21122282016684
pt.ine.add.PTCONT.3561639,TV PASSOS,67,4585-482,REBORDOSA,-8.404986706868904,41.22668130475838
pt.ine.add.PTCONT.3561640,AV BOMBEIROS VOLUNTARIOS,398,4585-359,REBORDOSA,-8.414546305077565,41.21705077778473
pt.ine.add.PTCONT.3561641,TV PALHEIRAS,15,4580-060,MOURIZ,-8.355945152895792,41.188176205512825
pt.ine.add.PTCONT.3561642,R CENTRAL DE MOURIZ,570,4580-590,MOURIZ,-8.35323581626003,41.19778002537143
pt.ine.add.PTCONT.3561643,R D CONG MANUEL BARBOSA LEAO,3,4585-279,PARADA DE TODEIA,-8.370506871115365,41.160656824530044
pt.ine.add.PTCONT.3561644,R CANDEEIRA,77,4585-364,REBORDOSA,-8.396825041306547,41.22868122391272
pt.ine.add.PTCONT.3561645,R CARVALHA,204,4585-373,REBORDOSA,-8.41781836474552,41.22362485998436
pt.ine.add.PTCONT.3561646,CC MONTE ALTO,24,4585-461,REBORDOSA,-8.420595629912963,41.21238962422003
pt.ine.add.PTCONT.3561647,CC FONTELA,46,4585-639,SOBREIRA,-8.39727276829432,41.15911282958169
pt.ine.add.PTCONT.3561648,CAM CURRES,46,4585-481,SOBREIRA,-8.398119739764285,41.14162436455868
pt.ine.add.PTCONT.3561649,R JOÃO PAULO II,1146,4585-899,RECAREI,-8.42270575211967,41.158187276036266
pt.ine.add.PTCONT.3561650,CC PORTELA,34,4585-865,REBORDOSA,-8.427116689247349,41.20143294129849
pt.ine.add.PTCONT.3561651,TV PORTELA,55,4585-496,REBORDOSA,-8.427059900309983,41.20206338751237
pt.ine.add.PTCONT.3561652,TV PORTELA,55,4585-496,REBORDOSA,-8.427059900309983,41.20206338751237
pt.ine.add.PTCONT.3561653,R PADRE BERNARDINO MOREIRA LOPES,924,4585-592,RECAREI,-8.409927424826842,41.15384256622375
pt.ine.add.PTCONT.3561654,AV S LUZIA,262,4585-447,REBORDOSA,-8.401513972475575,41.2261672040689
pt.ine.add.PTCONT.3561655,R JOAO PAULO II,721,4585-899,RECAREI,-8.418896538099157,41.15620682315726
pt.ine.add.PTCONT.3561656,R JOAO PAULO II,721,4585-899,RECAREI,-8.418896538099157,41.15620682315726
pt.ine.add.PTCONT.3561657,R JOAO PAULO II,721,4585-899,RECAREI,-8.418896538099157,41.15620682315726
pt.ine.add.PTCONT.3561658,R JOAO PAULO II,721,4585-899,RECAREI,-8.418896538099157,41.15620682315726
pt.ine.add.PTCONT.3561659,R JOAO PAULO II,729,4585-899,RECAREI,-8.418896538099157,41.15620682315726
pt.ine.add.PTCONT.3561660,R JOAO PAULO II,721,4585-899,RECAREI,-8.418896538099157,41.15620682315726
pt.ine.add.PTCONT.3561661,R AGUIM,584,4585-696,SOBREIRA,-8.400703558076014,41.1560524272964
pt.ine.add.PTCONT.3561662,R OLIVEIRAS,4B,4585-789,SOBREIRA,-8.397752871598954,41.112576937951864
pt.ine.add.PTCONT.3561663,R CAMILO CASTELO BRANCO,53,4585-776,VANDOMA,-8.388162364974482,41.20316458387992
pt.ine.add.PTCONT.3561666,AV VASCO DA GAMA,135,4580-097,VILELA PRD,-8.371340811064815,41.24939251785095
pt.ine.add.PTCONT.3561667,R COMEND E C SILVA,59,4580-689,VILELA PRD,-8.369849779042077,41.246172076335064
pt.ine.add.PTCONT.3561668,R AGRAS DA TORRE,128,4580-640,SOBROSA,-8.35594798144911,41.248739015416184
pt.ine.add.PTCONT.3561669,R CENTRAL DE VILA COVA,,4580-630,VILA COVA DE CARROS,-8.36783790340966,41.20735878662635
pt.ine.add.PTCONT.3561672,R RAMIRO PINTO DE MEIRELES,12,4580-625,SOBROSA,-8.3530695848927,41.2584781220542
pt.ine.add.PTCONT.3561673,R OUSAREM,30,4580-740,SOBROSA,-8.34758042832634,41.24380257282204
pt.ine.add.PTCONT.3561674,AV CENTRAL DE REIROS,351,4585-774,VANDOMA,-8.387067668185507,41.21297268329704
pt.ine.add.PTCONT.3561675,R CENTRAL DE VANDOMA,448,4585-766,VANDOMA,-8.406691649177153,41.19219982625382
pt.ine.add.PTCONT.3561676,AV CENTRAL DE REIROS,497,4585-774,VANDOMA,-8.389601602492306,41.21146335081184
pt.ine.add.PTCONT.3561677,R FUNDÃO,,4580-699,VILELA PRD,-8.374976779218445,41.24213652443224
pt.ine.add.PTCONT.3561679,R ALDEIA,51,4585-732,VANDOMA,-8.390742674995584,41.21054236583002
pt.ine.add.PTCONT.3561680,R VENDAS,46,4585-772,VANDOMA,-8.40294064829737,41.190245733187695
pt.ine.add.PTCONT.3561681,R NOVA DE FONTES,419,4580-689,VILELA PRD,-8.365263101287645,41.244614677513724
pt.ine.add.PTCONT.3561685,AV NOVAL,43,4580-673,VILELA PRD,-8.39178083934241,41.24101048678696
pt.ine.add.PTCONT.3561686,AV NOVAL,119,4580-673,VILELA PRD,-8.391222369460936,41.2415700032348
pt.ine.add.PTCONT.3561687,AV NOVAL,119,4580-673,VILELA PRD,-8.391222369460936,41.2415700032348
pt.ine.add.PTCONT.3561688,R PROF JACINTO LEAL,145,4580-752,SOBROSA,-8.358119420589947,41.252237439403544
pt.ine.add.PTCONT.3561689,R MAIA,,4580-666,VILELA PRD,-8.378765459357409,41.234465886049755
pt.ine.add.PTCONT.3561693,R D AFONSO III,277,4580-744,SOBROSA,-8.356621699140028,41.2468828365092
pt.ine.add.PTCONT.3561694,R D AFONSO III,277,4580-744,SOBROSA,-8.356621699140028,41.2468828365092
pt.ine.add.PTCONT.3561695,TV PENA,56,4580-702,VILELA PRD,-8.379992231124403,41.243494525057905
pt.ine.add.PTCONT.3561697,R PRADO,224,4580-744,SOBROSA,-8.357893382486994,41.245466695139974
pt.ine.add.PTCONT.3561703,AV DOMINGOS BARROS,4,4585-065,VANDOMA,-8.399817150262892,41.20187757980872
pt.ine.add.PTCONT.3561707,TV GALINHEIROS,9,4585-156,GANDRA PRD,-8.450016830000914,41.1861909299655
pt.ine.add.PTCONT.3561708,TV GALINHEIROS,9,4585-156,GANDRA PRD,-8.450016830000914,41.1861909299655
pt.ine.add.PTCONT.3561709,TV GALINHEIROS,9,4585-156,GANDRA PRD,-8.450016830000914,41.1861909299655
pt.ine.add.PTCONT.3561710,TV GALINHEIROS,9,4585-156,GANDRA PRD,-8.450016830000914,41.1861909299655
pt.ine.add.PTCONT.3561711,TV GALINHEIROS,9,4585-156,GANDRA PRD,-8.450016830000914,41.1861909299655
pt.ine.add.PTCONT.3561712,TV GALINHEIROS,9,4585-156,GANDRA PRD,-8.450016830000914,41.1861909299655
pt.ine.add.PTCONT.3561713,TV GALINHEIROS,9,4585-156,GANDRA PRD,-8.450016830000914,41.1861909299655
pt.ine.add.PTCONT.3561714,EN 209,,4580-439,LORDELO PRD,-8.414311699107474,41.24022832346847
pt.ine.add.PTCONT.3561715,R VENDA,,4580-581,LOUREDO PRD,-8.346035258549083,41.238204797265794
pt.ine.add.PTCONT.3561716,URB MO,86,4580-265,PAREDES,-8.326932092503117,41.216196078141486
pt.ine.add.PTCONT.3561717,URB MO,62,4580-265,PAREDES,-8.326932092503117,41.216196078141486
pt.ine.add.PTCONT.3561718,R DR CARLOS LEÃO LOPES CARDOSO,21,4580-061,PAREDES,-8.339706515987505,41.20580992295456
pt.ine.add.PTCONT.3561719,R ALTO BELA VISTA,18,4580-581,LOUREDO PRD,-8.339398387187533,41.24055798439901
pt.ine.add.PTCONT.3561720,TV IGREJA,6,4580-253,PAREDES,-8.333608610383001,41.21577045002203
pt.ine.add.PTCONT.3561721,R RIBEIRA,259,4580-552,LORDELO PRD,-8.40668884998785,41.23732030676541
pt.ine.add.PTCONT.3561722,R PADRAO,140,4580-493,LORDELO PRD,-8.405292022992004,41.23128176200332
pt.ine.add.PTCONT.3561723,R GANDRA DE MOREIRA,406,4585-555,GANDRA PRD,-8.42817938972713,41.18587076514203
pt.ine.add.PTCONT.3561724,AV D FAUSTINO MOREIRA SANTOS,962,4585-141,GANDRA PRD,-8.423592854273778,41.18370337634732
pt.ine.add.PTCONT.3561725,R CORUJEIRA DE BAIXO,61,4580-810,LORDELO PRD,-8.420233782651904,41.23870999959893
pt.ine.add.PTCONT.3561726,R GUARDAO,515,4580-488,LORDELO PRD,-8.401288233783186,41.2380533515227
pt.ine.add.PTCONT.3561727,R VILARINHO DE CIMA,,4585-228,GANDRA PRD,-8.438578866126836,41.18202581662302
pt.ine.add.PTCONT.3561728,TV BAIRRO,32,4580-402,GONDALÃES,-8.341328929753091,41.228659882051474
pt.ine.add.PTCONT.3561729,R SOUTELO,515,4580-471,LORDELO PRD,-8.419058029031378,41.239901485840356
pt.ine.add.PTCONT.3561730,EN 209,3782,4580-439,LORDELO PRD,-8.415285415667523,41.239190453166565
pt.ine.add.PTCONT.3561731,EN 209,3782,4580-439,LORDELO PRD,-8.415285415667523,41.239190453166565
pt.ine.add.PTCONT.3561732,EN 209,3782,4580-439,LORDELO PRD,-8.415285415667523,41.239190453166565
pt.ine.add.PTCONT.3561733,EN 209 BB,BB,4580-439,LORDELO PRD,-8.415285415667523,41.239190453166565
pt.ine.add.PTCONT.3561734,EN 209,3782,4580-439,LORDELO PRD,-8.415285415667523,41.239190453166565
pt.ine.add.PTCONT.3561735,EN 209,3782,4580-439,LORDELO PRD,-8.415285415667523,41.239190453166565
pt.ine.add.PTCONT.3561736,R PLAINA,260,4580-581,LOUREDO PRD,-8.355391550519595,41.232406382228206
pt.ine.add.PTCONT.3561737,R ALÉM RIO,154,4580-581,LOUREDO PRD,-8.350129866747482,41.23192118456554
pt.ine.add.PTCONT.3561738,EN 209,3782,4580-439,LORDELO PRD,-8.415285415667523,41.239190453166565
pt.ine.add.PTCONT.3561739,EN 209,3781,4580-439,LORDELO PRD,-8.415285415667523,41.239190453166565
pt.ine.add.PTCONT.3561740,EN 209,3782,4580-439,LORDELO PRD,-8.415285415667523,41.239190453166565
pt.ine.add.PTCONT.3561741,EN 209,3782,4580-439,LORDELO PRD,-8.415285415667523,41.239190453166565
pt.ine.add.PTCONT.3561742,EN 209,3782,4580-439,LORDELO PRD,-8.415285415667523,41.239190453166565
pt.ine.add.PTCONT.3561743,EN 209,3782,4580-439,LORDELO PRD,-8.415285415667523,41.239190453166565
pt.ine.add.PTCONT.3561744,EN 209,3782,4580-439,LORDELO PRD,-8.415285415667523,41.239190453166565
pt.ine.add.PTCONT.3561745,EN 209,3782,4580-439,LORDELO PRD,-8.415285415667523,41.239190453166565
pt.ine.add.PTCONT.3561746,EN 209,3782,4580-439,LORDELO PRD,-8.415285415667523,41.239190453166565
pt.ine.add.PTCONT.3561768,R EÇA DE QUEIROZ,25,4585-569,GANDRA PRD,-8.43256442915431,41.177755546621796
pt.ine.add.PTCONT.3561747,EN 209,3782,4580-439,LORDELO PRD,-8.415285415667523,41.239190453166565
pt.ine.add.PTCONT.3561748,EN 209,3782,4580-439,LORDELO PRD,-8.415285415667523,41.239190453166565
pt.ine.add.PTCONT.3561749,EN 209,3782,4580-439,LORDELO PRD,-8.415285415667523,41.239190453166565
pt.ine.add.PTCONT.3561750,EN 209,3782,4580-439,LORDELO PRD,-8.415285415667523,41.239190453166565
pt.ine.add.PTCONT.3561751,EN 209,3782,4580-439,LORDELO PRD,-8.415285415667523,41.239190453166565
pt.ine.add.PTCONT.3561752,TV CARRETEIROS,32,4585-109,GANDRA PRD,-8.451434603095269,41.19098632345356
pt.ine.add.PTCONT.3561753,TV CARRETEIROS,32,4585-109,GANDRA PRD,-8.451434603095269,41.19098632345356
pt.ine.add.PTCONT.3561754,EN 209,4578,4580-439,LORDELO PRD,-8.409597793232386,41.24259885079047
pt.ine.add.PTCONT.3561755,EN 209,3782,4580-439,LORDELO PRD,-8.415285415667523,41.239190453166565
pt.ine.add.PTCONT.3561756,EN 209,3782,4580-439,LORDELO PRD,-8.415285415667523,41.239190453166565
pt.ine.add.PTCONT.3561757,EN 209,3782,4580-439,LORDELO PRD,-8.415285415667523,41.239190453166565
pt.ine.add.PTCONT.3561758,EN 209,3782,4580-439,LORDELO PRD,-8.415285415667523,41.239190453166565
pt.ine.add.PTCONT.3561759,EN 209,3782,4580-439,LORDELO PRD,-8.415285415667523,41.239190453166565
pt.ine.add.PTCONT.3561760,R SERVULO DIAS CASTELO,,4580-581,LOUREDO PRD,-8.35493571687676,41.23164189890057
pt.ine.add.PTCONT.3561761,R DR JOSE LEITE DE VASCONCELOS,100,4580-131,PAREDES,-8.341926632177586,41.20658929327932
pt.ine.add.PTCONT.3561762,R MEMORIA,4,4580-461,LORDELO PRD,-8.416983710446424,41.23469315827087
pt.ine.add.PTCONT.3561763,LG BICHO,62,4580-448,LORDELO PRD,-8.419944546309807,41.23257882533266
pt.ine.add.PTCONT.3561764,R EÇA DE QUEIROZ,25,4585-569,GANDRA PRD,-8.43256442915431,41.177755546621796
pt.ine.add.PTCONT.3561765,R EÇA DE QUEIROZ,25,4585-569,GANDRA PRD,-8.43256442915431,41.177755546621796
pt.ine.add.PTCONT.3561766,R EÇA DE QUEIROZ,25,4585-569,GANDRA PRD,-8.43256442915431,41.177755546621796
pt.ine.add.PTCONT.3561767,R EÇA DE QUEIROZ,25,4585-569,GANDRA PRD,-8.43256442915431,41.177755546621796
pt.ine.add.PTCONT.3561769,R EÇA DE QUEIROZ,25,4585-569,GANDRA PRD,-8.43256442915431,41.177755546621796
pt.ine.add.PTCONT.3561770,R EÇA DE QUEIROZ,25,4585-569,GANDRA PRD,-8.43256442915431,41.177755546621796
pt.ine.add.PTCONT.3561771,R EÇA DE QUEIROZ,25,4585-569,GANDRA PRD,-8.43256442915431,41.177755546621796
pt.ine.add.PTCONT.3561772,R EÇA DE QUEIROZ,25,4585-569,GANDRA PRD,-8.43256442915431,41.177755546621796
