id,street,house,postcode,city,lon,lat
pt.ine.add.PTCONT.1389111,,,7220-358,PORTEL,-7.714878877494996,38.30606927825573
pt.ine.add.PTCONT.1368066,BC GAIAS,1,7220-102,AMIEIRA PRL,-7.557945327256067,38.2868877272017
pt.ine.add.PTCONT.1368067,MTE NOGUEIRA,,7220-013,ALQUEVA,-7.645729572256185,38.34751271169475
pt.ine.add.PTCONT.1368068,R POR DO SOL,3,7220-204,MONTE DO TRIGO,-7.716670490409032,38.39562627927304
pt.ine.add.PTCONT.1368069,R CAP,5,7220-233,MONTE DO TRIGO,-7.711860294397978,38.39599640855867
pt.ine.add.PTCONT.1368070,R CARCHANA,18,7220-221,MONTE DO TRIGO,-7.711222533484551,38.394422517854494
pt.ine.add.PTCONT.1368071,MTE FREIRAS,,7220-234,MONTE DO TRIGO,-7.708275255685619,38.38948415001106
pt.ine.add.PTCONT.1368072,R CRUZ,51,7220-385,PORTEL,-7.7031371783685865,38.30334147144496
pt.ine.add.PTCONT.1368073,QTA DO DERRAMADO,,7220-385,PORTEL,-7.728732096892904,38.29228036232606
pt.ine.add.PTCONT.1368074,QTA DO DERRAMADO,,7220-385,PORTEL,-7.728732096892904,38.29228036232606
pt.ine.add.PTCONT.1368102,R MOINHO,3,7220-208,MONTE DO TRIGO,-7.713643911039754,38.39844218724467
pt.ine.add.PTCONT.1368103,R ÉVORA,,7220-397,PORTEL,-7.706112009524096,38.31349694694661
pt.ine.add.PTCONT.1368104,R JOSE POMBINHO,2,7220-356,PORTEL,-7.70914182198994,38.30960714502494
pt.ine.add.PTCONT.1368105,ESTR ORIOLA,1,7220-482,SANTANA PRL,-7.80044005250279,38.269145724945645
pt.ine.add.PTCONT.1368106,R NOVA,18,7220-506,SANTANA PRL,-7.802134929588388,38.268339721643144
pt.ine.add.PTCONT.1368107,R ORIOLA,21,7220-496,SANTANA PRL,-7.8043664210474795,38.26762528676475
pt.ine.add.PTCONT.1368108,R MONTE GRANDE,3,7220-503,SANTANA PRL,-7.805917523224975,38.267071648160226
pt.ine.add.PTCONT.1368109,R MONTE GRANDE,12,7220-503,SANTANA PRL,-7.805759708447595,38.26648324900965
pt.ine.add.PTCONT.1368110,R CEMITÉRIO,6A,7220-499,SANTANA PRL,-7.803923672016415,38.26617871795787
pt.ine.add.PTCONT.1368111,LG PRACA,4,7220-486,SANTANA PRL,-7.802978022488874,38.26636915879613
pt.ine.add.PTCONT.1368112,R VARGECA,6,7220-493,SANTANA PRL,-7.803898542165596,38.26519572951558
pt.ine.add.PTCONT.1368144,R IRMÃOS,5,7220-036,ALQUEVA,-7.540184769116882,38.21805169015877
pt.ine.add.PTCONT.1368145,R PROF JOAQUIM GUERREIRO BEJA,,7220-019,ALQUEVA,-7.540333667103158,38.21740041881812
pt.ine.add.PTCONT.1368146,R TRINDADE,6,7220-027,ALQUEVA,-7.539050701996028,38.216493048514394
pt.ine.add.PTCONT.1368147,R CASTELA,2,7220-030,ALQUEVA,-7.537607850538514,38.216281828075566
pt.ine.add.PTCONT.1368148,R PARREIRA,19,7220-389,PORTEL,-7.702244450865293,38.307993279824615
pt.ine.add.PTCONT.1368149,R VALE FLORES,5,7220-402,PORTEL,-7.701158085149776,38.3081934797206
pt.ine.add.PTCONT.1368150,LG MIGUEL BOMBARDA,5,7220-369,PORTEL,-7.702287903830229,38.30744614451327
pt.ine.add.PTCONT.1368151,R VALE DE FLORES,33A,7220-389,PORTEL,-7.700742777388905,38.30719832107582
pt.ine.add.PTCONT.1368152,LG ANTÓNIO SÉRGIO,7,7220-362,PORTEL,-7.702096229552014,38.30605034776606
pt.ine.add.PTCONT.1368153,R TEÓFILO BRAGA,14A,7220-429,PORTEL,-7.700715239165152,38.30577468808081
pt.ine.add.PTCONT.1368154,R MELINDRES,28,7220-415,PORTEL,-7.699705705985731,38.30504158316057
pt.ine.add.PTCONT.1368155,EN 384 MONTE DAS GALEGAS,,7220-462,PORTEL,-7.634788972685096,38.301405161949305
pt.ine.add.PTCONT.1368156,R CRUZ,23,7220-528,SÃO BARTOLOMEU DO OUTEIRO,-7.909198015849587,38.354859121422585
pt.ine.add.PTCONT.1368157,LG IGREJA,3,7220-525,SÃO BARTOLOMEU DO OUTEIRO,-7.908926450070868,38.353862636563704
pt.ine.add.PTCONT.1368188,R FONTE,21,7220-568,VERA CRUZ,-7.679706055064322,38.22602136279378
pt.ine.add.PTCONT.1368235,EN 384 HERDADE DOS MELINDRES,,7220-462,PORTEL,-7.672617578135497,38.297857154900704
pt.ine.add.PTCONT.1368260,R ÉVORA,,7220-397,PORTEL,-7.706112009524096,38.31349694694661
pt.ine.add.PTCONT.1368286,R ALVITO,61,7220-532,SÃO BARTOLOMEU DO OUTEIRO,-7.911969487052273,38.35356669523412
pt.ine.add.PTCONT.1368313,R SANTO ANTÓNIO,3,7220-572,VERA CRUZ,-7.681859677590631,38.22865124563547
pt.ine.add.PTCONT.1371781,EN 18,,7220-462,PORTEL,-7.704247698699515,38.32523754871358
pt.ine.add.PTCONT.1368712,R PARREIRA,15,7220-024,ALQUEVA,-7.539781629155964,38.21788410755436
pt.ine.add.PTCONT.1368713,R TAIPAS,16,7220-230,MONTE DO TRIGO,-7.712203658044861,38.39696647860018
pt.ine.add.PTCONT.1368720,R PEREIRA,1,7220-116,AMIEIRA PRL,-7.5598859746302045,38.285369838612816
pt.ine.add.PTCONT.1368721,R OLIVEIRAS,8,7220-228,MONTE DO TRIGO,-7.712137901500728,38.39646175926793
pt.ine.add.PTCONT.1368727,R ALTO,3,7220-032,ALQUEVA,-7.538958761095955,38.21709336427758
pt.ine.add.PTCONT.1368728,MTE SEMARIAS,,7220-013,ALQUEVA,-7.620711330005721,38.376765264471416
pt.ine.add.PTCONT.1368729,TV RUA DE ÉVORA,8,7220-244,MONTE DO TRIGO,-7.714813218880718,38.39623988526112
pt.ine.add.PTCONT.1368747,R POÇO,5,7220-034,ALQUEVA,-7.539760614803184,38.216253400077804
pt.ine.add.PTCONT.1368751,R CARCHANA,70,7220-221,MONTE DO TRIGO,-7.710769627792459,38.39465602571323
pt.ine.add.PTCONT.1368757,R NOVA,36,7220-240,MONTE DO TRIGO,-7.712687788228908,38.39452712140295
pt.ine.add.PTCONT.1368758,R NOVA,38,7220-240,MONTE DO TRIGO,-7.712671675823446,38.39439149451059
pt.ine.add.PTCONT.1368759,R POCO,43,7220-235,MONTE DO TRIGO,-7.711520458480632,38.394369537951086
pt.ine.add.PTCONT.1368762,R S LOURENÇO,15,7220-301,ORIOLA,-7.865615650531764,38.31860589071234
pt.ine.add.PTCONT.1368767,R FLORES,,7220-119,AMIEIRA PRL,-7.558793058626444,38.28834803590484
pt.ine.add.PTCONT.1368768,R HORTA,9,7220-301,ORIOLA,-7.862968006799673,38.31888186876152
pt.ine.add.PTCONT.1368769,R VARANDAS,7,7220-396,PORTEL,-7.703824763584839,38.30929079868612
pt.ine.add.PTCONT.1368776,R S ROMÃO,10,7220-124,AMIEIRA PRL,-7.558178393081566,38.287420666718546
pt.ine.add.PTCONT.1368783,TV FERROA,3,7220-301,ORIOLA,-7.86731641885732,38.318026960000196
pt.ine.add.PTCONT.1368786,R VALE,4,7220-411,PORTEL,-7.701347936010148,38.30704725426156
pt.ine.add.PTCONT.1368823,R ANTÓNIO JOSE DE ALMEIDA,8A,7220-377,PORTEL,-7.701408097477977,38.304853053239476
pt.ine.add.PTCONT.1368824,R HORTAS,1,7220-495,SANTANA PRL,-7.8030269440773035,38.26687507577159
pt.ine.add.PTCONT.1368825,R NOVA,10,7220-506,SANTANA PRL,-7.801495310779376,38.26827485385254
pt.ine.add.PTCONT.1368829,LG MATRIZ,26,7220-365,PORTEL,-7.704836614968492,38.30886323719901
pt.ine.add.PTCONT.1368835,R MARIA DOS REMEDIOS,32,7220-574,VERA CRUZ,-7.6815475988349595,38.227908512122276
pt.ine.add.PTCONT.1368840,R DR JOSE MACEDO FRAGATEIRO,5,7220-418,PORTEL,-7.708959052381722,38.307615547752
pt.ine.add.PTCONT.1368841,VALE SEQUEIROS,,7220-499,SANTANA PRL,-7.832897080031152,38.29040401794519
pt.ine.add.PTCONT.1368842,VALE SEQUEIROS,,7220-499,SANTANA PRL,-7.832897080031152,38.29040401794519
pt.ine.add.PTCONT.1368843,LG PINHEIRO,2,7220-562,VERA CRUZ,-7.681479123382538,38.22739754795242
pt.ine.add.PTCONT.1368845,R LIBERDADE,7,7220-386,PORTEL,-7.70390485376059,38.30774130373784
pt.ine.add.PTCONT.1368848,R CATARINA EUFEMIA,17,7220-381,PORTEL,-7.701502351782148,38.30174351636911
pt.ine.add.PTCONT.1368849,ESTR VIANA,5,7220-524,SÃO BARTOLOMEU DO OUTEIRO,-7.908460597279246,38.35738931124629
pt.ine.add.PTCONT.1368867,R CARVALHAL,1,7220-498,SANTANA PRL,-7.803704477997095,38.26870431734892
pt.ine.add.PTCONT.1368949,PQ DR FRANCA,11,7220-372,PORTEL,-7.701769014341427,38.30544524335137
pt.ine.add.PTCONT.1369051,TV ESCOLA,10,7220-242,MONTE DO TRIGO,-7.713557645438736,38.3977833929366
pt.ine.add.PTCONT.1369064,R SANTO ANTÓNIO,38,7220-572,VERA CRUZ,-7.682017014890468,38.22718540227587
pt.ine.add.PTCONT.1369131,LG CHAFARIZ,24,7220-368,PORTEL,-7.702759655940869,38.306124539250476
pt.ine.add.PTCONT.1369464,R OUTEIRINHO,9,7220-130,AMIEIRA PRL,-7.556508857076905,38.28602666036746
pt.ine.add.PTCONT.1369465,R ÉVORA,24,7220-397,PORTEL,-7.706130257860843,38.312334883950484
pt.ine.add.PTCONT.1369470,R 5 DE OUTUBRO,1,7220-018,ALQUEVA,-7.536887835103065,38.21718477312262
pt.ine.add.PTCONT.1369472,R ÉVORA,,7220-397,PORTEL,-7.706103287016111,38.31340501869169
pt.ine.add.PTCONT.1369475,R CAP,21,7220-233,MONTE DO TRIGO,-7.711513762528251,38.395522618637344
pt.ine.add.PTCONT.1369480,R PESSEGUEIRO,3,7220-035,ALQUEVA,-7.5389376704320075,38.21635081592812
pt.ine.add.PTCONT.1369481,R FLORES,25,7220-227,MONTE DO TRIGO,-7.711761234000468,38.395376461475884
pt.ine.add.PTCONT.1369483,VIVENDA DO POÇO DE BAIXO,,7220-234,MONTE DO TRIGO,-7.71140396451785,38.39274756495543
pt.ine.add.PTCONT.1369487,R OUTEIRO,8,7220-301,ORIOLA,-7.866642089230722,38.319027262450646
pt.ine.add.PTCONT.1369490,R CABRITA,14,7220-301,ORIOLA,-7.86459800993378,38.31901240113648
pt.ine.add.PTCONT.1369496,R CAMPONES,5,7220-301,ORIOLA,-7.8620533172592575,38.31885273220096
pt.ine.add.PTCONT.1369499,MTE LARANJEIRAS,,7220-209,MONTE DO TRIGO,-7.783892498198464,38.34089767483978
pt.ine.add.PTCONT.1369500,LG PRAÇA,5,7220-301,ORIOLA,-7.866321869391795,38.31864435228219
pt.ine.add.PTCONT.1369506,R S ROMÃO,12,7220-124,AMIEIRA PRL,-7.5581367448004615,38.28739515434051
pt.ine.add.PTCONT.1369555,R FR FIALHO TOJO,10,7220-420,PORTEL,-7.702572483059162,38.30291015313104
pt.ine.add.PTCONT.1369556,R CATARINA EUFEMIA,14 A,7220-381,PORTEL,-7.701649786261724,38.30215698924894
pt.ine.add.PTCONT.1369571,R ARRABALDE,20,7220-574,VERA CRUZ,-7.681555285825763,38.22840472907177
pt.ine.add.PTCONT.1369574,BR DIAS DE CARVALHO,3,7220-355,PORTEL,-7.707481573244118,38.30806063424237
pt.ine.add.PTCONT.1369575,R VARGECA,21,7220-493,SANTANA PRL,-7.802818419165215,38.26560596450356
pt.ine.add.PTCONT.1369587,MTE SOBREIRA GORDA,,7220-574,VERA CRUZ,-7.629519147959767,38.23680758403429
pt.ine.add.PTCONT.1369588,HORTA DOS PASSARINHOS,,7220-564,VERA CRUZ,-7.678344461818638,38.22826831516608
pt.ine.add.PTCONT.1369589,MTE RAINHA,,7220-564,VERA CRUZ,-7.676805090089649,38.20776711153805
pt.ine.add.PTCONT.1369694,R C BR VEREADOR FRC FIALHO JUNIOR,1,7220-208,MONTE DO TRIGO,-7.712617751848282,38.39859852628289
pt.ine.add.PTCONT.1369719,R ALAMO,40,7220-403,PORTEL,-7.704230972668814,38.309659066335804
pt.ine.add.PTCONT.1369828,R ESPÍRITO SANTO,23,7220-405,PORTEL,-7.704505266467109,38.310626302447844
pt.ine.add.PTCONT.1370197,LG IGREJA,8,7220-014,ALQUEVA,-7.538092954704318,38.216317029715164
pt.ine.add.PTCONT.1370205,R FORÇAS ARMADAS,24A,7220-393,PORTEL,-7.7068038377152535,38.31159203947731
pt.ine.add.PTCONT.1370212,LG POÇO,1,7220-216,MONTE DO TRIGO,-7.71289184676026,38.39589520923855
pt.ine.add.PTCONT.1370218,R ESTALAGEM,1,7220-020,ALQUEVA,-7.539892826551529,38.216520704045934
pt.ine.add.PTCONT.1370223,R NOVA,32,7220-240,MONTE DO TRIGO,-7.712716464887652,38.39464948219656
pt.ine.add.PTCONT.1370235,R 1 MAIO,2,7220-132,AMIEIRA PRL,-7.557464031773645,38.286735126883556
pt.ine.add.PTCONT.1370240,R 1 DE MAIO,3,7220-132,AMIEIRA PRL,-7.557476794100009,38.286624445871574
pt.ine.add.PTCONT.1370241,BC CASTELO,,7220-103,AMIEIRA PRL,-7.55684574157762,38.28640591273742
pt.ine.add.PTCONT.1370288,R NOVA,7,7220-506,SANTANA PRL,-7.80104688928405,38.26836521741044
pt.ine.add.PTCONT.1370298,R S JOÃO DE DEUS,14,7220-427,PORTEL,-7.699386635044672,38.30425631059556
pt.ine.add.PTCONT.1370301,R ANTÓNIO TIBERIO,7 A,7220-378,PORTEL,-7.700394931982228,38.30406570440004
pt.ine.add.PTCONT.1370309,R VARGECA,1,7220-493,SANTANA PRL,-7.804242227214857,38.265868618432165
pt.ine.add.PTCONT.1370310,R MARIA DOS REMEDIOS,1,7220-574,VERA CRUZ,-7.681276785815189,38.228721074336285
pt.ine.add.PTCONT.1370314,R ANTÓNIO JOSE D ALMEIDA,15,7220-565,VERA CRUZ,-7.680801475544904,38.22690432051658
pt.ine.add.PTCONT.1370321,BR CRUZ,22,7220-521,SÃO BARTOLOMEU DO OUTEIRO,-7.905499450498751,38.356495830930136
pt.ine.add.PTCONT.1370326,R OUTEIRO,9,7220-576,VERA CRUZ,-7.6805843419832875,38.22619592077
pt.ine.add.PTCONT.1370331,LG CHAFARIZ,20,7220-368,PORTEL,-7.702760805695688,38.30592376062187
pt.ine.add.PTCONT.1370332,R MOITA REDONDA,20,7220-529,SÃO BARTOLOMEU DO OUTEIRO,-7.908576057725802,38.355100007578365
pt.ine.add.PTCONT.1370334,R ARCOS,,7220-413,PORTEL,-7.70291654010222,38.30521781400857
pt.ine.add.PTCONT.1370335,R ESPERANÇA,27,7220-490,SANTANA PRL,-7.801053128875395,38.26926614129099
pt.ine.add.PTCONT.1370338,R MOINHO,4,7220-501,SANTANA PRL,-7.801684614098711,38.26936545906751
pt.ine.add.PTCONT.1370464,R S JOÃO DE DEUS,A,7220-427,PORTEL,-7.700440024738249,38.3046255295542
pt.ine.add.PTCONT.1370467,R ALVITO,31,7220-532,SÃO BARTOLOMEU DO OUTEIRO,-7.911066204641132,38.35421228478438
pt.ine.add.PTCONT.1370494,R DR ISIDRO RICO,13,7220-424,PORTEL,-7.698866760703287,38.30324540533956
pt.ine.add.PTCONT.1370501,R MOURA,20,7220-122,AMIEIRA PRL,-7.55704498277729,38.28499266450376
pt.ine.add.PTCONT.1370510,R S ROMÃO,16,7220-124,AMIEIRA PRL,-7.558046545008157,38.28732250083638
pt.ine.add.PTCONT.1370514,R GAGO COUTINHO,8,7220-354,PORTEL,-7.707630938933747,38.30793505343328
pt.ine.add.PTCONT.1370518,LOTEAM HORTA DA NORA,,7220-134,AMIEIRA PRL,-7.558774221716384,38.28576078641288
pt.ine.add.PTCONT.1378668,R MOINHO,,7220-408,PORTEL,-7.7027904550789925,38.30407429937465
pt.ine.add.PTCONT.1370610,R 1 DE MAIO,2,7220-205,MONTE DO TRIGO,-7.716308248429587,38.395837049557045
pt.ine.add.PTCONT.1370964,R PADRE MANUEL LIMA,,7220-248,MONTE DO TRIGO,-7.711227261574987,38.39754852925142
pt.ine.add.PTCONT.1370965,R TEÓFILO BRAGA,16,7220-429,PORTEL,-7.700623885186524,38.30575633377635
pt.ine.add.PTCONT.1370968,TV JOGO DA BOLA,2,7220-437,PORTEL,-7.706292494037082,38.31196611538446
pt.ine.add.PTCONT.1370973,LG S TIAGO,9,7220-367,PORTEL,-7.703667972929772,38.31107367793273
pt.ine.add.PTCONT.1370974,R ALTO,7,7220-032,ALQUEVA,-7.539027213713024,38.217144806199805
pt.ine.add.PTCONT.1370980,R PESSEGUEIRO,8,7220-035,ALQUEVA,-7.538853615722086,38.216557182232464
pt.ine.add.PTCONT.1370981,R S PAULO,3,7220-401,PORTEL,-7.706109480149514,38.3100285662982
pt.ine.add.PTCONT.1370990,R SANTIAGO,6,7220-400,PORTEL,-7.703502450742244,38.31086008497918
pt.ine.add.PTCONT.1370993,R CARCHANA,7,7220-221,MONTE DO TRIGO,-7.711098039178291,38.39492898540293
pt.ine.add.PTCONT.1370997,MTE VALE DA PALHA,,7220-021,ALQUEVA,-7.522496494098205,38.19562467402148
pt.ine.add.PTCONT.1370998,R PENDORINHO,21,7220-131,AMIEIRA PRL,-7.559362441895356,38.28877449322419
pt.ine.add.PTCONT.1370999,R CABRITA,27,7220-301,ORIOLA,-7.864470739911372,38.318973262950585
pt.ine.add.PTCONT.1371007,R CHAFARIZ,22,7220-126,AMIEIRA PRL,-7.55912484392811,38.28723651371707
pt.ine.add.PTCONT.1371008,R CHAFARIZ,18,7220-126,AMIEIRA PRL,-7.55898844519853,38.28728134498912
pt.ine.add.PTCONT.1371009,R PARREIRA,9,7220-389,PORTEL,-7.701904167155279,38.30772104587076
pt.ine.add.PTCONT.1371014,R IRMÃOS,7,7220-036,ALQUEVA,-7.540227864307026,38.21812350111984
pt.ine.add.PTCONT.1371015,R OLIVEIRA,9,7220-388,PORTEL,-7.701692799040914,38.30749495774437
pt.ine.add.PTCONT.1371055,R BICA,6,7220-488,SANTANA PRL,-7.802623795509489,38.26889063917428
pt.ine.add.PTCONT.1371056,R ESPERANÇA,13,7220-490,SANTANA PRL,-7.800442980805589,38.268796105353125
pt.ine.add.PTCONT.1371068,R VARANDAS,43,7220-530,SÃO BARTOLOMEU DO OUTEIRO,-7.909869930450174,38.353853428783964
pt.ine.add.PTCONT.1371075,R ALAMO,39,7220-403,PORTEL,-7.704443902287747,38.31006960448389
pt.ine.add.PTCONT.1371076,R 1 DE MAIO,3A,7220-426,PORTEL,-7.701541835565903,38.30522481190384
pt.ine.add.PTCONT.1371077,R 1 DE MAIO,3A,7220-426,PORTEL,-7.701541835565903,38.30522481190384
pt.ine.add.PTCONT.1371078,R 1 DE MAIO,9,7220-426,PORTEL,-7.700811084595048,38.305036322585686
pt.ine.add.PTCONT.1371084,R ANTÓNIO JOSE DE ALMEIDA,7,7220-377,PORTEL,-7.7013293744787035,38.3047301244608
pt.ine.add.PTCONT.1371086,R S JOAO DEUS,1,7220-427,PORTEL,-7.69903111622962,38.30436152963827
pt.ine.add.PTCONT.1371095,R IGREJA,21,7220-492,SANTANA PRL,-7.800847321581996,38.26703561772653
pt.ine.add.PTCONT.1371096,R ANTÓNIO TIBERIO,1 A,7220-378,PORTEL,-7.700628870592013,38.30323675779137
pt.ine.add.PTCONT.1371097,R MONTE GRANDE,22,7220-503,SANTANA PRL,-7.80570768652122,38.26601802915037
pt.ine.add.PTCONT.1371098,R MARIA DOS REMEDIOS,22,7220-574,VERA CRUZ,-7.681563294635137,38.22833111230642
pt.ine.add.PTCONT.1371102,R SACADURA CABRAL,12,7220-355,PORTEL,-7.707665476796488,38.307810702818784
pt.ine.add.PTCONT.1371105,R D JOÃO PERES ABOIM,7,7220-412,PORTEL,-7.699348380439645,38.30239598016599
pt.ine.add.PTCONT.1371116,R BOAVISTA,O8,7220-566,VERA CRUZ,-7.6807756133033225,38.22543276071899
pt.ine.add.PTCONT.1371119,R CRUZ,24,7220-385,PORTEL,-7.703159354649968,38.30447884845313
pt.ine.add.PTCONT.1371120,TV POÇO,2,7220-539,SÃO BARTOLOMEU DO OUTEIRO,-7.90951073404067,38.355330176704584
pt.ine.add.PTCONT.1371810,R NOVA,29,7220-301,ORIOLA,-7.865908180427327,38.31799515753202
pt.ine.add.PTCONT.1371913,R CRUZ,,7220-385,PORTEL,-7.703125370862764,38.30457939055795
pt.ine.add.PTCONT.1371291,LG VILA,5,7220-015,ALQUEVA,-7.539530638559014,38.21645043207307
pt.ine.add.PTCONT.1371416,R OLIVEIRAS,4,7220-228,MONTE DO TRIGO,-7.712217350867372,38.39657915674683
pt.ine.add.PTCONT.1371765,R 5 DE OUTUBRO,15,7220-018,ALQUEVA,-7.537297304218155,38.217267931743635
pt.ine.add.PTCONT.1371766,R VALE LONGUINHO,6,7220-206,MONTE DO TRIGO,-7.717155158299166,38.39637385261464
pt.ine.add.PTCONT.1371767,R PRIOR,10,7220-237,MONTE DO TRIGO,-7.713012448779498,38.39670005446903
pt.ine.add.PTCONT.1371768,R ÉVORA,19,7220-231,MONTE DO TRIGO,-7.714635472637501,38.39656677577765
pt.ine.add.PTCONT.1371771,R IGREJA,2,7220-224,MONTE DO TRIGO,-7.713659428631664,38.39637710403608
pt.ine.add.PTCONT.1371778,R TRAVESSINHA,2,7220-023,ALQUEVA,-7.5392742077331265,38.21638408135345
pt.ine.add.PTCONT.1371792,R PENDORINHO,11,7220-131,AMIEIRA PRL,-7.559169237549114,38.28841129124342
pt.ine.add.PTCONT.1371793,R FORNO,24,7220-301,ORIOLA,-7.863561953353289,38.319063410817236
pt.ine.add.PTCONT.1371809,R NOVA,15,7220-301,ORIOLA,-7.865496339215436,38.318263186633935
pt.ine.add.PTCONT.1371811,TV OLIVEIRA,2,7220-431,PORTEL,-7.701752725320717,38.307733637358
pt.ine.add.PTCONT.1371812,LG MIGUEL BOMBARDA,2,7220-369,PORTEL,-7.702834734678718,38.307392141425204
pt.ine.add.PTCONT.1371873,R CANASTRAS,2,7220-392,PORTEL,-7.704312914601482,38.31028326662677
pt.ine.add.PTCONT.1371876,R CELEIROS,10,7220-404,PORTEL,-7.703785021055607,38.31021141691435
pt.ine.add.PTCONT.1371879,MTE VALE ESCURO,,7220-301,ORIOLA,-7.907900950959902,38.350552465955445
pt.ine.add.PTCONT.1371880,MTE CORGO,,7220-301,ORIOLA,-7.91215021454067,38.352659585925736
pt.ine.add.PTCONT.1371881,QTA DO BARÃO,,7220-301,ORIOLA,-7.881415080622621,38.33470627278096
pt.ine.add.PTCONT.1371897,R DR JOSÉ MACEDO FRAGATEIRO,22,7220-418,PORTEL,-7.707267296246631,38.30755536579856
pt.ine.add.PTCONT.1371898,R CATARINA EUFEMIA,9,7220-381,PORTEL,-7.7014882096339905,38.302669510072946
pt.ine.add.PTCONT.1371908,R CRUZ,18-32,7220-385,PORTEL,-7.705110028213462,38.30110624525642
pt.ine.add.PTCONT.1371918,R CRUZ,9,7220-385,PORTEL,-7.702832649570484,38.30502780062681
pt.ine.add.PTCONT.1372083,R MOINHOS,14,7220-416,PORTEL,-7.703746041807683,38.311407287737474
pt.ine.add.PTCONT.1372095,R PINHEIRO,11,7220-577,VERA CRUZ,-7.680530790978056,38.22746596634686
pt.ine.add.PTCONT.1372151,BR NSA SRA FATIMA,23,7220-207,MONTE DO TRIGO,-7.714871178109803,38.394877953742956
pt.ine.add.PTCONT.1372183,R CARCHANA,4A,7220-221,MONTE DO TRIGO,-7.7109899878487,38.39504327621778
pt.ine.add.PTCONT.1372236,R MIL FONTES,GA,7220-398,PORTEL,-7.703915100885844,38.30947187921761
pt.ine.add.PTCONT.1372237,R MELINDRES,9,7220-415,PORTEL,-7.701136640627779,38.30548715298466
pt.ine.add.PTCONT.1372270,R DR ISIDRO RICO,15,7220-424,PORTEL,-7.698890001060478,38.303182429991324
pt.ine.add.PTCONT.1372271,R GRUPO DESPORTIVO PORTEL,11,7220-350,PORTEL,-7.697691002927903,38.301033898550706
pt.ine.add.PTCONT.1372309,R MOINHO,28,7220-501,SANTANA PRL,-7.800840495551968,38.268734625577636
pt.ine.add.PTCONT.1372310,R IGREJA,5,7220-492,SANTANA PRL,-7.8017758595937865,38.266952156503855
pt.ine.add.PTCONT.1372311,R VARGECA,23,7220-493,SANTANA PRL,-7.8027667175836735,38.26564599844304
pt.ine.add.PTCONT.1372354,R COMENDA,25,7220-567,VERA CRUZ,-7.680780235781223,38.22960203175147
pt.ine.add.PTCONT.1372355,R PINHEIRO,17,7220-577,VERA CRUZ,-7.680233750911483,38.227482838435954
pt.ine.add.PTCONT.1372356,R OLIVEIRINHA,4,7220-569,VERA CRUZ,-7.6823201453748196,38.22621160866144
pt.ine.add.PTCONT.1372397,HRD CASTELO,,7220-564,VERA CRUZ,-7.657272010283448,38.21618495396069
pt.ine.add.PTCONT.1372668,R CASTELA,12,7220-030,ALQUEVA,-7.5371315568731445,38.21658914137169
pt.ine.add.PTCONT.1372706,MTE BALDIO,,7220-022,ALQUEVA,-7.523628660650542,38.22139587750441
pt.ine.add.PTCONT.1372707,R BICA,,7220-110,AMIEIRA PRL,-7.558308027307078,38.28819086504217
pt.ine.add.PTCONT.1372739,R JOGO DA BOLA,7,7220-128,AMIEIRA PRL,-7.558899122199964,38.287529051971106
pt.ine.add.PTCONT.1372740,R MAU PISO,5,7220-129,AMIEIRA PRL,-7.556993563299981,38.28658515155967
pt.ine.add.PTCONT.1372741,R ESCOLA,4,7220-112,AMIEIRA PRL,-7.558084572159074,38.2848024808057
pt.ine.add.PTCONT.1372742,R NOVA,6,7220-240,MONTE DO TRIGO,-7.712801954817688,38.395479292712174
pt.ine.add.PTCONT.1372779,R GRUPO DESPORTIVO DO MONTE TRIGO,,7220-230,MONTE DO TRIGO,-7.710580650815428,38.39653723392367
pt.ine.add.PTCONT.1372780,R ÉVORA,21,7220-231,MONTE DO TRIGO,-7.714587228005855,38.39652458187893
pt.ine.add.PTCONT.1372781,R CABRITA,21,7220-301,ORIOLA,-7.864280768952905,38.31910495859401
pt.ine.add.PTCONT.1372817,R POÇO,13,7220-301,ORIOLA,-7.867624532864862,38.31819882467433
pt.ine.add.PTCONT.1372818,R MISERICÓRDIA CASAO,,7220-387,PORTEL,-7.702586587989503,38.3102589257153
pt.ine.add.PTCONT.1372824,TV CARDAL,10,7220-044,ALQUEVA,-7.537138390155488,38.217426420356404
pt.ine.add.PTCONT.1372852,R MOINHO,,7220-208,MONTE DO TRIGO,-7.713153479147733,38.39899682641448
pt.ine.add.PTCONT.1372856,R MOURA,43,7220-031,ALQUEVA,-7.538167203546187,38.21478862158156
pt.ine.add.PTCONT.1372871,R FONTE,20,7220-568,VERA CRUZ,-7.6796550724860895,38.22588188315185
pt.ine.add.PTCONT.1372954,R ESPÍRITO SANTO,I8,7220-405,PORTEL,-7.7038018023192105,38.3105067566093
pt.ine.add.PTCONT.1373355,MTE LENTISCA,5,7220-301,ORIOLA,-7.8545870902216395,38.342546300968706
pt.ine.add.PTCONT.1373360,R JOSE BARRIGA PINTO,,7220-025,ALQUEVA,-7.5397204711101855,38.217339410977566
pt.ine.add.PTCONT.1373364,R 25 DE ABRIL,6,7220-041,ALQUEVA,-7.538309022769591,38.21642623088328
pt.ine.add.PTCONT.1373368,R S PAULO,2,7220-401,PORTEL,-7.70652123715143,38.31000303818888
pt.ine.add.PTCONT.1373373,R VILA,11,7220-028,ALQUEVA,-7.539932080401368,38.21658759400446
pt.ine.add.PTCONT.1373374,R FORÇAS ARMADAS,11,7220-393,PORTEL,-7.705885376938028,38.311198888924885
pt.ine.add.PTCONT.1373377,R REPUBLICA,1,7220-026,ALQUEVA,-7.540134787240742,38.21657960928324
pt.ine.add.PTCONT.1373382,R CARCHANA,6,7220-221,MONTE DO TRIGO,-7.710933173530688,38.39497100256293
pt.ine.add.PTCONT.1373385,R LARGA,5,7220-301,ORIOLA,-7.8673788534523785,38.31908950356768
pt.ine.add.PTCONT.1373386,R MOINHOS,19,7220-416,PORTEL,-7.703752216735928,38.31229917720423
pt.ine.add.PTCONT.1373388,R SACRAMENTO,25,7220-238,MONTE DO TRIGO,-7.711963086669042,38.393926429634696
pt.ine.add.PTCONT.1373389,MTE PERDIGEIROS,,7220-231,MONTE DO TRIGO,-7.679849230262725,38.394035144446526
pt.ine.add.PTCONT.1373395,R PARREIRA,1,7220-389,PORTEL,-7.70200171836687,38.30796249060907
pt.ine.add.PTCONT.1373444,R BOLA,26,7220-527,SÃO BARTOLOMEU DO OUTEIRO,-7.908671606650429,38.352905224082384
pt.ine.add.PTCONT.1373445,R S JOÃO DE DEUS,04,7220-427,PORTEL,-7.700369363802875,38.304511426927064
pt.ine.add.PTCONT.1373448,R VARANDAS,8,7220-396,PORTEL,-7.703794643411771,38.30904215387086
pt.ine.add.PTCONT.1373456,R REPUBLICA,14,7220-570,VERA CRUZ,-7.681118515327123,38.22845920754993
pt.ine.add.PTCONT.1373457,R MARIA DOS REMEDIOS,3,7220-574,VERA CRUZ,-7.681334389929355,38.22864021616755
pt.ine.add.PTCONT.1373460,ESTR VIANA,8,7220-524,SÃO BARTOLOMEU DO OUTEIRO,-7.908596566394611,38.35768445619285
pt.ine.add.PTCONT.1373463,R OUTEIRO,17,7220-576,VERA CRUZ,-7.680440804233859,38.22578081825453
pt.ine.add.PTCONT.1373469,LG CHAFARIZ,2,7220-368,PORTEL,-7.70235570733328,38.30592705200235
pt.ine.add.PTCONT.1373470,R MARIA FERNANDA TOSCANO RICO,19,7220-350,PORTEL,-7.6980915488345305,38.3009633144168
pt.ine.add.PTCONT.1373474,R CRUZ,38,7220-385,PORTEL,-7.703250079910133,38.303928068676456
pt.ine.add.PTCONT.1373667,R CAP,32,7220-233,MONTE DO TRIGO,-7.711365734333038,38.39551221628131
pt.ine.add.PTCONT.1373668,R ÉVORA,10,7220-231,MONTE DO TRIGO,-7.715017006445866,38.39686214828391
pt.ine.add.PTCONT.1373674,R 25 DE ABRIL,9,7220-241,MONTE DO TRIGO,-7.714924377816657,38.39562492215902
pt.ine.add.PTCONT.1373711,MTE CHAMINÉ DAS PEDRAS,,7220-301,ORIOLA,-7.847686744781534,38.308269363068696
pt.ine.add.PTCONT.1373822,LG 1 DE MAIO,2,7220-016,ALQUEVA,-7.53907055968923,38.21743893736235
pt.ine.add.PTCONT.1373823,R 1 DE MAIO,1,7220-132,AMIEIRA PRL,-7.5575566035944535,38.286688888722274
pt.ine.add.PTCONT.1373869,R DOROA,7,7220-111,AMIEIRA PRL,-7.555181311569167,38.28516529904307
pt.ine.add.PTCONT.1373870,R CAP,17,7220-233,MONTE DO TRIGO,-7.711593257893472,38.39563174499504
pt.ine.add.PTCONT.1373871,R LARGA,3,7220-301,ORIOLA,-7.867428992431111,38.31912556579027
pt.ine.add.PTCONT.1374133,R CONSOLAÇÃO,381,7220-383,PORTEL,-7.707663947350095,38.312070194047166
pt.ine.add.PTCONT.1374134,R MOINHOS,18,7220-416,PORTEL,-7.704039703534752,38.31202095773876
pt.ine.add.PTCONT.1374135,R MOINHOS,9,7220-416,PORTEL,-7.703688186261423,38.31161584217253
pt.ine.add.PTCONT.1374136,R MIL FONTES,7,7220-398,PORTEL,-7.703780234015368,38.30956809831172
pt.ine.add.PTCONT.1374137,R VARANDAS,3,7220-396,PORTEL,-7.703875679849999,38.309374826840546
pt.ine.add.PTCONT.1374138,R FR FIALHO TOJO,6,7220-420,PORTEL,-7.702568119724747,38.30313657613906
pt.ine.add.PTCONT.1374139,R GASPAR GOIS,6,7220-421,PORTEL,-7.702554533443118,38.302465419774094
pt.ine.add.PTCONT.1374140,R 1 DE MAIO,6,7220-426,PORTEL,-7.7011978002950014,38.305137846194945
pt.ine.add.PTCONT.1374141,R MARIA FERNANDA TOSCANO RICO,22,7220-350,PORTEL,-7.697864633993438,38.30067419203822
pt.ine.add.PTCONT.1374142,MTE CASTELOS,,7220-566,VERA CRUZ,-7.65966797393354,38.216491934810186
pt.ine.add.PTCONT.1374179,R VALE FLORES,40,7220-402,PORTEL,-7.700903448242112,38.30730574989895
pt.ine.add.PTCONT.1374180,R VALE,5B,7220-411,PORTEL,-7.701096520820619,38.307028311072315
pt.ine.add.PTCONT.1374181,R COMBATENTES DA GRANDE GUERRA,32,7220-414,PORTEL,-7.704826581011029,38.309541939502836
pt.ine.add.PTCONT.1374182,R NOVA,41A,7220-506,SANTANA PRL,-7.803070262782792,38.268711718853744
pt.ine.add.PTCONT.1374183,R NOVA,35,7220-506,SANTANA PRL,-7.802225527244817,38.268520154086644
pt.ine.add.PTCONT.1374184,R 25 DE ABRIL,10,7220-481,SANTANA PRL,-7.800058404465605,38.26764016496424
pt.ine.add.PTCONT.1374185,R NOVA,30,7220-506,SANTANA PRL,-7.803531971801178,38.26810337256931
pt.ine.add.PTCONT.1374186,R NOVA,24,7220-506,SANTANA PRL,-7.802534584747738,38.26840391016538
pt.ine.add.PTCONT.1374187,R IGREJA,2,7220-492,SANTANA PRL,-7.800814336435607,38.26725492762144
pt.ine.add.PTCONT.1374188,R CRUZ,47,7220-528,SÃO BARTOLOMEU DO OUTEIRO,-7.9080146997427985,38.35677375986856
pt.ine.add.PTCONT.1374462,R MOINHO,7,7220-208,MONTE DO TRIGO,-7.713485232341888,38.39862988426325
pt.ine.add.PTCONT.1374574,R CÂNDIDO DOS REIS,8,7220-380,PORTEL,-7.702167692276047,38.303704875283216
pt.ine.add.PTCONT.1374577,BR PRÉ-FABRICADO,12,7220-358,PORTEL,-7.708498669284969,38.30701830733959
pt.ine.add.PTCONT.1374907,R TAIPAS,4,7220-230,MONTE DO TRIGO,-7.712749550767094,38.396898892721985
pt.ine.add.PTCONT.1374908,R ÉVORA,18,7220-397,PORTEL,-7.706115316423488,38.312493341325116
pt.ine.add.PTCONT.1374916,MTE CASA DA FIGUEIRA,,7220-013,ALQUEVA,-7.611166012332792,38.31474346416695
pt.ine.add.PTCONT.1374929,R LIBERDADE,14,7220-023,ALQUEVA,-7.539329099516729,38.216328240207744
pt.ine.add.PTCONT.1374930,R 25 DE ABRIL,7,7220-241,MONTE DO TRIGO,-7.714969801728557,38.39568814461897
pt.ine.add.PTCONT.1374932,EN 18,,7220-462,PORTEL,-7.6999375949182,38.35384238978303
pt.ine.add.PTCONT.1374938,R POCO,59,7220-235,MONTE DO TRIGO,-7.711711706838198,38.394055837883236
pt.ine.add.PTCONT.1374943,MTE PELENA,,7220-221,MONTE DO TRIGO,-7.737455496358023,38.40760353484487
pt.ine.add.PTCONT.1374948,R VALE FLORES,11,7220-402,PORTEL,-7.70105503174168,38.30796449476783
pt.ine.add.PTCONT.1375023,R ALAMO,35,7220-403,PORTEL,-7.704632994950957,38.31029344502192
pt.ine.add.PTCONT.1375027,MTE PIAS,,7220-301,ORIOLA,-7.916317127408963,38.32106462731366
pt.ine.add.PTCONT.1375028,LOTEAM A ESTRADA DE PORTEL,,7220-574,VERA CRUZ,-7.682461171687182,38.23012729063295
pt.ine.add.PTCONT.1375035,R GAGO COUTINHO,2,7220-354,PORTEL,-7.707986231837641,38.30836651905821
pt.ine.add.PTCONT.1375043,R LIBERDADE,22,7220-386,PORTEL,-7.703368240753644,38.30740669861021
pt.ine.add.PTCONT.1375044,R NOVA,14,7220-578,VERA CRUZ,-7.681318628887254,38.2256492075252
pt.ine.add.PTCONT.1375048,R OLARIAS,6,7220-394,PORTEL,-7.703021487367657,38.30595218170714
pt.ine.add.PTCONT.1375049,LG OLARIAS,12,7220-366,PORTEL,-7.702180417056805,38.3057612550014
pt.ine.add.PTCONT.1375050,R MARIA FERNANDA TOSCANO RICO,ZD,7220-350,PORTEL,-7.69793263291513,38.300773540798936
pt.ine.add.PTCONT.1375051,MTE VÁRZEA,,7220-566,VERA CRUZ,-7.667303756334902,38.22240528526844
pt.ine.add.PTCONT.1375275,R BENTO DE JESUS CARAÇA,2A,7220-379,PORTEL,-7.70143135518357,38.303709881233466
pt.ine.add.PTCONT.1375300,R SACRAMENTO,12,7220-238,MONTE DO TRIGO,-7.711715468529394,38.39429817010049
pt.ine.add.PTCONT.1375675,R VICTORIA,7,7220-225,MONTE DO TRIGO,-7.7125912899504465,38.396581067294306
pt.ine.add.PTCONT.1375666,BC SACO,5,7220-012,ALQUEVA,-7.539849350024768,38.21769182899483
pt.ine.add.PTCONT.1375668,R JOSE BARRIGA PINTO,,7220-025,ALQUEVA,-7.539985881465308,38.21714898730365
pt.ine.add.PTCONT.1375669,LG 1 DE MAIO,4,7220-016,ALQUEVA,-7.53907119071522,38.2175142725246
pt.ine.add.PTCONT.1375670,R ÉVORA,2C,7220-397,PORTEL,-7.705746893504857,38.31432186678803
pt.ine.add.PTCONT.1375678,R POR DO SOL,7,7220-204,MONTE DO TRIGO,-7.716923648235743,38.3958708393389
pt.ine.add.PTCONT.1375684,R QUINTAIS,1,7220-038,ALQUEVA,-7.5368967023195514,38.21738301275608
pt.ine.add.PTCONT.1375688,R ÉVORA,55,7220-231,MONTE DO TRIGO,-7.713529901705472,38.39526860237541
pt.ine.add.PTCONT.1375692,EN 384,,7220-462,PORTEL,-7.749280260223116,38.30829494034284
pt.ine.add.PTCONT.1375695,EN 384,,7220-462,PORTEL,-7.749280260223116,38.30829494034284
pt.ine.add.PTCONT.1375696,EN 384,,7220-462,PORTEL,-7.749280260223116,38.30829494034284
pt.ine.add.PTCONT.1375699,R BARRANCA,10,7220-109,AMIEIRA PRL,-7.558809091786643,38.288541794305466
pt.ine.add.PTCONT.1375704,HORTA DO PATO,,7220-248,MONTE DO TRIGO,-7.71107340362924,38.39053925948219
pt.ine.add.PTCONT.1375709,R NOVA,13,7220-301,ORIOLA,-7.865436649457249,38.31830571062128
pt.ine.add.PTCONT.1375710,R PARREIRA,29,7220-389,PORTEL,-7.702257445607869,38.307915439602816
pt.ine.add.PTCONT.1375747,R MOINHO,5,7220-408,PORTEL,-7.7028535839340675,38.30408837741281
pt.ine.add.PTCONT.1375748,R ESPERANÇA,9,7220-490,SANTANA PRL,-7.8003334307603165,38.26871611868714
pt.ine.add.PTCONT.1375757,R CALÇADA,13,7220-489,SANTANA PRL,-7.801437007126378,38.26787749259691
pt.ine.add.PTCONT.1375760,R S JOÃO DE DEUS,26,7220-427,PORTEL,-7.699831908427329,38.304357052527315
pt.ine.add.PTCONT.1375761,R GEN HUMBERTO DELGADO,7,7220-422,PORTEL,-7.699973566167097,38.30369851137935
pt.ine.add.PTCONT.1375765,R CALÇADA,20,7220-489,SANTANA PRL,-7.802043523244477,38.266844985972256
pt.ine.add.PTCONT.1375774,R CATARINA EUFEMIA,1,7220-381,PORTEL,-7.7014618220582625,38.30326399174486
pt.ine.add.PTCONT.1375777,R ESTADIO MUNICIPAL,11,7220-406,PORTEL,-7.698479516537402,38.303000734469464
pt.ine.add.PTCONT.1375778,R BENTO DE JESUS CARAÇA,6,7220-379,PORTEL,-7.700904155220499,38.30283852625927
pt.ine.add.PTCONT.1375790,R POÇO,19,7220-534,SÃO BARTOLOMEU DO OUTEIRO,-7.909327235619313,38.355591367263614
pt.ine.add.PTCONT.1375932,R GRUPO CORAL DE CANTARES REGIONAIS DE PORTEL,2,7220-407,PORTEL,-7.708770771755002,38.30853376066569
pt.ine.add.PTCONT.1375959,R DOS MELINDRES,2,7220-415,PORTEL,-7.701437363025077,38.30546204089732
pt.ine.add.PTCONT.1376055,R GASPAR GOIS,22,7220-382,PORTEL,-7.701128186825341,38.30242428141631
pt.ine.add.PTCONT.1376491,TV CARDAL,,7220-044,ALQUEVA,-7.538525513671377,38.21788676070119
pt.ine.add.PTCONT.1376492,R VILA,14,7220-028,ALQUEVA,-7.5394104437059175,38.21665383679855
pt.ine.add.PTCONT.1376501,R MOITA REDONDA,24,7220-529,SÃO BARTOLOMEU DO OUTEIRO,-7.908516371711463,38.35501297071367
pt.ine.add.PTCONT.1376493,R TRINDADE,11,7220-027,ALQUEVA,-7.539122712213536,38.216530726653566
pt.ine.add.PTCONT.1376494,R ALEGRIA,21,7220-202,MONTE DO TRIGO,-7.716170265847543,38.39594466241139
pt.ine.add.PTCONT.1376495,R OUTEIRO,10,7220-301,ORIOLA,-7.866725029717814,38.319083784559005
pt.ine.add.PTCONT.1376496,R ESPERANÇA,11,7220-490,SANTANA PRL,-7.800388391452164,38.26875448195834
pt.ine.add.PTCONT.1376497,ESTR ORIOLA,4,7220-482,SANTANA PRL,-7.803768624836059,38.266962345639904
pt.ine.add.PTCONT.1376498,R MONTE FRADE,6,7220-502,SANTANA PRL,-7.802889086378825,38.26603743871025
pt.ine.add.PTCONT.1376499,ESTR VIANA,24,7220-524,SÃO BARTOLOMEU DO OUTEIRO,-7.909626915707193,38.35769207026517
pt.ine.add.PTCONT.1376500,R CRUZ,38,7220-528,SÃO BARTOLOMEU DO OUTEIRO,-7.908169502611642,38.3561924496925
pt.ine.add.PTCONT.1376502,R ALVITO,41,7220-532,SÃO BARTOLOMEU DO OUTEIRO,-7.911212159875564,38.35412410431094
pt.ine.add.PTCONT.1376537,LG JOGO DA BOLA,5,7220-104,AMIEIRA PRL,-7.5588596953471985,38.28796834797863
pt.ine.add.PTCONT.1376538,R CHAFARIZ,20,7220-126,AMIEIRA PRL,-7.559076344883216,38.287255192994486
pt.ine.add.PTCONT.1376539,R ÉVORA,1,7220-121,AMIEIRA PRL,-7.558405012576486,38.28474999841729
pt.ine.add.PTCONT.1376540,R OUTEIRINHO,5,7220-130,AMIEIRA PRL,-7.55660696064948,38.28610063674465
pt.ine.add.PTCONT.1376541,R DO MOINHO,9,7220-208,MONTE DO TRIGO,-7.714966686960551,38.39465128505588
pt.ine.add.PTCONT.1376542,R MISERICÓRDIA,R,7220-387,PORTEL,-7.703225100766557,38.31092748767134
pt.ine.add.PTCONT.1376543,LG JOSE ANTÓNIO POMBINHO JUNIOR,,7220-409,PORTEL,-7.703044268295771,38.30761946669111
pt.ine.add.PTCONT.1376544,R DE MELINDRES,39,7220-415,PORTEL,-7.69962140722233,38.3051490462365
pt.ine.add.PTCONT.1376545,ESTR DEPOSITOS CASAO CASA,,7220-422,PORTEL,-7.703249667985954,38.31220724904318
pt.ine.add.PTCONT.1376546,R VIDIGUEIRA,12,7220-390,PORTEL,-7.704833087604011,38.3079947968049
pt.ine.add.PTCONT.1376547,R OUTEIRO,2,7220-576,VERA CRUZ,-7.680868060201703,38.22648529839125
pt.ine.add.PTCONT.1376572,R SACRAMENTO,4,7220-238,MONTE DO TRIGO,-7.711576079267229,38.39449085903677
pt.ine.add.PTCONT.1376573,MTE PELENA,,7220-221,MONTE DO TRIGO,-7.739701080897187,38.405196783339754
pt.ine.add.PTCONT.1376574,TV ESCOLA,,7220-242,MONTE DO TRIGO,-7.713792551626736,38.397359544272554
pt.ine.add.PTCONT.1376575,R GRUPO DESPORTIVO DO MONTE TRIGO,,7220-230,MONTE DO TRIGO,-7.710888774429367,38.396700499506224
pt.ine.add.PTCONT.1376576,R NOVA,33,7220-240,MONTE DO TRIGO,-7.712799606518395,38.394869606270824
pt.ine.add.PTCONT.1376577,R VARANDAS,4,7220-396,PORTEL,-7.703839237790033,38.30914327735275
pt.ine.add.PTCONT.1376578,R 25 DE ABRIL,16,7220-430,PORTEL,-7.703985585769546,38.30798074030639
pt.ine.add.PTCONT.1376579,R SEBASTIÃO GIL,4,7220-428,PORTEL,-7.702025630083617,38.30317909345311
pt.ine.add.PTCONT.1376580,R GASPAR GOIS,8,7220-421,PORTEL,-7.702419737933043,38.30245963230197
pt.ine.add.PTCONT.1376689,R REPUBLICA,30,7220-570,VERA CRUZ,-7.681168935461721,38.227693647063525
pt.ine.add.PTCONT.1376690,R FR FIALHO TOJO,1,7220-420,PORTEL,-7.70254665903759,38.30347518023887
pt.ine.add.PTCONT.1376780,R CATARINA EUFÉMIA,11,7220-381,PORTEL,-7.701488850190184,38.30256140719316
pt.ine.add.PTCONT.1376815,R FLORES,10,7220-029,ALQUEVA,-7.538711435340219,38.217491313079194
pt.ine.add.PTCONT.1376850,R LIBERDADE,29,7220-023,ALQUEVA,-7.539395375228709,38.21623353568708
pt.ine.add.PTCONT.1376851,MTE CAPELINS,,7220-022,ALQUEVA,-7.574681705448988,38.2487934647289
pt.ine.add.PTCONT.1376852,R PORTEL,3,7220-123,AMIEIRA PRL,-7.559214366954965,38.287925039741836
pt.ine.add.PTCONT.1376853,R CHAFARIZ,2,7220-126,AMIEIRA PRL,-7.558269023709525,38.287320189437295
pt.ine.add.PTCONT.1376854,R FIGUEIRA,3,7220-113,AMIEIRA PRL,-7.560024224687903,38.28645369181575
pt.ine.add.PTCONT.1376855,R ÉVORA,27,7220-121,AMIEIRA PRL,-7.55961042144311,38.28586663799158
pt.ine.add.PTCONT.1376856,R SOBREIRA,2,7220-117,AMIEIRA PRL,-7.560171037206684,38.28551813944728
pt.ine.add.PTCONT.1376903,R PEREIRA,16,7220-116,AMIEIRA PRL,-7.5603163841792815,38.28480639390327
pt.ine.add.PTCONT.1376904,R PRIOR,4,7220-248,MONTE DO TRIGO,-7.712994177736351,38.396852202378064
pt.ine.add.PTCONT.1376905,EN 18,1,7220-212,MONTE DO TRIGO,-7.716690670957528,38.397018539283295
pt.ine.add.PTCONT.1376906,R PEDRAS,2,7220-229,MONTE DO TRIGO,-7.7119244425163,38.395823783287675
pt.ine.add.PTCONT.1376930,LG CAMPAINHAS,8,7220-301,ORIOLA,-7.868483483567678,38.31783140557431
pt.ine.add.PTCONT.1376931,R PRIOR,29,7220-301,ORIOLA,-7.867632672723312,38.317826460536686
pt.ine.add.PTCONT.1376932,R ÉVORA,2B,7220-397,PORTEL,-7.705775987021931,38.314252458544324
pt.ine.add.PTCONT.1376933,R CONSOLAÇÃO,43,7220-383,PORTEL,-7.708069524724418,38.312190073692754
pt.ine.add.PTCONT.1376963,ESTR S PEDRO,,7220-462,PORTEL,-7.705624160700211,38.324530883553386
pt.ine.add.PTCONT.1376964,EN 384,,7220-462,PORTEL,-7.783012412399445,38.30985088006144
pt.ine.add.PTCONT.1376965,R MISERICÓRDIA,,7220-387,PORTEL,-7.70289294612148,38.31065643509105
pt.ine.add.PTCONT.1376966,TV MOINHO,20,7220-438,PORTEL,-7.70038380022284,38.30575544836753
pt.ine.add.PTCONT.1376967,R CELEIROS,6,7220-404,PORTEL,-7.703695620855048,38.3102629909307
pt.ine.add.PTCONT.1377004,R LUIS DE CAMÕES,22,7220-357,PORTEL,-7.708346943607568,38.308052519083894
pt.ine.add.PTCONT.1377005,R CRUZ,22,7220-385,PORTEL,-7.703148554804593,38.304525422933416
pt.ine.add.PTCONT.1377034,,,7220-350,PORTEL,-7.701031408178107,38.30065887247757
pt.ine.add.PTCONT.1377035,TV MOINHO,3,7220-509,SANTANA PRL,-7.803220306874394,38.269016237093055
pt.ine.add.PTCONT.1377036,R HORTAS,5,7220-495,SANTANA PRL,-7.803454477822573,38.26713625050556
pt.ine.add.PTCONT.1377037,LG CAPITOA,10,7220-483,SANTANA PRL,-7.801804768050021,38.267565508286864
pt.ine.add.PTCONT.1377057,VALE JOÃO NUNES,,7220-499,SANTANA PRL,-7.810483381886441,38.27457006591247
pt.ine.add.PTCONT.1377378,LOTEAM FERRAGIAL DAS FREIRAS,,7220-220,MONTE DO TRIGO,-7.720889127009463,38.40353760673674
pt.ine.add.PTCONT.1377406,R SANTIAGO,22,7220-400,PORTEL,-7.703122996941839,38.31042305090863
pt.ine.add.PTCONT.1377486,R VALE FLORES,15,7220-402,PORTEL,-7.701013261315905,38.30785740600918
pt.ine.add.PTCONT.1377845,BC JUNTA,2,7220-011,ALQUEVA,-7.539384634051857,38.217287419171285
pt.ine.add.PTCONT.1377842,R JOSE BARRIGA PINTO,2,7220-025,ALQUEVA,-7.540043704938908,38.21705919098517
pt.ine.add.PTCONT.1377844,R FLORES,4,7220-029,ALQUEVA,-7.538746936640624,38.21733834245776
pt.ine.add.PTCONT.1377846,R S CATARINA,,7220-399,PORTEL,-7.705550473713863,38.31176522037619
pt.ine.add.PTCONT.1377850,R ALTO,9,7220-032,ALQUEVA,-7.539092348229394,38.21720395547615
pt.ine.add.PTCONT.1377851,R 5 DE OUTUBRO,5,7220-018,ALQUEVA,-7.536987201819662,38.21720978002968
pt.ine.add.PTCONT.1377852,,,7220-134,AMIEIRA PRL,-7.555598332724788,38.2870064208047
pt.ine.add.PTCONT.1377856,R 25 DE ABRIL,12,7220-041,ALQUEVA,-7.538496555226957,38.216667825270875
pt.ine.add.PTCONT.1377864,R S CATARINA,7,7220-399,PORTEL,-7.705191570529067,38.31112281691083
pt.ine.add.PTCONT.1377865,R S CATARINA,7,7220-399,PORTEL,-7.705191570529067,38.31112281691083
pt.ine.add.PTCONT.1377869,LG IGREJA,2,7220-014,ALQUEVA,-7.537865542374068,38.21619876177913
pt.ine.add.PTCONT.1377870,TV PUBLICA,3,7220-301,ORIOLA,-7.863744878530371,38.319072839830774
pt.ine.add.PTCONT.1377877,R HORTA,7,7220-301,ORIOLA,-7.862876260258064,38.318953727669786
pt.ine.add.PTCONT.1377880,R PARREIRA,3,7220-389,PORTEL,-7.701953566832665,38.3078366675318
pt.ine.add.PTCONT.1377927,TV S PAULO,5,7220-435,PORTEL,-7.705551808639219,38.310293314008
pt.ine.add.PTCONT.1377928,QTA POMBEIRA,,7220-540,SÃO BARTOLOMEU DO OUTEIRO,-7.902366916866848,38.34242482776981
pt.ine.add.PTCONT.1377931,R S PAULO,8,7220-401,PORTEL,-7.706819504730105,38.309832956086666
pt.ine.add.PTCONT.1377932,R S JOÃO DE DEUS,13,7220-427,PORTEL,-7.699975783793903,38.30451988218876
pt.ine.add.PTCONT.1377933,R 1 DE MAIO,28,7220-426,PORTEL,-7.698744756395885,38.30453320732545
pt.ine.add.PTCONT.1377934,R ALAMO,,7220-403,PORTEL,-7.704338698550401,38.30978787912562
pt.ine.add.PTCONT.1377941,R JOSE POMBINHO,1,7220-356,PORTEL,-7.709158656926873,38.30867930340261
pt.ine.add.PTCONT.1377942,R DR ALBANO TAVARES,18,7220-376,PORTEL,-7.699559467264299,38.30287231901027
pt.ine.add.PTCONT.1377947,R DR JOSE MACEDO FRAGATEIRO,3,7220-418,PORTEL,-7.709141926692237,38.307625217623446
pt.ine.add.PTCONT.1377953,R COR BELTRÃO,8,7220-382,PORTEL,-7.700963722404224,38.302066981519026
pt.ine.add.PTCONT.1377957,BR CRUZ,55,7220-521,SÃO BARTOLOMEU DO OUTEIRO,-7.905540454131381,38.356271218368974
pt.ine.add.PTCONT.1377961,R MARIA FERNANDA TOSCANO RICO,30,7220-350,PORTEL,-7.698297860055518,38.30087399158857
pt.ine.add.PTCONT.1377962,MTE TAIPAS,,7220-350,PORTEL,-7.701862242764608,38.28583347096224
pt.ine.add.PTCONT.1377964,R ALVITO,49,7220-532,SÃO BARTOLOMEU DO OUTEIRO,-7.911448297248388,38.35398626685184
pt.ine.add.PTCONT.1377965,TV BORRALHO,2,7220-538,SÃO BARTOLOMEU DO OUTEIRO,-7.908815646589081,38.354618487180026
pt.ine.add.PTCONT.1377966,R CRUZ,6,7220-528,SÃO BARTOLOMEU DO OUTEIRO,-7.909433271502818,38.354398904324995
pt.ine.add.PTCONT.1378119,R VARANDAS,16,7220-396,PORTEL,-7.7025125695785075,38.30793343178701
pt.ine.add.PTCONT.1378586,LG CAMPAINHAS,11,7220-301,ORIOLA,-7.868420888294184,38.31765809839529
pt.ine.add.PTCONT.1378585,R ANTÓNIO ALMEIDA RICO,,7220-230,MONTE DO TRIGO,-7.710300730692873,38.39742807870324
pt.ine.add.PTCONT.1378587,MTE ALFAIATES,,7220-301,ORIOLA,-7.857788338610579,38.28551021674998
pt.ine.add.PTCONT.1378592,R PENEDOS,19,7220-037,ALQUEVA,-7.541666087926312,38.216434184070614
pt.ine.add.PTCONT.1378594,R OLIVEIRAS,10,7220-228,MONTE DO TRIGO,-7.712127813104445,38.396357931019054
pt.ine.add.PTCONT.1378595,R FORÇAS ARMADAS,10,7220-223,MONTE DO TRIGO,-7.7142551942874364,38.39691243713988
pt.ine.add.PTCONT.1378596,MTE PERNES,,7220-013,ALQUEVA,-7.582831678509138,38.29662352874624
pt.ine.add.PTCONT.1378597,R MOINHOS,25,7220-416,PORTEL,-7.704148799475238,38.31244876545868
pt.ine.add.PTCONT.1378600,R CEMITÉRIO,,7220-234,MONTE DO TRIGO,-7.7144664028721825,38.39564130466908
pt.ine.add.PTCONT.1378606,R TRINDADE,15,7220-027,ALQUEVA,-7.539084680230628,38.21663879172033
pt.ine.add.PTCONT.1378612,R SANTIAGO,20,7220-400,PORTEL,-7.703168358049816,38.31048627848778
pt.ine.add.PTCONT.1378616,EN 18,,7220-462,PORTEL,-7.7085645258666355,38.31841561866617
pt.ine.add.PTCONT.1378629,R CUSTÓDIO SILVA TENDEIRO,30,7220-301,ORIOLA,-7.8626719716633335,38.31853885288836
pt.ine.add.PTCONT.1378669,R CARVALHAL,31,7220-498,SANTANA PRL,-7.801131025215253,38.268648181006625
pt.ine.add.PTCONT.1378670,R MEIO,10,7220-533,SÃO BARTOLOMEU DO OUTEIRO,-7.908825623440737,38.354229228067574
pt.ine.add.PTCONT.1378677,R ORIOLA,6,7220-496,SANTANA PRL,-7.803921601147269,38.26734848156346
pt.ine.add.PTCONT.1378686,R ORIOLA,13,7220-496,SANTANA PRL,-7.803978148310748,38.26719702936443
pt.ine.add.PTCONT.1378690,TV ALAMO,16,7220-436,PORTEL,-7.704504791129444,38.309309921884186
pt.ine.add.PTCONT.1378691,R MIL FONTES,13,7220-398,PORTEL,-7.704055680161426,38.30930937998953
pt.ine.add.PTCONT.1378692,R S JOÃO DE DEUS,12 A,7220-427,PORTEL,-7.6995579062647055,38.30429297879135
pt.ine.add.PTCONT.1378697,R DR ALBANO TAVARES,4,7220-376,PORTEL,-7.699221723897903,38.30382256463314
pt.ine.add.PTCONT.1378698,R MARIA DOS REMEDIOS,4,7220-574,VERA CRUZ,-7.6813693505130525,38.22882054627988
pt.ine.add.PTCONT.1378701,R DR ISIDRO RICO,28,7220-424,PORTEL,-7.699159546191758,38.30280521139543
pt.ine.add.PTCONT.1378705,LG 5 DE OUTUBRO,10,7220-363,PORTEL,-7.7047054563890365,38.30786980172212
pt.ine.add.PTCONT.1378709,BR CRUZ,65,7220-521,SÃO BARTOLOMEU DO OUTEIRO,-7.904944418368322,38.35612540060051
pt.ine.add.PTCONT.1378710,BR CRUZ,51,7220-521,SÃO BARTOLOMEU DO OUTEIRO,-7.905592618367569,38.35628961812888
pt.ine.add.PTCONT.1378711,BR CRUZ,47,7220-521,SÃO BARTOLOMEU DO OUTEIRO,-7.905915219763798,38.35640168523185
pt.ine.add.PTCONT.1378713,R GRUPO DESPORTIVO DE PORTEL,4,7220-350,PORTEL,-7.697643013638095,38.30141208879027
pt.ine.add.PTCONT.1378714,R BOAVISTA,10,7220-566,VERA CRUZ,-7.680619594790993,38.22543282605022
pt.ine.add.PTCONT.1378719,R MARIA FERNANDA TOSCANO RICO,33,7220-350,PORTEL,-7.698161968786177,38.30065727730219
pt.ine.add.PTCONT.1378720,R MARIA FERNANDA TOSCANO RICO,31,7220-350,PORTEL,-7.698252616652792,38.3007927449387
pt.ine.add.PTCONT.1378857,LG MATRIZ,3,7220-365,PORTEL,-7.704446088066455,38.30864588242132
pt.ine.add.PTCONT.1378873,R ÉVORA,6,7220-121,AMIEIRA PRL,-7.5603188920947675,38.28633346226783
pt.ine.add.PTCONT.1378916,R ASSOCIAÇÃO DE DADORES DE SANGUE DE PORTEL,45,7220-379,PORTEL,-7.698597022520324,38.300550784283644
pt.ine.add.PTCONT.1378951,R CRUZ,,7220-385,PORTEL,-7.70325220870766,38.30384456519547
pt.ine.add.PTCONT.1378952,R NOVA,23,7220-240,MONTE DO TRIGO,-7.712799707357092,38.39514462122654
pt.ine.add.PTCONT.1378956,R ÉVORA,48,7220-231,MONTE DO TRIGO,-7.7133939903654545,38.39544728576511
pt.ine.add.PTCONT.1379316,LG IGREJA,12,7220-014,ALQUEVA,-7.538424253409128,38.21623822528486
pt.ine.add.PTCONT.1379302,R 5 DE OUTUBRO,13,7220-018,ALQUEVA,-7.537194905392385,38.2172223677369
pt.ine.add.PTCONT.1379303,MTE CALVA 2,,7220-013,ALQUEVA,-7.574845308413011,38.29906319748714
pt.ine.add.PTCONT.1379304,R MOINHOS,28,7220-416,PORTEL,-7.703932075549812,38.31282234322145
pt.ine.add.PTCONT.1379310,TV JOGO DA BOLA,3,7220-437,PORTEL,-7.706293127674487,38.31185801260838
pt.ine.add.PTCONT.1379321,EN 18,,7220-212,MONTE DO TRIGO,-7.714434660094054,38.39519075974297
pt.ine.add.PTCONT.1379323,R CABRITA,32,7220-301,ORIOLA,-7.864969492221404,38.31874932519255
pt.ine.add.PTCONT.1379334,R PARREIRA,11,7220-115,AMIEIRA PRL,-7.55920790623736,38.28764409020162
pt.ine.add.PTCONT.1379337,R POÇO,28,7220-301,ORIOLA,-7.868116818425172,38.318037779792135
pt.ine.add.PTCONT.1379341,R 1 DE MAIO,,7220-132,AMIEIRA PRL,-7.5573883645555195,38.286664018005375
pt.ine.add.PTCONT.1379342,TV CANADA,9,7220-301,ORIOLA,-7.864559448835072,38.31834499635677
pt.ine.add.PTCONT.1379345,R 1 DE MAIO,7,7220-132,AMIEIRA PRL,-7.557385668771889,38.28652490250812
pt.ine.add.PTCONT.1379411,R CÂNDIDO DOS REIS,20,7220-380,PORTEL,-7.701881012981416,38.30374584677551
pt.ine.add.PTCONT.1379418,R CÂNDIDO DOS REIS,13 A,7220-380,PORTEL,-7.701618497747421,38.30359779168945
pt.ine.add.PTCONT.1379419,R CÂNDIDO DOS REIS,14,7220-380,PORTEL,-7.7015411538869,38.30357125021177
pt.ine.add.PTCONT.1379424,R GASPAR GOIS,2,7220-421,PORTEL,-7.702929829186856,38.30247661258401
pt.ine.add.PTCONT.1379428,R FRANCISCO BARAHONA,9,7220-481,SANTANA PRL,-7.798639584330374,38.268050536315805
pt.ine.add.PTCONT.1379438,R GEN HUMBERTO DELGADO,3,7220-422,PORTEL,-7.700681275250573,38.30379263432245
pt.ine.add.PTCONT.1379441,R MIL FONTES,27,7220-398,PORTEL,-7.704295680415019,38.30900782269899
pt.ine.add.PTCONT.1379442,R OUTEIRO,16,7220-409,PORTEL,-7.704159715924975,38.30825542103279
pt.ine.add.PTCONT.1379446,R DR JOSE HIPOLITO,4,7220-417,PORTEL,-7.700239673164016,38.303411158111935
pt.ine.add.PTCONT.1379555,MTE VALE CAMBRAS,,7220-422,PORTEL,-7.681954585467791,38.324117909772596
pt.ine.add.PTCONT.1379450,R COR BELTRAO,3 B,7220-382,PORTEL,-7.701123182719205,38.30253303487565
pt.ine.add.PTCONT.1379451,MTE VALE DAS DUVIDAS,,7220-499,SANTANA PRL,-7.770701687335228,38.27473321158625
pt.ine.add.PTCONT.1379452,MTE VALE DAS DUVIDAS,,7220-499,SANTANA PRL,-7.770701687335228,38.27473321158625
pt.ine.add.PTCONT.1379454,R OUTEIRO,4,7220-576,VERA CRUZ,-7.680877096251533,38.22641240631803
pt.ine.add.PTCONT.1379462,R CRUZ,46,7220-528,SÃO BARTOLOMEU DO OUTEIRO,-7.907858982641276,38.35671435996767
pt.ine.add.PTCONT.1379463,R CRUZ,14,7220-385,PORTEL,-7.703047712219581,38.30479274337717
pt.ine.add.PTCONT.1379464,HORTA DOS FREIXIAIS,,7220-574,VERA CRUZ,-7.68102145238153,38.2312245584484
pt.ine.add.PTCONT.1379468,R MOITA REDONDA,7,7220-529,SÃO BARTOLOMEU DO OUTEIRO,-7.908686721530806,38.355030935970156
pt.ine.add.PTCONT.1392169,EN 18,,7220-462,PORTEL,-7.773508758339871,38.28717402143489
pt.ine.add.PTCONT.1379607,R ÉVORA,25,7220-397,PORTEL,-7.705956820021898,38.31238601950116
pt.ine.add.PTCONT.1379647,R FONTE,S N,7220-568,VERA CRUZ,-7.678830405683861,38.225423391049546
pt.ine.add.PTCONT.1379668,BR DIAS DE CARVALHO,6,7220-355,PORTEL,-7.707709236449254,38.30810426342873
pt.ine.add.PTCONT.1379750,R OLIVEIRA,15A,7220-388,PORTEL,-7.701974519133524,38.30742377747872
pt.ine.add.PTCONT.1392170,R VALE,,7220-411,PORTEL,-7.700486462398052,38.306970607471015
pt.ine.add.PTCONT.1380114,R PENEDOS,27,7220-037,ALQUEVA,-7.541801139685831,38.21667810333343
pt.ine.add.PTCONT.1380115,R MOURA,10,7220-122,AMIEIRA PRL,-7.557128536030976,38.28571542237269
pt.ine.add.PTCONT.1380116,R ÉVORA,4,7220-397,PORTEL,-7.70611565463332,38.31287535613399
pt.ine.add.PTCONT.1380121,R ÉVORA,9,7220-397,PORTEL,-7.705937817971672,38.31280994108073
pt.ine.add.PTCONT.1380138,R 25 DE ABRIL,5 A,7220-241,MONTE DO TRIGO,-7.715050447986663,38.39559834596232
pt.ine.add.PTCONT.1380139,HRD PECENINHA,,7220-234,MONTE DO TRIGO,-7.742594488146844,38.41640416724497
pt.ine.add.PTCONT.1380147,EN 384,,7220-462,PORTEL,-7.7235790270281495,38.310189955072545
pt.ine.add.PTCONT.1380150,R ÉVORA,85,7220-231,MONTE DO TRIGO,-7.712726000104749,38.39374326328026
pt.ine.add.PTCONT.1380151,TV PACOS DO CONCELHO,2,7220-442,PORTEL,-7.703215760820969,38.31008010496745
pt.ine.add.PTCONT.1380156,R FORNO,8,7220-301,ORIOLA,-7.864275154442574,38.318606694349754
pt.ine.add.PTCONT.1380162,LG MIGUEL BOMBARDA,8,7220-369,PORTEL,-7.702333643162065,38.30701085231754
pt.ine.add.PTCONT.1380163,R VALE FLORES,20,7220-402,PORTEL,-7.701137069177873,38.30790231033343
pt.ine.add.PTCONT.1380167,R ÉVORA,2,7220-121,AMIEIRA PRL,-7.559985547040487,38.28601957846477
pt.ine.add.PTCONT.1380170,R DOROA,22,7220-111,AMIEIRA PRL,-7.555203329386899,38.28540229975435
pt.ine.add.PTCONT.1380206,R CANDIDO DOS REIS,L7,7220-380,PORTEL,-7.702069014435979,38.30378757898133
pt.ine.add.PTCONT.1380207,R CANDIDO REIS,17,7220-380,PORTEL,-7.702069014435979,38.30378757898133
pt.ine.add.PTCONT.1380208,R CIMA,4,7220-531,SÃO BARTOLOMEU DO OUTEIRO,-7.908192794148812,38.3540629011592
pt.ine.add.PTCONT.1380211,R BICA,3,7220-488,SANTANA PRL,-7.802716354000886,38.26863865212455
pt.ine.add.PTCONT.1380212,R LAGO,3,7220-500,SANTANA PRL,-7.803782039133925,38.2684244824356
pt.ine.add.PTCONT.1380218,R MIL FONTES,4,7220-398,PORTEL,-7.703696707138766,38.30972432697139
pt.ine.add.PTCONT.1380219,R DR MANUEL DE ARRIAGA,7A,7220-419,PORTEL,-7.704540698078114,38.308491355803014
pt.ine.add.PTCONT.1380222,R S JOÃO DE DEUS,08,7220-427,PORTEL,-7.7000943715592705,38.30443910056273
pt.ine.add.PTCONT.1380227,,,7220-358,PORTEL,-7.71193356859344,38.305311012466134
pt.ine.add.PTCONT.1380229,R BENTO JESUS CARACA,9A,7220-379,PORTEL,-7.700002889380382,38.30251989525329
pt.ine.add.PTCONT.1380234,R C BR DAS AMOREIRAS,2,7220-522,SÃO BARTOLOMEU DO OUTEIRO,-7.91068528749396,38.35747357961264
pt.ine.add.PTCONT.1380241,LG CHAFARIZ,4,7220-368,PORTEL,-7.702473408202598,38.306020773518036
pt.ine.add.PTCONT.1380244,R ALVITO,51,7220-532,SÃO BARTOLOMEU DO OUTEIRO,-7.911508568961063,38.353934186863356
pt.ine.add.PTCONT.1380359,R NOVA,10,7220-301,ORIOLA,-7.8659776006696935,38.31808882682121
pt.ine.add.PTCONT.1380361,MTE SERRADINHA,,7220-566,VERA CRUZ,-7.680195087933023,38.242923886954735
pt.ine.add.PTCONT.1380362,R NOVA,43,7220-301,ORIOLA,-7.8661851386092785,38.31781718900233
pt.ine.add.PTCONT.1380395,R PINHEIRO,6,7220-577,VERA CRUZ,-7.6805183087955164,38.22737354387832
pt.ine.add.PTCONT.1380460,R FLORES,31,7220-227,MONTE DO TRIGO,-7.711550561309284,38.395099345352854
pt.ine.add.PTCONT.1380832,R FIGUEIRA,1,7220-113,AMIEIRA PRL,-7.560113779099611,38.286398182201395
pt.ine.add.PTCONT.1380833,R FIGUEIRA,1,7220-113,AMIEIRA PRL,-7.560113779099611,38.286398182201395
pt.ine.add.PTCONT.1380834,R ANTÓNIO ALMEIDA RICO,,7220-230,MONTE DO TRIGO,-7.709901501771604,38.3971834050501
pt.ine.add.PTCONT.1380836,TV JOGO DA BOLA,8,7220-437,PORTEL,-7.706463839707715,38.31199376501082
pt.ine.add.PTCONT.1380839,R MOINHOS,4,7220-416,PORTEL,-7.703881438499975,38.31171408099635
pt.ine.add.PTCONT.1380840,R ÉVORA,3,7220-397,PORTEL,-7.706138110318648,38.3132130031347
pt.ine.add.PTCONT.1380841,R ÉVORA,3,7220-397,PORTEL,-7.706138110318648,38.3132130031347
pt.ine.add.PTCONT.1380845,R ÉVORA,3,7220-397,PORTEL,-7.706138110318648,38.3132130031347
pt.ine.add.PTCONT.1380848,R ÉVORA,45,7220-397,PORTEL,-7.706088315481041,38.311471039234085
pt.ine.add.PTCONT.1380855,R POÇO,6,7220-034,ALQUEVA,-7.539811873899276,38.21639330170655
pt.ine.add.PTCONT.1380861,R LIBERDADE,27,7220-023,ALQUEVA,-7.53932205185243,38.21623831067227
pt.ine.add.PTCONT.1380869,R CABRITA,41,7220-301,ORIOLA,-7.864809028274888,38.31873895309877
pt.ine.add.PTCONT.1380870,R SANTIAGO,28,7220-400,PORTEL,-7.703034840559866,38.31026137725487
pt.ine.add.PTCONT.1380874,R HORTA,25,7220-301,ORIOLA,-7.863525418105651,38.31854782726505
pt.ine.add.PTCONT.1380878,R IGREJA,9,7220-301,ORIOLA,-7.866290207135499,38.31807153159743
pt.ine.add.PTCONT.1380879,R VALE FLORES,8,7220-402,PORTEL,-7.701242269285066,38.308182109830746
pt.ine.add.PTCONT.1380880,R VALE FLORES,6,7220-402,PORTEL,-7.701242269285066,38.308182109830746
pt.ine.add.PTCONT.1380883,BC GAIAS,4,7220-102,AMIEIRA PRL,-7.557833854275971,38.286777813558935
pt.ine.add.PTCONT.1380884,R NOVA,17,7220-301,ORIOLA,-7.865544629356535,38.31823500832294
pt.ine.add.PTCONT.1380889,R VALE LASA,,7220-411,PORTEL,-7.70198748079551,38.3071667204354
pt.ine.add.PTCONT.1380890,R VALE,5,7220-411,PORTEL,-7.7012564200236495,38.3070559261421
pt.ine.add.PTCONT.1380931,R MEIO,16,7220-533,SÃO BARTOLOMEU DO OUTEIRO,-7.908994670278815,38.354294470923506
pt.ine.add.PTCONT.1380935,LG IGREJA,7,7220-525,SÃO BARTOLOMEU DO OUTEIRO,-7.908797205915107,38.35391005911657
pt.ine.add.PTCONT.1380938,R SEBASTIÃO GIL,10,7220-428,PORTEL,-7.70203802291974,38.30287385883084
pt.ine.add.PTCONT.1380939,R NOVA,28,7220-506,SANTANA PRL,-7.802928556433371,38.26829553218363
pt.ine.add.PTCONT.1380943,R S PAULO,11,7220-401,PORTEL,-7.706991056447762,38.30982457065032
pt.ine.add.PTCONT.1380947,R COMENDA,7,7220-567,VERA CRUZ,-7.681525531192639,38.22942935001502
pt.ine.add.PTCONT.1380950,R DR ISIDRO RICO,2,7220-424,PORTEL,-7.698759412052495,38.30399273560593
pt.ine.add.PTCONT.1380951,R PALACETE,10,7220-504,SANTANA PRL,-7.803667593797202,38.26692205553786
pt.ine.add.PTCONT.1380952,R GRUPO CORAL DE CANTARES REGIONAIS DE PORTEL,2A,7220-407,PORTEL,-7.708838845331475,38.30862409452842
pt.ine.add.PTCONT.1380963,R LIBERDADE,21,7220-386,PORTEL,-7.703362532029942,38.30752763114725
pt.ine.add.PTCONT.1380970,BR CRUZ,69,7220-521,SÃO BARTOLOMEU DO OUTEIRO,-7.904754687100659,38.35605467847936
pt.ine.add.PTCONT.1380971,R NOVA,5,7220-578,VERA CRUZ,-7.681247712300418,38.226036316453325
pt.ine.add.PTCONT.1380973,R BOAVISTA,14,7220-566,VERA CRUZ,-7.680269325817388,38.225428951000616
pt.ine.add.PTCONT.1380974,R ESPERANÇA,19,7220-490,SANTANA PRL,-7.800794412951821,38.26911970251406
pt.ine.add.PTCONT.1381039,QTA BOA VISTA,,7220-422,PORTEL,-7.689337463804585,38.30986721679419
pt.ine.add.PTCONT.1381129,R S PAULO,11,7220-401,PORTEL,-7.706991056447762,38.30982457065032
pt.ine.add.PTCONT.1381132,R CABRITA,24,7220-301,ORIOLA,-7.86484588454955,38.318831973792165
pt.ine.add.PTCONT.1381215,R PRIOR,2,7220-248,MONTE DO TRIGO,-7.71301670676361,38.39691534352058
pt.ine.add.PTCONT.1381216,R VALE LONGUINHO,4,7220-206,MONTE DO TRIGO,-7.717002146259943,38.39647240447493
pt.ine.add.PTCONT.1381261,R VILA,26,7220-028,ALQUEVA,-7.539814780473098,38.21661402775794
pt.ine.add.PTCONT.1381286,R PESSEGUEIRO,4,7220-035,ALQUEVA,-7.538857176207607,38.216419998215464
pt.ine.add.PTCONT.1381287,R BICA,,7220-110,AMIEIRA PRL,-7.558309098955284,38.28807948255991
pt.ine.add.PTCONT.1381288,R FORNO,1,7220-127,AMIEIRA PRL,-7.558497045010976,38.287525880688136
pt.ine.add.PTCONT.1381289,R FORNO,5,7220-127,AMIEIRA PRL,-7.558530581325363,38.28766944796521
pt.ine.add.PTCONT.1381290,R S ROMÃO,17,7220-124,AMIEIRA PRL,-7.557852201382525,38.287050933424226
pt.ine.add.PTCONT.1381330,R ANTÓNIO ALMEIDA RICO,,7220-230,MONTE DO TRIGO,-7.710175285446988,38.39734654850458
pt.ine.add.PTCONT.1381331,LG POÇO,4,7220-216,MONTE DO TRIGO,-7.7124289701702695,38.395993206917176
pt.ine.add.PTCONT.1381368,R CUSTÓDIO SILVA TENDEIRO,32,7220-301,ORIOLA,-7.862590488906475,38.31858557281413
pt.ine.add.PTCONT.1381369,R POÇO,21,7220-301,ORIOLA,-7.8679682651044915,38.31801041773363
pt.ine.add.PTCONT.1381370,R ÉVORA,38,7220-397,PORTEL,-7.7061668828844265,38.31193863198155
pt.ine.add.PTCONT.1381371,R CONSOLAÇÃO,49,7220-383,PORTEL,-7.708223038301163,38.31227041321498
pt.ine.add.PTCONT.1381415,TV JOGO DA BOLA,15,7220-437,PORTEL,-7.706887094047921,38.31195926871149
pt.ine.add.PTCONT.1381416,R MELINDRES,13,7220-415,PORTEL,-7.701006583257566,38.30545821799027
pt.ine.add.PTCONT.1381417,R MELINDRES,11,7220-415,PORTEL,-7.701082693853409,38.30547556182902
pt.ine.add.PTCONT.1381418,R CANASTRAS,9,7220-392,PORTEL,-7.704031674087404,38.310332293563604
pt.ine.add.PTCONT.1381464,R MIL FONTES,8,7220-398,PORTEL,-7.703790592699339,38.3096687604665
pt.ine.add.PTCONT.1381465,BR NOVO,,7220-359,PORTEL,-7.708095695179094,38.308621404255625
pt.ine.add.PTCONT.1381466,R GAGO COUTINHO,4,7220-354,PORTEL,-7.707915380678575,38.30820343878085
pt.ine.add.PTCONT.1381467,R CRUZ,,7220-385,PORTEL,-7.703260155745783,38.30344950936273
pt.ine.add.PTCONT.1381498,R ANTÓNIO TIBERIO,8,7220-378,PORTEL,-7.700542803562467,38.30400833420873
pt.ine.add.PTCONT.1381499,TV MOINHO,6,7220-438,PORTEL,-7.700965812931581,38.30408426067333
pt.ine.add.PTCONT.1381500,TV MOINHO,04,7220-438,PORTEL,-7.700896796811473,38.304293071962256
pt.ine.add.PTCONT.1381501,R DR ISIDRO RICO,,7220-424,PORTEL,-7.6991209877249,38.30294247499508
pt.ine.add.PTCONT.1381502,R CATARINA EUFEMIA,,7220-381,PORTEL,-7.70149450929604,38.30214811284893
pt.ine.add.PTCONT.1381503,R ESTADIO MUNICIPAL,53,7220-406,PORTEL,-7.698566689371602,38.30180289111036
pt.ine.add.PTCONT.1381504,R CARVALHAL,5,7220-498,SANTANA PRL,-7.803459650657557,38.26880132533883
pt.ine.add.PTCONT.1381505,LG CAPITOA,8,7220-483,SANTANA PRL,-7.8020239323981055,38.267618700709164
pt.ine.add.PTCONT.1381544,TV BORRALHO,4A,7220-538,SÃO BARTOLOMEU DO OUTEIRO,-7.90898699132229,38.35450938211348
pt.ine.add.PTCONT.1381545,R REPUBLICA,4,7220-570,VERA CRUZ,-7.681070770422455,38.228792352141916
pt.ine.add.PTCONT.1381546,R ANTÓNIO JOSE D ALMEIDA,11,7220-565,VERA CRUZ,-7.680858571625249,38.227110467284426
pt.ine.add.PTCONT.1381571,MTE PASPARDA,,7220-564,VERA CRUZ,-7.668777976933481,38.20426720781348
pt.ine.add.PTCONT.1381831,R CASTELA,22,7220-030,ALQUEVA,-7.536929916636403,38.21684422185577
pt.ine.add.PTCONT.1381855,R PISCINAS MUNICIPAIS,25,7220-395,PORTEL,-7.707010636254884,38.311466164680105
pt.ine.add.PTCONT.1381865,R SACRAMENTO,8,7220-238,MONTE DO TRIGO,-7.711646318498575,38.39437899918001
pt.ine.add.PTCONT.1381872,R FRANCISCO BARAHONA,5,7220-481,SANTANA PRL,-7.799063615101693,38.26778147879683
pt.ine.add.PTCONT.1381901,BR DIAS DE CARVALHO,23,7220-355,PORTEL,-7.707175095366556,38.307681153737036
pt.ine.add.PTCONT.1382430,LG 1 DE MAIO,3,7220-016,ALQUEVA,-7.5390460408847675,38.21747081810839
pt.ine.add.PTCONT.1382431,R LIBERDADE,37,7220-023,ALQUEVA,-7.53955176097193,38.21633026085098
pt.ine.add.PTCONT.1382432,R 1 DE MAIO,6,7220-205,MONTE DO TRIGO,-7.7160714582751755,38.395559464002474
pt.ine.add.PTCONT.1382433,R PORTEL,10,7220-301,ORIOLA,-7.862957971804283,38.31779399558684
pt.ine.add.PTCONT.1382434,R PRIOR,23,7220-301,ORIOLA,-7.867275378972525,38.317791214338406
pt.ine.add.PTCONT.1382435,R PRIOR,3,7220-301,ORIOLA,-7.866384911805093,38.317785916319465
pt.ine.add.PTCONT.1382436,MTE LENTISCA,3,7220-301,ORIOLA,-7.854542405380594,38.34226692378281
pt.ine.add.PTCONT.1382437,R CARVALHAL,2,7220-498,SANTANA PRL,-7.803596390676596,38.26860509132791
pt.ine.add.PTCONT.1382438,R ESCADAS,15,7220-494,SANTANA PRL,-7.798826540201756,38.26759701056106
pt.ine.add.PTCONT.1382439,R ALVITO,19,7220-532,SÃO BARTOLOMEU DO OUTEIRO,-7.910066463202948,38.35431024111971
pt.ine.add.PTCONT.1382476,R CASAS GRANDES,6,7220-118,AMIEIRA PRL,-7.557366827869776,38.28641219349635
pt.ine.add.PTCONT.1382477,R SOBREIRA,1,7220-117,AMIEIRA PRL,-7.559838552874822,38.285863371081845
pt.ine.add.PTCONT.1382478,R FLORES,15,7220-227,MONTE DO TRIGO,-7.712119500312029,38.3956869510493
pt.ine.add.PTCONT.1382479,R 1 DE MAIO,,7220-426,PORTEL,-7.698370803506259,38.30458058198051
pt.ine.add.PTCONT.1382480,ZN INDUSTRIAL ARMAZEM DE ALUMINIOS,,7220-372,PORTEL,-7.695020655708886,38.30106212759831
pt.ine.add.PTCONT.1382481,R PADRE JOSE MOREIRA NUNES,3 MM,7220-360,PORTEL,-7.708418535530677,38.309121554461946
pt.ine.add.PTCONT.1382482,R REPUBLICA,13,7220-570,VERA CRUZ,-7.680971833707462,38.228170358548255
pt.ine.add.PTCONT.1382483,R PINHEIRO,7,7220-577,VERA CRUZ,-7.680759085827872,38.22748486411494
pt.ine.add.PTCONT.1382484,R FONTE,23,7220-568,VERA CRUZ,-7.679635409129255,38.22599406324899
pt.ine.add.PTCONT.1382527,R CARCHANA,16,7220-221,MONTE DO TRIGO,-7.711096306907024,38.394476115272504
pt.ine.add.PTCONT.1382528,MTE FUNCHAL,,7220-231,MONTE DO TRIGO,-7.687098723358982,38.4195122646968
pt.ine.add.PTCONT.1382529,R ANTÓNIO ALMEIDA RICO,,7220-230,MONTE DO TRIGO,-7.7096616924722,38.39708344408279
pt.ine.add.PTCONT.1382530,R NOVA,29,7220-240,MONTE DO TRIGO,-7.712796625426664,38.395049193457474
pt.ine.add.PTCONT.1382531,LG CHAFARIZ,19,7220-368,PORTEL,-7.702769017784281,38.30585587006563
pt.ine.add.PTCONT.1382532,R CRUZ,16,7220-385,PORTEL,-7.703098207593684,38.30469254290099
pt.ine.add.PTCONT.1382533,R OUTEIRO,20,7220-576,VERA CRUZ,-7.680518891324521,38.22570017996949
pt.ine.add.PTCONT.1382606,R SANTIAGO,2,7220-400,PORTEL,-7.703520796147818,38.310902904127744
pt.ine.add.PTCONT.1382616,R ÉVORA,63,7220-231,MONTE DO TRIGO,-7.713260069006756,38.39495554659618
pt.ine.add.PTCONT.1382640,R PADRE JOSE MOREIRA NUNES,5 AM,7220-360,PORTEL,-7.708316898765775,38.30915342969833
pt.ine.add.PTCONT.1382664,R MELINDRES,29,7220-415,PORTEL,-7.700091948443556,38.30525033549369
pt.ine.add.PTCONT.1382683,R SACRAMENTO,13,7220-238,MONTE DO TRIGO,-7.7117872924054005,38.39445522081511
pt.ine.add.PTCONT.1382691,R SANTO ANTÓNIO,20,7220-040,ALQUEVA,-7.539545105918712,38.218142689079144
pt.ine.add.PTCONT.1382692,R SANTO ANTÓNIO,12,7220-572,VERA CRUZ,-7.6819426261962365,38.22816508509759
pt.ine.add.PTCONT.1383076,R VINHAS,10,7220-301,ORIOLA,-7.867615332066906,38.31758620657335
pt.ine.add.PTCONT.1383087,R S CATARINA,,7220-399,PORTEL,-7.704318035585836,38.31135532754177
pt.ine.add.PTCONT.1383099,R NOVA,32,7220-240,MONTE DO TRIGO,-7.71270677268225,38.39477918704715
pt.ine.add.PTCONT.1383102,R JOSE POMBINHO,10,7220-356,PORTEL,-7.709223952072656,38.30924709138817
pt.ine.add.PTCONT.1383104,R 1 DE MAIO,3,7220-301,ORIOLA,-7.862374957302392,38.319441090781915
pt.ine.add.PTCONT.1383107,R CABRITA,5,7220-301,ORIOLA,-7.863720408586097,38.31950520510376
pt.ine.add.PTCONT.1383118,MTE ROLA,,7220-221,MONTE DO TRIGO,-7.722256286993806,38.398641715250925
pt.ine.add.PTCONT.1383124,R MOINHO,18,7220-208,MONTE DO TRIGO,-7.713398208713577,38.39890605191777
pt.ine.add.PTCONT.1383128,R VALE FLORES,38,7220-402,PORTEL,-7.700957505587404,38.30743207173498
pt.ine.add.PTCONT.1383130,BC PRIOR,2,7220-211,MONTE DO TRIGO,-7.713613667449685,38.396620196686655
pt.ine.add.PTCONT.1383167,R CRUZ,55,7220-385,PORTEL,-7.7031209843260084,38.30301783961487
pt.ine.add.PTCONT.1383173,ESTR SRA DA SAÚDE MONTE DOS CANDEEIROS,,7220-422,PORTEL,-7.699682655398111,38.314067943484595
pt.ine.add.PTCONT.1383174,R VARANDAS,39,7220-530,SÃO BARTOLOMEU DO OUTEIRO,-7.909801343290899,38.35383528071813
pt.ine.add.PTCONT.1383183,R COMENDA,2,7220-567,VERA CRUZ,-7.68154909593835,38.22901040630255
pt.ine.add.PTCONT.1383186,,,7220-358,PORTEL,-7.713207108458044,38.30651374425402
pt.ine.add.PTCONT.1383193,R PADRE JOÃO MATEUS,22,7220-425,PORTEL,-7.700504370300522,38.301464718725974
pt.ine.add.PTCONT.1383199,R OLARIAS,7,7220-394,PORTEL,-7.70314912637826,38.30585401985593
pt.ine.add.PTCONT.1383201,R GRUPO DESPORTIVO DE PORTEL,1,7220-350,PORTEL,-7.697869714563948,38.30173724585119
pt.ine.add.PTCONT.1383205,MTE MAUCHA,,7220-574,VERA CRUZ,-7.697610140564306,38.22844948235144
pt.ine.add.PTCONT.1383302,R MELINDRES,26,7220-415,PORTEL,-7.699843978705225,38.30508437479183
pt.ine.add.PTCONT.1383379,BR HORTA DA NORA,14,7220-101,AMIEIRA PRL,-7.559192768474828,38.28616675539728
pt.ine.add.PTCONT.1383403,R POÇO,57,7220-235,MONTE DO TRIGO,-7.711643076664233,38.394139437186205
pt.ine.add.PTCONT.1383907,R PARREIRA,5,7220-024,ALQUEVA,-7.539607663535663,38.217678029143904
pt.ine.add.PTCONT.1383908,R ESTALAGEM,3,7220-020,ALQUEVA,-7.539916890252875,38.216473625592585
pt.ine.add.PTCONT.1383909,R CABRITA,4,7220-301,ORIOLA,-7.864206394717634,38.31928383582702
pt.ine.add.PTCONT.1383910,R POÇO,2,7220-301,ORIOLA,-7.86708558421605,38.318612007568376
pt.ine.add.PTCONT.1383911,LG PRAÇA,9,7220-301,ORIOLA,-7.866377265370838,38.31858552389793
pt.ine.add.PTCONT.1383912,R ÉVORA,22,7220-397,PORTEL,-7.70612634123276,38.31237319023918
pt.ine.add.PTCONT.1383913,LG OLARIAS,2,7220-366,PORTEL,-7.702167821791988,38.30567192826444
pt.ine.add.PTCONT.1383943,R CAP,13,7220-233,MONTE DO TRIGO,-7.711656935522898,38.39574568449182
pt.ine.add.PTCONT.1383944,R CARCHANA,3,7220-221,MONTE DO TRIGO,-7.710461972214944,38.39529361523331
pt.ine.add.PTCONT.1383945,R MOINHO,5,7220-208,MONTE DO TRIGO,-7.713567646023837,38.39853900476792
pt.ine.add.PTCONT.1383946,R CONSOLACAO,33,7220-383,PORTEL,-7.707357188483842,38.311735757004755
pt.ine.add.PTCONT.1383947,R FORÇAS ARMADAS,21,7220-393,PORTEL,-7.70641057801547,38.31132692323649
pt.ine.add.PTCONT.1383948,R MISERICORDIA,2,7220-387,PORTEL,-7.703407428072046,38.31093328081472
pt.ine.add.PTCONT.1383949,LG CHAFARIZ,4,7220-368,PORTEL,-7.702392248606374,38.30614657122272
pt.ine.add.PTCONT.1383950,BR CRUZ,1,7220-521,SÃO BARTOLOMEU DO OUTEIRO,-7.907634402197669,38.35686950910093
pt.ine.add.PTCONT.1383951,R CIMA,17,7220-531,SÃO BARTOLOMEU DO OUTEIRO,-7.9079032851390245,38.35419436218466
pt.ine.add.PTCONT.1383985,R MELINDRES,10,7220-415,PORTEL,-7.701049136525158,38.30537953272054
pt.ine.add.PTCONT.1383986,TV S PAULO,7,7220-435,PORTEL,-7.705647991008722,38.31020104730175
pt.ine.add.PTCONT.1383987,R COMBATENTES DA GRANDE GUERRA,12,7220-414,PORTEL,-7.705056769733937,38.31016886960779
pt.ine.add.PTCONT.1383988,TV CELEIROS,,7220-441,PORTEL,-7.703796890284014,38.31007933519618
pt.ine.add.PTCONT.1383989,R ALAMO,38,7220-403,PORTEL,-7.70428407174276,38.30972649284008
pt.ine.add.PTCONT.1383990,LOTEAM HORTA DA CRUZ,,7220-385,PORTEL,-7.707414543790431,38.3056182833115
pt.ine.add.PTCONT.1383991,HORTA DA GONCINHA,,7220-564,VERA CRUZ,-7.675221293806549,38.218184241488714
pt.ine.add.PTCONT.1384039,R ÉVORA,33,7220-397,PORTEL,-7.706003962963559,38.31214609069873
pt.ine.add.PTCONT.1384071,R GRUPO DESPORTIVO DO MONTE TRIGO,,7220-230,MONTE DO TRIGO,-7.711687602470386,38.39712677970334
pt.ine.add.PTCONT.1384090,R CRUZ,69,7220-385,PORTEL,-7.704325042179614,38.30182299213808
pt.ine.add.PTCONT.1384166,R ASSOCIAÇÃO DE DADORES DE SANGUE DE PORTEL,43,7220-379,PORTEL,-7.6986875636238405,38.30070426873634
pt.ine.add.PTCONT.1384184,R CRUZ,27,7220-385,PORTEL,-7.703012901843073,38.30441965819834
pt.ine.add.PTCONT.1384197,BR PRÉ-FABRICADO,2,7220-358,PORTEL,-7.70847142867088,38.30692911745117
pt.ine.add.PTCONT.1384223,R REPUBLICA,4,7220-026,ALQUEVA,-7.540198623882929,38.21639685662762
pt.ine.add.PTCONT.1384224,R POÇO,16,7220-034,ALQUEVA,-7.53993269394508,38.216155172407454
pt.ine.add.PTCONT.1384225,R GEN HUMBERTO DELGADO,16,7220-039,ALQUEVA,-7.5389948771083635,38.21499929621317
pt.ine.add.PTCONT.1384226,LG IGREJA,21,7220-014,ALQUEVA,-7.538279754622191,38.215813480942636
pt.ine.add.PTCONT.1384227,R OLIVEIRAS,1,7220-120,AMIEIRA PRL,-7.558563897399058,38.288342330210156
pt.ine.add.PTCONT.1384228,R ÉVORA,17,7220-121,AMIEIRA PRL,-7.559210163966303,38.285555718470675
pt.ine.add.PTCONT.1384229,R PEREIRA,1S,7220-116,AMIEIRA PRL,-7.56038711955935,38.28485449641921
pt.ine.add.PTCONT.1384230,BR NSA SRA DE FÁTIMA,12,7220-207,MONTE DO TRIGO,-7.714615743571461,38.39466834269775
pt.ine.add.PTCONT.1384231,R POÇO,52,7220-235,MONTE DO TRIGO,-7.711522132408924,38.39408126774383
pt.ine.add.PTCONT.1384265,GRALHA,,7220-234,MONTE DO TRIGO,-7.712855894793621,38.38712237990779
pt.ine.add.PTCONT.1384266,BR LARANJEIRAS,3,7220-209,MONTE DO TRIGO,-7.717650840622872,38.39927377270604
pt.ine.add.PTCONT.1384267,R POR DO SOL,6 D,7220-204,MONTE DO TRIGO,-7.715589171641087,38.39547414524116
pt.ine.add.PTCONT.1384268,R S LOURENÇO,11,7220-301,ORIOLA,-7.865725442274621,38.31865996041148
pt.ine.add.PTCONT.1384269,LG PRAÇA,15,7220-301,ORIOLA,-7.866533496263052,38.318448736577345
pt.ine.add.PTCONT.1384302,MTE VALSSADA,,7220-301,ORIOLA,-7.83299825985397,38.33243026875955
pt.ine.add.PTCONT.1384303,R ÉVORA,31,7220-397,PORTEL,-7.705979648607495,38.31220636083014
pt.ine.add.PTCONT.1384304,R MOINHOS,39,7220-416,PORTEL,-7.704365231291566,38.31304914615576
pt.ine.add.PTCONT.1384305,R VARANDAS,6,7220-396,PORTEL,-7.703793028011277,38.309337314584305
pt.ine.add.PTCONT.1384306,R VALE FLORES,22,7220-402,PORTEL,-7.7011144704476875,38.30785718330218
pt.ine.add.PTCONT.1384307,R VALE,12,7220-411,PORTEL,-7.700713680231847,38.30696703005443
pt.ine.add.PTCONT.1384308,R MELINDRES,23,7220-415,PORTEL,-7.700375043762901,38.30530497781781
pt.ine.add.PTCONT.1384309,R ALAMO,28,7220-403,PORTEL,-7.704555614404145,38.310028499412425
pt.ine.add.PTCONT.1384336,R JOSE POMBINHO,9,7220-356,PORTEL,-7.70927498008062,38.30833739077234
pt.ine.add.PTCONT.1384337,R 25 DE ABRIL,7,7220-430,PORTEL,-7.7039037388527065,38.307930483668734
pt.ine.add.PTCONT.1384338,R LIBERDADE,8,7220-386,PORTEL,-7.703854312566399,38.307570353198024
pt.ine.add.PTCONT.1384339,R VIDIGUEIRA,3,7220-390,PORTEL,-7.705192758764708,38.30771570628852
pt.ine.add.PTCONT.1384340,R VIDIGUEIRA,3,7220-390,PORTEL,-7.705192758764708,38.30771570628852
pt.ine.add.PTCONT.1384341,R VIDIGUEIRA,3,7220-390,PORTEL,-7.705192758764708,38.30771570628852
pt.ine.add.PTCONT.1384342,R VIDIGUEIRA,3,7220-390,PORTEL,-7.705192758764708,38.30771570628852
pt.ine.add.PTCONT.1384343,LOTEAM HORTA DA CRUZ,22,7220-385,PORTEL,-7.7073929947039845,38.30552271218003
pt.ine.add.PTCONT.1384385,R OLARIAS,1,7220-394,PORTEL,-7.7031012151395855,38.305695716980374
pt.ine.add.PTCONT.1384386,R ANTÓNIO JOSE DE ALMEIDA,4,7220-377,PORTEL,-7.701561791523756,38.30489098621939
pt.ine.add.PTCONT.1384387,R S JOÃO DE DEUS,1A,7220-427,PORTEL,-7.700515408417462,38.304643825108435
pt.ine.add.PTCONT.1384388,R DR ALBANO TAVARES,19,7220-376,PORTEL,-7.69972648207009,38.302861207638806
pt.ine.add.PTCONT.1384424,R LAVADORES,8,7220-536,SÃO BARTOLOMEU DO OUTEIRO,-7.910054063793249,38.35680356163714
pt.ine.add.PTCONT.1384469,R MEIO,1,7220-533,SÃO BARTOLOMEU DO OUTEIRO,-7.908670823446723,38.35401029079965
pt.ine.add.PTCONT.1384494,R FONTE,17,7220-568,VERA CRUZ,-7.679831061154632,38.22612094327088
pt.ine.add.PTCONT.1384495,R NOVA,16,7220-578,VERA CRUZ,-7.68129640176154,38.225550024272884
pt.ine.add.PTCONT.1384496,R S SEBASTIÃO,2,7220-573,VERA CRUZ,-7.68166847428908,38.2263262196277
pt.ine.add.PTCONT.1384497,R BOAVISTA,3,7220-566,VERA CRUZ,-7.6807026163857515,38.22553872835064
pt.ine.add.PTCONT.1384796,R FLORES,17,7220-029,ALQUEVA,-7.538815900606998,38.21757246666254
pt.ine.add.PTCONT.1384810,R NOVA,16,7220-506,SANTANA PRL,-7.801984675778717,38.268356031671836
pt.ine.add.PTCONT.1384837,MTE VALDARCAS DE BAIXO,,7220-385,PORTEL,-7.710130908619887,38.28891755448952
pt.ine.add.PTCONT.1384847,R VIDIGUEIRA,3,7220-390,PORTEL,-7.705192758764708,38.30771570628852
pt.ine.add.PTCONT.1384882,R VALE LONGUINHO,3,7220-206,MONTE DO TRIGO,-7.716984414211178,38.396354850971974
pt.ine.add.PTCONT.1384957,R CARCHANA,21,7220-221,MONTE DO TRIGO,-7.7112528700458896,38.39448611536718
pt.ine.add.PTCONT.1384966,R VIDIGUEIRA,3,7220-390,PORTEL,-7.705192758764708,38.30771570628852
pt.ine.add.PTCONT.1385320,R PENEDOS,,7220-037,ALQUEVA,-7.5416265566983824,38.21643649655919
pt.ine.add.PTCONT.1385328,R PENEDOS,28,7220-037,ALQUEVA,-7.541669045020023,38.216614375935364
pt.ine.add.PTCONT.1385329,R ÉVORA,35,7220-231,MONTE DO TRIGO,-7.7139646743349415,38.39596094592103
pt.ine.add.PTCONT.1385333,,,7220-393,PORTEL,-7.708190077671828,38.310081165512635
pt.ine.add.PTCONT.1385343,TV POÇO,1,7220-045,ALQUEVA,-7.539679428025531,38.21630392210847
pt.ine.add.PTCONT.1385349,LG SANTIAGO,3,7220-367,PORTEL,-7.703527281083587,38.311233597018465
pt.ine.add.PTCONT.1385357,R VILA VELHA,2,7220-391,PORTEL,-7.701314787056616,38.309515532757715
pt.ine.add.PTCONT.1385361,R ÉVORA,12,7220-231,MONTE DO TRIGO,-7.71492881934107,38.39684110304677
pt.ine.add.PTCONT.1385365,LG 1 DE MAIO,3,7220-106,AMIEIRA PRL,-7.557710595471741,38.286887345540414
pt.ine.add.PTCONT.1385368,R ESCOLA,3,7220-222,MONTE DO TRIGO,-7.714389923817013,38.397550432991025
pt.ine.add.PTCONT.1385418,R ANTÓNIO JOSE DE ALMEIDA,10,7220-377,PORTEL,-7.7012679824648735,38.30482067350361
pt.ine.add.PTCONT.1385424,R CORREDOURA,,7220-384,PORTEL,-7.70522046522003,38.30955182268799
pt.ine.add.PTCONT.1385425,R BARROUCO,17,7220-497,SANTANA PRL,-7.801018499587545,38.26758883298391
pt.ine.add.PTCONT.1385426,R BARROUCO,21,7220-497,SANTANA PRL,-7.800904026759942,38.26763355319622
pt.ine.add.PTCONT.1385427,MTE FOLGOA,,7220-301,ORIOLA,-7.8953280323803705,38.31917715386618
pt.ine.add.PTCONT.1385428,R COMENDA,15,7220-567,VERA CRUZ,-7.681422455836253,38.22969129998199
pt.ine.add.PTCONT.1385431,R MONTE FRADE,2,7220-502,SANTANA PRL,-7.80294439522782,38.266224922580236
pt.ine.add.PTCONT.1385434,R DR JOSE MACEDO FRAGATEIRO,19,7220-418,PORTEL,-7.707643252875218,38.307571171977614
pt.ine.add.PTCONT.1385437,R MARIA DOS REMEDIOS,29,7220-574,VERA CRUZ,-7.681594384608995,38.22722682266876
pt.ine.add.PTCONT.1385438,R FONTE,9,7220-568,VERA CRUZ,-7.680273736468378,38.22638462471162
pt.ine.add.PTCONT.1385446,BR CRUZ,9,7220-521,SÃO BARTOLOMEU DO OUTEIRO,-7.907343765290948,38.3568105579876
pt.ine.add.PTCONT.1385452,R CARVALHAL,3,7220-498,SANTANA PRL,-7.8034903096579615,38.26872090571019
pt.ine.add.PTCONT.1385565,R QUEBRA CRUZ,4,7220-535,SÃO BARTOLOMEU DO OUTEIRO,-7.90814922202698,38.35448916491478
pt.ine.add.PTCONT.1385573,R BOLA,7,7220-527,SÃO BARTOLOMEU DO OUTEIRO,-7.908295059505698,38.353646360417116
pt.ine.add.PTCONT.1385574,R CELEIROS,7B,7220-404,PORTEL,-7.704522054794805,38.30971647913204
pt.ine.add.PTCONT.1385616,R VARANDAS,2,7220-396,PORTEL,-7.703885398643742,38.30922481249467
pt.ine.add.PTCONT.1385638,R CAP,22,7220-233,MONTE DO TRIGO,-7.711512611622893,38.39572080435729
pt.ine.add.PTCONT.1385639,R ÉVORA,2,7220-231,MONTE DO TRIGO,-7.7154586554446905,38.397126831450116
pt.ine.add.PTCONT.1385733,R CAP,4,7220-233,MONTE DO TRIGO,-7.711857447653684,38.39612757298074
pt.ine.add.PTCONT.1385737,R POÇO NOVO,4,7220-236,MONTE DO TRIGO,-7.714374285365964,38.39828793595797
pt.ine.add.PTCONT.1386157,R OUTEIRINHO,8,7220-130,AMIEIRA PRL,-7.55640079293913,38.28606662623808
pt.ine.add.PTCONT.1386158,R VERA CRUZ,4,7220-125,AMIEIRA PRL,-7.5600249562109125,38.28588401632773
pt.ine.add.PTCONT.1386159,R MOURA,,7220-122,AMIEIRA PRL,-7.55702727209283,38.28349745550526
pt.ine.add.PTCONT.1386160,R CAP,19,7220-233,MONTE DO TRIGO,-7.711539861241015,38.39557296174048
pt.ine.add.PTCONT.1386161,R ÉVORA,53,7220-231,MONTE DO TRIGO,-7.713598113525699,38.395349924195735
pt.ine.add.PTCONT.1386162,MTE ESPERADAS,,7220-301,ORIOLA,-7.8470155032828846,38.284133117479996
pt.ine.add.PTCONT.1386163,R ÉVORA,,7220-397,PORTEL,-7.706077126839625,38.3135959162541
pt.ine.add.PTCONT.1386164,R CONSOLAÇÃO,37,7220-383,PORTEL,-7.707596345833531,38.31189878244991
pt.ine.add.PTCONT.1386165,LG MIGUEL BOMBARDA,,7220-369,PORTEL,-7.702913758034551,38.3073894520644
pt.ine.add.PTCONT.1386166,LG CHAFARIZ,12,7220-368,PORTEL,-7.702415801599497,38.30642922750613
pt.ine.add.PTCONT.1386167,TV BORRALHO,6,7220-538,SÃO BARTOLOMEU DO OUTEIRO,-7.906957068784272,38.35467489029658
pt.ine.add.PTCONT.1386168,R VARANDAS,14,7220-530,SÃO BARTOLOMEU DO OUTEIRO,-7.909286275132992,38.35391537731124
pt.ine.add.PTCONT.1386169,R MARIA DOS REMEDIOS,42,7220-574,VERA CRUZ,-7.681615888696939,38.22744311848675
pt.ine.add.PTCONT.1386197,R TRINDADE,3,7220-027,ALQUEVA,-7.539120090883436,38.216385293475504
pt.ine.add.PTCONT.1386198,R TRAVESSINHA,9,7220-023,ALQUEVA,-7.539343195034527,38.216512016321325
pt.ine.add.PTCONT.1386199,MTE LAMEIRA,,7220-248,MONTE DO TRIGO,-7.704915752283468,38.36522963283401
pt.ine.add.PTCONT.1386200,TV CANCELA,9,7220-301,ORIOLA,-7.867602431141272,38.319232682850206
pt.ine.add.PTCONT.1386201,R FORNO,30,7220-301,ORIOLA,-7.863370632291405,38.31918215445958
pt.ine.add.PTCONT.1386202,R S LOURENÇO,7,7220-301,ORIOLA,-7.8658611387281345,38.31872809859004
pt.ine.add.PTCONT.1386203,R IGREJA,5,7220-301,ORIOLA,-7.866389610282688,38.318187014243385
pt.ine.add.PTCONT.1386204,R IGREJA,10,7220-301,ORIOLA,-7.866447147112157,38.31808804845325
pt.ine.add.PTCONT.1386205,R PADRE JOÃO MATEUS,13,7220-425,PORTEL,-7.700378919936506,38.30147458818724
pt.ine.add.PTCONT.1386206,R GRUPO DESPORTIVO DE PORTEL,2,7220-350,PORTEL,-7.697790390544839,38.301619837502194
pt.ine.add.PTCONT.1386207,MTE CASTELOS,,7220-566,VERA CRUZ,-7.659304040026198,38.21626524424582
pt.ine.add.PTCONT.1386240,R CALÇADA,18,7220-489,SANTANA PRL,-7.802156792874345,38.26681367992653
pt.ine.add.PTCONT.1386241,R VARGECA,24,7220-493,SANTANA PRL,-7.802048750214019,38.26490768160035
pt.ine.add.PTCONT.1386242,R MOITA REDONDA,22,7220-529,SÃO BARTOLOMEU DO OUTEIRO,-7.90855541500897,38.3550523199606
pt.ine.add.PTCONT.1386330,R CRUZ,29,7220-385,PORTEL,-7.703042535630373,38.304326854021824
pt.ine.add.PTCONT.1386362,BC CASTELO,,7220-103,AMIEIRA PRL,-7.556778808345191,38.286372295728626
pt.ine.add.PTCONT.1386363,R ANTÓNIO JOSE D ALMEIDA,16,7220-565,VERA CRUZ,-7.680968834173619,38.22681000629178
pt.ine.add.PTCONT.1386395,R SACRAMENTO,21,7220-238,MONTE DO TRIGO,-7.711895846446632,38.39402346234982
pt.ine.add.PTCONT.1386481,BR PRÉ-FABRICADO,,7220-358,PORTEL,-7.708232035995293,38.30683944670223
pt.ine.add.PTCONT.1386724,R CHAFARIZ,3,7220-126,AMIEIRA PRL,-7.5587405912748835,38.28741532248296
pt.ine.add.PTCONT.1386725,R OUTEIRINHO,,7220-130,AMIEIRA PRL,-7.556629906794848,38.28623923917619
pt.ine.add.PTCONT.1386726,R ÉVORA,35,7220-121,AMIEIRA PRL,-7.560007867192022,38.286200667864634
pt.ine.add.PTCONT.1386727,R SANTIAGO,10,7220-400,PORTEL,-7.703101193427186,38.31067121901998
pt.ine.add.PTCONT.1386728,R OUTEIRO DE BEJA,5,7220-410,PORTEL,-7.703032959928899,38.30847053341041
pt.ine.add.PTCONT.1386729,R VIDIGUEIRA,8,7220-390,PORTEL,-7.7052739177545275,38.30784152772611
pt.ine.add.PTCONT.1386730,R MIL FONTES,26,7220-398,PORTEL,-7.704319385910192,38.309184221611126
pt.ine.add.PTCONT.1386731,R IGREJA,16,7220-492,SANTANA PRL,-7.801386286738346,38.26712141317342
pt.ine.add.PTCONT.1386732,BR CRUZ,14,7220-521,SÃO BARTOLOMEU DO OUTEIRO,-7.906147496094619,38.35668054985649
pt.ine.add.PTCONT.1386733,R C BR DAS AMOREIRAS,8,7220-522,SÃO BARTOLOMEU DO OUTEIRO,-7.91068625215645,38.35715827590768
pt.ine.add.PTCONT.1386734,R B BR DAS AMOREIRAS,9,7220-522,SÃO BARTOLOMEU DO OUTEIRO,-7.910489250794209,38.35708874113272
pt.ine.add.PTCONT.1386735,R CRUZ,33,7220-528,SÃO BARTOLOMEU DO OUTEIRO,-7.9090764883509515,38.35556024975814
pt.ine.add.PTCONT.1386764,R CEMITÉRIO,4,7220-234,MONTE DO TRIGO,-7.714134354922525,38.39562500992313
pt.ine.add.PTCONT.1386765,BR NOVO,1,7220-359,PORTEL,-7.708339919369238,38.30872286451376
pt.ine.add.PTCONT.1386766,R OLARIAS,12,7220-394,PORTEL,-7.70308696514639,38.30566068100359
pt.ine.add.PTCONT.1386767,PQ DR FRANCA,,7220-372,PORTEL,-7.702209231149801,38.30486847504588
pt.ine.add.PTCONT.1386768,R CÂNDIDO DOS REIS,IL,7220-380,PORTEL,-7.7017611087602225,38.30362859644507
pt.ine.add.PTCONT.1386769,R VARANDAS,10,7220-530,SÃO BARTOLOMEU DO OUTEIRO,-7.909158323674394,38.35396918541775
pt.ine.add.PTCONT.1386770,R MARIA DOS REMEDIOS,48,7220-574,VERA CRUZ,-7.681708364767145,38.2272632965687
pt.ine.add.PTCONT.1386821,R FLORES,6,7220-029,ALQUEVA,-7.538735078463101,38.21739233549161
pt.ine.add.PTCONT.1386822,R QUINTAIS,3,7220-038,ALQUEVA,-7.536873424278362,38.21743694759495
pt.ine.add.PTCONT.1386823,LG VILA,7,7220-015,ALQUEVA,-7.53950079232151,38.216545977633416
pt.ine.add.PTCONT.1386824,R HORTA,17,7220-301,ORIOLA,-7.863285305685966,38.31869828485273
pt.ine.add.PTCONT.1386825,LG PRAÇA,1,7220-301,ORIOLA,-7.866219282155051,38.318720100768466
pt.ine.add.PTCONT.1386826,TV JOGO DA BOLA,6,7220-437,PORTEL,-7.706383857261482,38.311984465308804
pt.ine.add.PTCONT.1386827,R GEN HUMBERTO DELGADO,9,7220-422,PORTEL,-7.698301213065559,38.303381442781394
pt.ine.add.PTCONT.1386828,R DR JOSE HIPOLITO,10,7220-417,PORTEL,-7.700378115332071,38.30286361324714
pt.ine.add.PTCONT.1386829,R PADRE JOÃO MATEUS,2,7220-425,PORTEL,-7.700481952284066,38.302367609443706
pt.ine.add.PTCONT.1386830,R NOVA,39,7220-506,SANTANA PRL,-7.8024996914988956,38.26853894456142
pt.ine.add.PTCONT.1386831,MTE SENRRADA,,7220-566,VERA CRUZ,-7.677980753198756,38.237149651257106
pt.ine.add.PTCONT.1387050,R ESTADIO MUNICIPAL,7,7220-406,PORTEL,-7.698301213065559,38.303381442781394
pt.ine.add.PTCONT.1387054,TV ESCOLA,16,7220-242,MONTE DO TRIGO,-7.713340112723212,38.39757965695574
pt.ine.add.PTCONT.1387068,R MONTE FRADE,12,7220-502,SANTANA PRL,-7.802041933944498,38.265131820626515
pt.ine.add.PTCONT.1387124,R 25 DE ABRIL,7,7220-430,PORTEL,-7.70383492867187,38.307966266922435
pt.ine.add.PTCONT.1387151,R ESPÍRITO SANTO,75,7220-405,PORTEL,-7.704014533209918,38.31047135942532
pt.ine.add.PTCONT.1387152,R ESPÍRITO SANTO,5,7220-405,PORTEL,-7.705120286880178,38.31103394219392
pt.ine.add.PTCONT.1387159,R PADRE JOÃO MATEUS,3 A,7220-425,PORTEL,-7.700367383215148,38.30201331426317
pt.ine.add.PTCONT.1387483,R ÉVORA,33,7220-121,AMIEIRA PRL,-7.559888813096696,38.28610833663235
pt.ine.add.PTCONT.1387484,TV JOGO BOLA,14,7220-437,PORTEL,-7.707023043910577,38.31203405424334
pt.ine.add.PTCONT.1387485,TV JOGO DA BOLA,16,7220-437,PORTEL,-7.707023043910577,38.31203405424334
pt.ine.add.PTCONT.1387487,R FLORES,15,7220-029,ALQUEVA,-7.538831355530427,38.21754068061765
pt.ine.add.PTCONT.1387488,R VILA,18,7220-028,ALQUEVA,-7.539554032438164,38.21658985417132
pt.ine.add.PTCONT.1387489,R ÉVORA,35,7220-397,PORTEL,-7.70601490218708,38.31207564241628
pt.ine.add.PTCONT.1387490,R VICTORIA,1,7220-225,MONTE DO TRIGO,-7.712391206390499,38.39664798700874
pt.ine.add.PTCONT.1387491,TV RUA DE ÉVORA,7,7220-244,MONTE DO TRIGO,-7.71490270378481,38.39649334344889
pt.ine.add.PTCONT.1387494,R PENEDOS,46,7220-037,ALQUEVA,-7.542161573519233,38.21729252000586
pt.ine.add.PTCONT.1387495,BR BICA,5,7220-201,MONTE DO TRIGO,-7.712237811947048,38.391074955503
pt.ine.add.PTCONT.1387497,LG IGREJA,13,7220-014,ALQUEVA,-7.538516092280843,38.216238094114196
pt.ine.add.PTCONT.1387501,R ÉVORA,,7220-231,MONTE DO TRIGO,-7.713700613689235,38.39544037729521
pt.ine.add.PTCONT.1387503,R 1 DE MAIO,3,7220-205,MONTE DO TRIGO,-7.716217294699153,38.39572862253973
pt.ine.add.PTCONT.1387525,R PARREIRA,6,7220-389,PORTEL,-7.702075211390966,38.30779765620841
pt.ine.add.PTCONT.1387523,R ÉVORA,4,7220-231,MONTE DO TRIGO,-7.715259951815369,38.39698642197948
pt.ine.add.PTCONT.1387582,R ALVITO,12,7220-532,SÃO BARTOLOMEU DO OUTEIRO,-7.91101309152868,38.35414387907183
pt.ine.add.PTCONT.1387591,R COMENDA,11,7220-567,VERA CRUZ,-7.68145758990399,38.22957922782969
pt.ine.add.PTCONT.1387596,R ANTÓNIO TIBERIO,7,7220-378,PORTEL,-7.700418119481981,38.30401144994807
pt.ine.add.PTCONT.1387597,R DR ISIDRO RICO,6,7220-424,PORTEL,-7.698860741523784,38.303646193944104
pt.ine.add.PTCONT.1387602,R GRUPO CORAL DE CANTARES REGIONAIS DE PORTEL,12,7220-407,PORTEL,-7.708819180699975,38.30807448886088
pt.ine.add.PTCONT.1387603,R MONTE GRANDE,19,7220-503,SANTANA PRL,-7.805894023132935,38.265881839582136
pt.ine.add.PTCONT.1387629,BUBLEGANITO,,7220-574,VERA CRUZ,-7.70248333961036,38.244530279103586
pt.ine.add.PTCONT.1387609,R MONTE FRADE,17,7220-502,SANTANA PRL,-7.802260161820429,38.26524303508873
pt.ine.add.PTCONT.1387610,R ANTÓNIO JOSE D ALMEIDA,19,7220-565,VERA CRUZ,-7.680718147312404,38.22671895159721
pt.ine.add.PTCONT.1387613,LG ROSSIO,S,7220-563,VERA CRUZ,-7.6818035532070965,38.22662446003957
pt.ine.add.PTCONT.1387619,TV RUA,,7220-580,VERA CRUZ,-7.679623206027156,38.22648950452308
pt.ine.add.PTCONT.1387620,R FONTE,19,7220-568,VERA CRUZ,-7.6797741842507055,38.226084688098815
pt.ine.add.PTCONT.1387622,R ESTADIO MUNICIPAL,21,7220-406,PORTEL,-7.698968044038239,38.30159717543911
pt.ine.add.PTCONT.1387626,PQ DR FRANCA,8,7220-372,PORTEL,-7.702145916052974,38.305509690010794
pt.ine.add.PTCONT.1387627,R GRUPO DESPORTIVO PORTEL,12,7220-350,PORTEL,-7.69760024809961,38.300916447632844
pt.ine.add.PTCONT.1387628,BR CRUZ,13,7220-521,SÃO BARTOLOMEU DO OUTEIRO,-7.907263923225042,38.356791861564666
pt.ine.add.PTCONT.1387726,EM 538 MONTE DOS APOSTOLOS,,7220-422,PORTEL,-7.688091202219432,38.307997682739995
pt.ine.add.PTCONT.1387824,QTA BOA VISTA,26,7220-000,,-7.689106492026982,38.31024471045319
pt.ine.add.PTCONT.1387839,R CAP,12,7220-233,MONTE DO TRIGO,-7.71164866563169,38.39594650936282
pt.ine.add.PTCONT.1387904,R FONTAÍNHAS,2,7220-022,ALQUEVA,-7.537662519069674,38.216178283832484
pt.ine.add.PTCONT.1387912,R CRUZ,,7220-385,PORTEL,-7.703764638498041,38.30243462710417
pt.ine.add.PTCONT.1388268,R CASTELA,34,7220-030,ALQUEVA,-7.536680265908139,38.217318851358
pt.ine.add.PTCONT.1388269,BC SACO,6,7220-012,ALQUEVA,-7.539857624253649,38.217723047724064
pt.ine.add.PTCONT.1388270,R ÉVORA,23,7220-121,AMIEIRA PRL,-7.559437258990828,38.28574601286805
pt.ine.add.PTCONT.1388271,MALHADA DO MONTE ACIMA,,7220-301,ORIOLA,-7.871468206506297,38.29548726519953
pt.ine.add.PTCONT.1388278,R PEREIRA,14,7220-116,AMIEIRA PRL,-7.560204922914674,38.284874808060195
pt.ine.add.PTCONT.1388280,MTE CALVA 1,,7220-013,ALQUEVA,-7.5731759229370565,38.30059573449529
pt.ine.add.PTCONT.1388282,LG IGREJA,10,7220-014,ALQUEVA,-7.538184227906214,38.21632650117019
pt.ine.add.PTCONT.1388285,R FLORES,13,7220-227,MONTE DO TRIGO,-7.71224690694409,38.39556055083264
pt.ine.add.PTCONT.1388294,MTE VALE DO AR,,7220-022,ALQUEVA,-7.570247352028152,38.23422303490548
pt.ine.add.PTCONT.1388295,R SANTIAGO,7,7220-400,PORTEL,-7.703363535177545,38.31084263154822
pt.ine.add.PTCONT.1388297,TV MALHADINHA,1,7220-243,MONTE DO TRIGO,-7.7121743976960495,38.39441850773697
pt.ine.add.PTCONT.1388298,MTE BARROCO,,7220-231,MONTE DO TRIGO,-7.680306374767762,38.410666807156254
pt.ine.add.PTCONT.1388306,R FLORES,2,7220-119,AMIEIRA PRL,-7.55870208153052,38.28810780472718
pt.ine.add.PTCONT.1388311,R POÇO NOVO,1,7220-236,MONTE DO TRIGO,-7.715782993701849,38.399591778530855
pt.ine.add.PTCONT.1388314,R NOVA,9,7220-301,ORIOLA,-7.865305038062766,38.31840219425198
pt.ine.add.PTCONT.1388318,R OLIVEIRA,1,7220-388,PORTEL,-7.701244164234927,38.30763272919551
pt.ine.add.PTCONT.1388369,R SEBASTIÃO GIL,9,7220-428,PORTEL,-7.702174777278208,38.302563928990686
pt.ine.add.PTCONT.1388370,R 25 DE ABRIL,4,7220-481,SANTANA PRL,-7.799766380504557,38.26799840588047
pt.ine.add.PTCONT.1388371,R ORIOLA,11,7220-496,SANTANA PRL,-7.8039765226889894,38.26709640857148
pt.ine.add.PTCONT.1388375,R BARROUCO,12,7220-497,SANTANA PRL,-7.800869212950433,38.267750569650204
pt.ine.add.PTCONT.1388376,MTE CORGO,,7220-301,ORIOLA,-7.911753042611485,38.35159580579996
pt.ine.add.PTCONT.1388386,R OUTEIRO,20,7220-409,PORTEL,-7.7042442438187155,38.30820987910993
pt.ine.add.PTCONT.1388389,R DR ISIDRO RICO,9,7220-424,PORTEL,-7.698773906302053,38.30347928953982
pt.ine.add.PTCONT.1388392,R GAGO COUTINHO,5,7220-354,PORTEL,-7.707734762190303,38.30815184839288
pt.ine.add.PTCONT.1388393,R DR ISIDRO RICO,11,7220-424,PORTEL,-7.698843359180946,38.303335406389486
pt.ine.add.PTCONT.1388397,R LIBERDADE,11,7220-386,PORTEL,-7.703776883330721,38.30766294746954
pt.ine.add.PTCONT.1388398,R VIDIGUEIRA,5,7220-571,VERA CRUZ,-7.682325838942647,38.22713954521503
pt.ine.add.PTCONT.1388403,R FONTE,4,7220-568,VERA CRUZ,-7.680366689584892,38.22630318804423
pt.ine.add.PTCONT.1388407,R DR ISIDRO RICO,25,7220-424,PORTEL,-7.69918591772732,38.302340135747684
pt.ine.add.PTCONT.1388487,R MELINDRES CAS A,,7220-415,PORTEL,-7.701391205557206,38.30553394115421
pt.ine.add.PTCONT.1388557,R DR ISIDRO RICO,9A,7220-424,PORTEL,-7.698773906302053,38.30347928953982
pt.ine.add.PTCONT.1388573,R DAS OLIVEIRAS,2,7220-120,AMIEIRA PRL,-7.558560395787064,38.288237144968456
pt.ine.add.PTCONT.1388638,R ÉVORA,59 59A,7220-231,MONTE DO TRIGO,-7.713339281982355,38.3950661490895
pt.ine.add.PTCONT.1388639,R ÉVORA,59 59A,7220-231,MONTE DO TRIGO,-7.713339281982355,38.3950661490895
pt.ine.add.PTCONT.1388991,LG ANTÓNIO SÉRGIO,1,7220-362,PORTEL,-7.7020051525287005,38.30611276002957
pt.ine.add.PTCONT.1388997,R MOURA,16,7220-122,AMIEIRA PRL,-7.5570803020054385,38.28516061777471
pt.ine.add.PTCONT.1388998,R OLIVEIRAS,6,7220-228,MONTE DO TRIGO,-7.712183261440878,38.3965202854659
pt.ine.add.PTCONT.1389000,LG FIGUEIRA,3,7220-013,ALQUEVA,-7.538876276441681,38.21687954610286
pt.ine.add.PTCONT.1389003,R CASTELA,3,7220-030,ALQUEVA,-7.537613238513595,38.216332614856036
pt.ine.add.PTCONT.1389004,MTE ESPINHEIRA,,7220-013,ALQUEVA,-7.588361772634751,38.31227047891605
pt.ine.add.PTCONT.1389011,R PENEDOS,26,7220-037,ALQUEVA,-7.541638942831021,38.21653366984898
pt.ine.add.PTCONT.1389015,R ÉVORA,41,7220-231,MONTE DO TRIGO,-7.713914510122701,38.395716266003014
pt.ine.add.PTCONT.1389026,MTE GLORENCIO,,7220-221,MONTE DO TRIGO,-7.7042981608570065,38.39619911742294
pt.ine.add.PTCONT.1389027,R S LOURENÇO,5,7220-301,ORIOLA,-7.86590674589365,38.31876423762285
pt.ine.add.PTCONT.1389035,BR LARANJEIRAS,9,7220-209,MONTE DO TRIGO,-7.717522896145084,38.399615977541664
pt.ine.add.PTCONT.1389039,R IGREJA,2,7220-301,ORIOLA,-7.86667179024689,38.31829933023919
pt.ine.add.PTCONT.1389044,R PRIOR,1,7220-301,ORIOLA,-7.866299551775023,38.31779943174798
pt.ine.add.PTCONT.1389085,R CÂNDIDO DOS REIS,6,7220-380,PORTEL,-7.7023279010034065,38.3037356313871
pt.ine.add.PTCONT.1389089,R VARANDAS,11,7220-530,SÃO BARTOLOMEU DO OUTEIRO,-7.9091520281333345,38.35375296376203
pt.ine.add.PTCONT.1389094,R MIL FONTES,12,7220-398,PORTEL,-7.703882483368138,38.30959702667282
pt.ine.add.PTCONT.1389099,R BARROUCO,11,7220-497,SANTANA PRL,-7.801441699617633,38.26749994144414
pt.ine.add.PTCONT.1389102,R LUIS DE CAMÕES,13,7220-357,PORTEL,-7.708552755751201,38.30866810322701
pt.ine.add.PTCONT.1389103,R CEMITÉRIO,8,7220-499,SANTANA PRL,-7.804043750067221,38.26617199001325
pt.ine.add.PTCONT.1389104,LG PRAÇA,1,7220-486,SANTANA PRL,-7.802713826792794,38.26644802191813
pt.ine.add.PTCONT.1389109,R CEMITÉRIO,11,7220-499,SANTANA PRL,-7.803844755529746,38.266091207087804
pt.ine.add.PTCONT.1389117,,,7220-358,PORTEL,-7.715663064171062,38.30489192277509
pt.ine.add.PTCONT.1389119,R C BR DAS AMOREIRAS,3,7220-522,SÃO BARTOLOMEU DO OUTEIRO,-7.9109944418387474,38.357393087075636
pt.ine.add.PTCONT.1389124,R NOVA,15,7220-578,VERA CRUZ,-7.68119690545986,38.2257514780471
pt.ine.add.PTCONT.1389128,R CRUZ,32,7220-528,SÃO BARTOLOMEU DO OUTEIRO,-7.908330286324239,38.35599456593528
pt.ine.add.PTCONT.1389129,HORTA DA CAROCHA,,7220-566,VERA CRUZ,-7.68545939373327,38.23016050279588
pt.ine.add.PTCONT.1389132,HORTA CACHAROPAL,,7220-564,VERA CRUZ,-7.679421541809415,38.22034466594775
pt.ine.add.PTCONT.1389135,BR PARDAIS,,7220-564,VERA CRUZ,-7.679980788344684,38.224076505104975
pt.ine.add.PTCONT.1389271,R OUTEIRO DE BEJA,10,7220-410,PORTEL,-7.703042436378256,38.30857595984909
pt.ine.add.PTCONT.1389283,R ALTO,4,7220-032,ALQUEVA,-7.538988445577245,38.21732466800054
pt.ine.add.PTCONT.1389301,R MOINHO,6,7220-208,MONTE DO TRIGO,-7.71381233272341,38.39843250288271
pt.ine.add.PTCONT.1389713,R 1 DE MAIO,,7220-426,PORTEL,-7.6981387842266065,38.30453997069762
pt.ine.add.PTCONT.1389716,MTE ACIMA,,7220-301,ORIOLA,-7.871886448035323,38.293614362659554
pt.ine.add.PTCONT.1389725,MTE GREGOS,,7220-013,ALQUEVA,-7.589462610903076,38.30724871842765
pt.ine.add.PTCONT.1389726,R MOINHOS,6,7220-416,PORTEL,-7.703824642467729,38.31165081185452
pt.ine.add.PTCONT.1389736,R POÇO,70,7220-235,MONTE DO TRIGO,-7.711915257854229,38.39311108097269
pt.ine.add.PTCONT.1389740,R JOSÉ POMBINHO,36,7220-356,PORTEL,-7.709586081934789,38.30792411131161
pt.ine.add.PTCONT.1389745,R LIBERDADE,7,7220-301,ORIOLA,-7.862498339654883,38.319106005637884
pt.ine.add.PTCONT.1389747,MTE FONTE DA ARAN,,7220-022,ALQUEVA,-7.573195646259315,38.24593959919872
pt.ine.add.PTCONT.1389752,R ESCOLA,4,7220-222,MONTE DO TRIGO,-7.714605967265374,38.397245339094084
pt.ine.add.PTCONT.1389757,R NORA,4,7220-114,AMIEIRA PRL,-7.557865624623355,38.28647703482708
pt.ine.add.PTCONT.1389760,R VALE FLORES,46,7220-402,PORTEL,-7.700871369061383,38.307201557068524
pt.ine.add.PTCONT.1389761,R OLIVEIRA,28,7220-388,PORTEL,-7.70112270407539,38.307668766544545
pt.ine.add.PTCONT.1389810,R MOINHO,20,7220-501,SANTANA PRL,-7.801150782392757,38.268652251243466
pt.ine.add.PTCONT.1389812,R GASPAR GOIS,11,7220-421,PORTEL,-7.70198662789802,38.302535350114084
pt.ine.add.PTCONT.1389814,LG CAPITOA,6,7220-483,SANTANA PRL,-7.802183907208351,38.267619151976255
pt.ine.add.PTCONT.1389818,R COMENDA,5,7220-567,VERA CRUZ,-7.681570593034762,38.229285522792516
pt.ine.add.PTCONT.1389822,R COMENDA,8,7220-567,VERA CRUZ,-7.681432940338055,38.229325270061764
pt.ine.add.PTCONT.1389826,TV MISSA,3,7220-508,SANTANA PRL,-7.8019004686538995,38.266872968259506
pt.ine.add.PTCONT.1389827,R MARIA DOS REMEDIOS,28,7220-574,VERA CRUZ,-7.681551133597999,38.22807032066917
pt.ine.add.PTCONT.1389829,BR DIAS DE CARVALHO,4,7220-355,PORTEL,-7.707413343907517,38.3079973253123
pt.ine.add.PTCONT.1389830,R VARGECA,15,7220-493,SANTANA PRL,-7.803142518332366,38.2653696390113
pt.ine.add.PTCONT.1389832,HORTA NOVA,,7220-499,SANTANA PRL,-7.766048966001886,38.26822337928865
pt.ine.add.PTCONT.1389835,R D JOÃO PERES ABOIM,5,7220-412,PORTEL,-7.69884872988084,38.30243454941414
pt.ine.add.PTCONT.1389836,R DR ISIDRO RICO,42,7220-424,PORTEL,-7.699497614319322,38.301881737440766
pt.ine.add.PTCONT.1389839,ESTR FORTE,,7220-413,PORTEL,-7.708102083777067,38.30556745617541
pt.ine.add.PTCONT.1389844,R CRUZ,64,7220-385,PORTEL,-7.70432047467102,38.30207261300624
pt.ine.add.PTCONT.1389845,R GRUPO DESPORTIVO DE PORTEL,5,7220-350,PORTEL,-7.697574852941751,38.301339765583144
pt.ine.add.PTCONT.1389848,R POÇO,3,7220-534,SÃO BARTOLOMEU DO OUTEIRO,-7.909123481421548,38.355297265633425
pt.ine.add.PTCONT.1389851,PQ DR FRANCA,28,7220-372,PORTEL,-7.702271681946888,38.30450113323442
pt.ine.add.PTCONT.1390005,R CRUZ,59,7220-385,PORTEL,-7.703133639585674,38.302810684298514
pt.ine.add.PTCONT.1390492,LG 25 DE ABRIL,1,7220-107,AMIEIRA PRL,-7.557083384622719,38.28619320488491
pt.ine.add.PTCONT.1390493,R ANTÓNIO ALMEIDA RICO,,7220-230,MONTE DO TRIGO,-7.710609014722242,38.397564319701715
pt.ine.add.PTCONT.1390497,R PENEDOS,23,7220-037,ALQUEVA,-7.541757065626145,38.21656489864769
pt.ine.add.PTCONT.1390498,R OUTEIRINHO,3,7220-130,AMIEIRA PRL,-7.5566805175336595,38.286159487467344
pt.ine.add.PTCONT.1390499,R PADRE MANUEL LIMA,,7220-230,MONTE DO TRIGO,-7.711502880789277,38.39739637426529
pt.ine.add.PTCONT.1390503,R VILA,12,7220-028,ALQUEVA,-7.5393502837337625,38.216703273968974
pt.ine.add.PTCONT.1390521,R NOVA,15,7220-240,MONTE DO TRIGO,-7.712846200738107,38.39532586501266
pt.ine.add.PTCONT.1390522,R NOVA,19,7220-240,MONTE DO TRIGO,-7.7128274849697736,38.395242813105035
pt.ine.add.PTCONT.1390524,R NOVA,22,7220-240,MONTE DO TRIGO,-7.712717364144834,38.395073004608946
pt.ine.add.PTCONT.1390528,R POÇO,3,7220-034,ALQUEVA,-7.539759736956855,38.21636150181536
pt.ine.add.PTCONT.1390531,R CARCHANA,5,7220-221,MONTE DO TRIGO,-7.71110820164773,38.39500304681003
pt.ine.add.PTCONT.1390538,MTE CARNEIRA,,7220-231,MONTE DO TRIGO,-7.710532914547109,38.41063554823099
pt.ine.add.PTCONT.1390541,MTE CORTE,,7220-248,MONTE DO TRIGO,-7.713464551048472,38.38082751515051
pt.ine.add.PTCONT.1390542,FAZENDA GALANTE,,7220-248,MONTE DO TRIGO,-7.711304939516834,38.39008966094371
pt.ine.add.PTCONT.1390543,MTE FORMIGA,,7220-234,MONTE DO TRIGO,-7.752760154488645,38.36656573043756
pt.ine.add.PTCONT.1390544,R OUTEIRO DE BEJA,2,7220-410,PORTEL,-7.702716467354214,38.30867243006095
pt.ine.add.PTCONT.1390546,R CHAFARIZ,11,7220-126,AMIEIRA PRL,-7.559257996075277,38.28728448352808
pt.ine.add.PTCONT.1390547,R S ROMÃO,5,7220-124,AMIEIRA PRL,-7.558406719413835,38.28766957819583
pt.ine.add.PTCONT.1390548,LG PRAÇA,19,7220-301,ORIOLA,-7.866606145437725,38.31838569965209
pt.ine.add.PTCONT.1390556,R VALE,,7220-411,PORTEL,-7.7005373681418,38.30696886642844
pt.ine.add.PTCONT.1390598,R CALÇADA,1,7220-489,SANTANA PRL,-7.8000411217002865,38.26848456378266
pt.ine.add.PTCONT.1390599,R FRIA,32,7220-537,SÃO BARTOLOMEU DO OUTEIRO,-7.908541016851656,38.35418559547789
pt.ine.add.PTCONT.1390603,R CÂNDIDO DOS REIS,,7220-380,PORTEL,-7.701963627826297,38.3036566492355
pt.ine.add.PTCONT.1390604,R ESPERANÇA,17,7220-490,SANTANA PRL,-7.800631979823276,38.26893587453627
pt.ine.add.PTCONT.1390605,R FRIA,7,7220-537,SÃO BARTOLOMEU DO OUTEIRO,-7.908438765084456,38.35421104477026
pt.ine.add.PTCONT.1390611,ESTR DEPOSITOS,,7220-422,PORTEL,-7.702553601259566,38.31197046847075
pt.ine.add.PTCONT.1390612,R SEBASTIÃO GIL,5,7220-428,PORTEL,-7.702135821266435,38.303110796563104
pt.ine.add.PTCONT.1390616,R ANTÓNIO JOSE DE ALMEIDA,6,7220-377,PORTEL,-7.7014562201317505,38.30486230936341
pt.ine.add.PTCONT.1390617,R S JOÃO DE DEUS,9,7220-427,PORTEL,-7.700104440637197,38.30454135479863
pt.ine.add.PTCONT.1390618,R FRANCISCO BARAHONA,6,7220-481,SANTANA PRL,-7.798868244905535,38.26802416132637
pt.ine.add.PTCONT.1390628,R DR ISIDRO RICO,23 A,7220-424,PORTEL,-7.699099377145829,38.30257961732684
pt.ine.add.PTCONT.1390629,VALE ZEBRO MANUEL ALEXANDRE,,7220-499,SANTANA PRL,-7.809932786317731,38.25182118797185
pt.ine.add.PTCONT.1390642,R OLARIAS,19,7220-394,PORTEL,-7.703228236269012,38.30615328367919
pt.ine.add.PTCONT.1390643,R ESTADIO MUNICIPAL,20,7220-406,PORTEL,-7.698851468845474,38.301975112303026
pt.ine.add.PTCONT.1390644,R FONTE,18,7220-568,VERA CRUZ,-7.6797977512709,38.225967663664925
pt.ine.add.PTCONT.1390648,R S SEBASTIÃO,A3,7220-573,VERA CRUZ,-7.682163378124383,38.22570650914318
pt.ine.add.PTCONT.1390767,BR CRUZ,73,7220-521,SÃO BARTOLOMEU DO OUTEIRO,-7.9043416989817485,38.35578869697963
pt.ine.add.PTCONT.1390797,R JOSE POMBINHO,18,7220-356,PORTEL,-7.709317462025869,38.3088960875467
pt.ine.add.PTCONT.1390798,R DR ISIDRO RICO,14,7220-424,PORTEL,-7.699003446298691,38.30326879351052
pt.ine.add.PTCONT.1390825,R B BR VEREADOR FRC FIALHO JUNIOR,3,7220-208,MONTE DO TRIGO,-7.712860699386764,38.398157974885656
pt.ine.add.PTCONT.1390926,R ARCOS,13,7220-413,PORTEL,-7.703851441526006,38.305164601645416
pt.ine.add.PTCONT.1390927,R CRUZ,,7220-385,PORTEL,-7.703217182110864,38.304305889356414
pt.ine.add.PTCONT.1390928,R CÂNDIDO DOS REIS,4,7220-380,PORTEL,-7.702584193080094,38.30378833937019
pt.ine.add.PTCONT.1390929,R SEBASTIÃO GIL,14,7220-428,PORTEL,-7.70204512016992,38.30269689952409
pt.ine.add.PTCONT.1390930,R 1 DE MAIO,13,7220-426,PORTEL,-7.700343101279455,38.30490847429229
