id,street,house,postcode,city,lon,lat
pt.ine.add.PTCONT.1367678,R LADEIRA,31,7200-082,CORVAL,-7.471650778279828,38.484386527298675
pt.ine.add.PTCONT.1367679,R AULA,7,7200-118,CORVAL,-7.482045586993535,38.45020163607503
pt.ine.add.PTCONT.1367680,R ESCOLA,16,7200-121,CORVAL,-7.484935610133256,38.44895193817426
pt.ine.add.PTCONT.1367681,R JARDIM,14,7200-135,CORVAL,-7.48440454731388,38.447925289749925
pt.ine.add.PTCONT.1367682,R FLORES,14,7200-128,CORVAL,-7.485110321285486,38.44738508700054
pt.ine.add.PTCONT.1367683,R PRIMAVERA,24,7200-126,CORVAL,-7.486447948694922,38.447719361430394
pt.ine.add.PTCONT.1367764,MTE BRANCO,,7200-177,MONSARAZ,-7.410877664845574,38.454700855712105
pt.ine.add.PTCONT.1367765,R VARANDAS,,7200-173,MONSARAZ,-7.378286926996366,38.4522973605776
pt.ine.add.PTCONT.1367766,R SANTIAGO,,7200-175,MONSARAZ,-7.380508527008935,38.44421978787606
pt.ine.add.PTCONT.1367767,R DIREITA,,7200-175,MONSARAZ,-7.380321695697721,38.44389658120973
pt.ine.add.PTCONT.1367768,R 25 DE ABRIL,10,7200-364,REGUENGOS DE MONSARAZ,-7.540694058602257,38.43028996997583
pt.ine.add.PTCONT.1367769,R DR JACINTO FERNANDES PALMA,2,7200-353,REGUENGOS DE MONSARAZ,-7.540324969815539,38.42915297104054
pt.ine.add.PTCONT.1367770,MTE PANDEIRA B,,7200-202,REGUENGOS DE MONSARAZ,-7.553070159255943,38.4464105546429
pt.ine.add.PTCONT.1367771,URB JOSÉ SARAMAGO,,7200-479,REGUENGOS DE MONSARAZ,-7.541882386263273,38.42769800666496
pt.ine.add.PTCONT.1367772,R MANUEL AUGUSTO PAPANCA,,7200-480,REGUENGOS DE MONSARAZ,-7.543744042641919,38.42935804445498
pt.ine.add.PTCONT.1367773,R ULTRAMAR,33,7200-355,REGUENGOS DE MONSARAZ,-7.539733431488308,38.42860601461558
pt.ine.add.PTCONT.1367774,R TIMOR,24,7200-353,REGUENGOS DE MONSARAZ,-7.540514427374122,38.42833070237277
pt.ine.add.PTCONT.1367775,R ZECA AFONSO,,7200-413,REGUENGOS DE MONSARAZ,-7.530500025248783,38.426874757137654
pt.ine.add.PTCONT.1367776,R CARLOS PAREDES,,7200-482,REGUENGOS DE MONSARAZ,-7.527083788633748,38.42664048144441
pt.ine.add.PTCONT.1367777,TV CAP FIALHO,2,7200-321,REGUENGOS DE MONSARAZ,-7.532214746822621,38.42539126845779
pt.ine.add.PTCONT.1367778,PAINEL ZONA MENDES MONTE VA VA,,7200-256,REGUENGOS DE MONSARAZ,-7.524795622932356,38.42091722041341
pt.ine.add.PTCONT.1367779,R LISBOA,94,7200-290,REGUENGOS DE MONSARAZ,-7.537898345576361,38.428973063539374
pt.ine.add.PTCONT.1367780,R MARIA VALEJO,18,7200-323,REGUENGOS DE MONSARAZ,-7.534449157253619,38.42919171763765
pt.ine.add.PTCONT.1367781,R DR FRANCISCO MARTINS BELO,1,7200-403,REGUENGOS DE MONSARAZ,-7.539618341523747,38.4243808602558
pt.ine.add.PTCONT.1367782,R AREAS DE BAIXO,15,7200-285,REGUENGOS DE MONSARAZ,-7.5317379191520955,38.42331328560256
pt.ine.add.PTCONT.1367783,R AREAS DE BAIXO,15,7200-285,REGUENGOS DE MONSARAZ,-7.5317379191520955,38.42331328560256
pt.ine.add.PTCONT.1367784,R MOURAO,60,7200-293,REGUENGOS DE MONSARAZ,-7.533551598542359,38.423539937343335
pt.ine.add.PTCONT.1367785,R COVALINHO,7 LA,7200-378,REGUENGOS DE MONSARAZ,-7.532484686814263,38.42209736568195
pt.ine.add.PTCONT.1367793,R JOSE MESTRE BATISTA,4,7200-368,REGUENGOS DE MONSARAZ,-7.535018403975462,38.41987980553663
pt.ine.add.PTCONT.1367794,R S ROMÃO,41,7200-466,REGUENGOS DE MONSARAZ,-7.573495149673434,38.413664770998494
pt.ine.add.PTCONT.1367795,R S ROMÃO,37,7200-466,REGUENGOS DE MONSARAZ,-7.573368928489369,38.413700202477635
pt.ine.add.PTCONT.1367796,R HORTAS,2,7200-462,REGUENGOS DE MONSARAZ,-7.569716598789962,38.412205298483535
pt.ine.add.PTCONT.1367797,R HORTAS,5,7200-462,REGUENGOS DE MONSARAZ,-7.569579768812453,38.412132572170194
pt.ine.add.PTCONT.1367798,R JUNQUEIRA,76,7200-516,CAMPINHO,-7.468541501671349,38.3672957943603
pt.ine.add.PTCONT.1367799,R JUNQUEIRA,58,7200-516,CAMPINHO,-7.4690837970385395,38.36659511145346
pt.ine.add.PTCONT.1367800,R TORRE,34,7200-520,CAMPINHO,-7.46806979306317,38.36496368085946
pt.ine.add.PTCONT.1367801,R PEDREIRAS,,7200-531,CAMPINHO,-7.475205692610954,38.367426797136915
pt.ine.add.PTCONT.1367802,R GUADIANA,1A,7200-527,CAMPINHO,-7.472111194989539,38.36500485584239
pt.ine.add.PTCONT.1367803,R GUADIANA,50,7200-527,CAMPINHO,-7.471428682677802,38.36376606995601
pt.ine.add.PTCONT.1367804,R RIBEIRA,27,7200-517,CAMPINHO,-7.469770576111677,38.36412824931579
pt.ine.add.PTCONT.1368120,EN 256 XEREZ DE CIMA,,7200-175,MONSARAZ,-7.3983870862077445,38.41434638273922
pt.ine.add.PTCONT.1368196,R COMPRIDA,94,7200-072,CAMPO RMZ,-7.512949319016298,38.34044043452967
pt.ine.add.PTCONT.1368197,R POÇO,1,7200-072,CAMPO RMZ,-7.512719782664921,38.34121153270189
pt.ine.add.PTCONT.1368198,R NOVA,6,7200-072,CAMPO RMZ,-7.5113374706418865,38.3403790888868
pt.ine.add.PTCONT.1368199,R COMPRIDA,80,7200-072,CAMPO RMZ,-7.51271234943367,38.339901587288026
pt.ine.add.PTCONT.1368200,,,7200-072,CAMPO RMZ,-7.489538555156852,38.309760956374916
pt.ine.add.PTCONT.1368252,,,7200-072,CAMPO RMZ,-7.489538555156852,38.309760956374916
pt.ine.add.PTCONT.1368256,R GUADIANA,1,7200-527,CAMPINHO,-7.472111194989539,38.36500485584239
pt.ine.add.PTCONT.1368261,R FLORES,16,7200-171,MONSARAZ,-7.39930269964571,38.463251361517806
pt.ine.add.PTCONT.1368271,,,7200-072,CAMPO RMZ,-7.489538555156852,38.309760956374916
pt.ine.add.PTCONT.1368284,R GUADIANA,29,7200-527,CAMPINHO,-7.471519928559542,38.3641372210207
pt.ine.add.PTCONT.1368301,R OUTEIRO,,7200-181,MONSARAZ,-7.381929850159874,38.454748949415105
pt.ine.add.PTCONT.1368314,R SANTO ANTÓNIO,9,7200-072,CAMPO RMZ,-7.509994252775774,38.3400740505156
pt.ine.add.PTCONT.1368821,R COMPRIDA,125,7200-072,CAMPO RMZ,-7.513157175671073,38.34067021630709
pt.ine.add.PTCONT.1368822,R CHELES,26,7200-082,CORVAL,-7.468412861829415,38.49066974281011
pt.ine.add.PTCONT.1368828,R ESCOLA,2,7200-081,CORVAL,-7.4970987971508185,38.459740908779956
pt.ine.add.PTCONT.1368834,R TEÓFILO CONDE FIALHO,25,7200-101,CORVAL,-7.4844116436981905,38.4454373836638
pt.ine.add.PTCONT.1368839,R GRAVE,3,7200-123,CORVAL,-7.483106920858466,38.44547935716203
pt.ine.add.PTCONT.1368844,URB CASAS DE S PEDRO,,7200-131,CORVAL,-7.483550067090318,38.44516336956193
pt.ine.add.PTCONT.1368847,R NSA SRA DA CONCEIÇÃO,44,7200-071,CAMPO RMZ,-7.5136873998265985,38.367496367372105
pt.ine.add.PTCONT.1368854,R NOVA,62,7200-072,CAMPO RMZ,-7.5111650401752605,38.34252503759596
pt.ine.add.PTCONT.1368855,R NOVA,28,7200-072,CAMPO RMZ,-7.510878824872135,38.34121726566233
pt.ine.add.PTCONT.1368856,R PRIMAVERA,2,7200-126,CORVAL,-7.484878050979079,38.44710249274479
pt.ine.add.PTCONT.1368857,R ALEGRIA,46,7200-179,MONSARAZ,-7.383442480514144,38.47082514629868
pt.ine.add.PTCONT.1368862,R NOVA,55,7200-072,CAMPO RMZ,-7.511448373592591,38.342832833876294
pt.ine.add.PTCONT.1368863,R LADEIRA,53,7200-082,CORVAL,-7.471389958763968,38.483492072648666
pt.ine.add.PTCONT.1368865,URB FERRAGIAL DOS FERNANDES,4,7200-072,CAMPO RMZ,-7.508263444264382,38.341375071982604
pt.ine.add.PTCONT.1368866,HORTA SANTA RITA,,7200-143,CORVAL,-7.478664750740343,38.4495589163047
pt.ine.add.PTCONT.1368946,R RIBEIRA,11,7200-517,CAMPINHO,-7.469853333379543,38.36462199389862
pt.ine.add.PTCONT.1368948,R LISBOA,18,7200-288,REGUENGOS DE MONSARAZ,-7.535534305690478,38.42712157988242
pt.ine.add.PTCONT.1368950,URB QUINTA,25,7200-352,REGUENGOS DE MONSARAZ,-7.5364996530962785,38.43184962872508
pt.ine.add.PTCONT.1368951,R ÉVORA,21,7200-346,REGUENGOS DE MONSARAZ,-7.5371390627187616,38.425620586943374
pt.ine.add.PTCONT.1368953,R EGAS MONIZ,12,7200-308,REGUENGOS DE MONSARAZ,-7.533626825139074,38.42615164127188
pt.ine.add.PTCONT.1368954,R MARIA VALEJO,27,7200-323,REGUENGOS DE MONSARAZ,-7.53502763475848,38.42882532207279
pt.ine.add.PTCONT.1368955,ESTR RURAL MONTE DAS OLIVEIRAS,AP 107,7200-000,,-7.529099941139334,38.41281378241965
pt.ine.add.PTCONT.1368956,R MOURAO,87,7200-294,REGUENGOS DE MONSARAZ,-7.533927985295023,38.42323673355359
pt.ine.add.PTCONT.1368957,R DR ANTÓNIO CORREIA,U9,7200-409,REGUENGOS DE MONSARAZ,-7.528153074988284,38.427501815950514
pt.ine.add.PTCONT.1368958,R MACAU,74,7200-350,REGUENGOS DE MONSARAZ,-7.535745803800007,38.42936015741919
pt.ine.add.PTCONT.1368960,R ANTÓNIO FRANCISCO RIBEIRO,17,7200-336,REGUENGOS DE MONSARAZ,-7.539490312356524,38.43032541120677
pt.ine.add.PTCONT.1368961,R LIBERDADE,9,7200-177,MONSARAZ,-7.4173371433284325,38.46358591571849
pt.ine.add.PTCONT.1368962,R PALMEIRA,15,7200-177,MONSARAZ,-7.41836425128482,38.46341287587553
pt.ine.add.PTCONT.1368963,AV DR JOAQUIM ROJAO,46,7200-396,REGUENGOS DE MONSARAZ,-7.5415005562614805,38.423966548501106
pt.ine.add.PTCONT.1368966,R DR MANUEL TALHANTE,23,7200-481,REGUENGOS DE MONSARAZ,-7.535150185275234,38.41820460900342
pt.ine.add.PTCONT.1368967,R GUADIANA,47,7200-527,CAMPINHO,-7.47113158965206,38.36353679434559
pt.ine.add.PTCONT.1368970,R DR JACINTO FERNANDES PALMA,3,7200-353,REGUENGOS DE MONSARAZ,-7.540452192847596,38.4291006858543
pt.ine.add.PTCONT.1368972,R LARANJEIRAS,1O,7200-171,MONSARAZ,-7.399003269648843,38.46315400179152
pt.ine.add.PTCONT.1368973,R MOÇAMBIQUE,22,7200-351,REGUENGOS DE MONSARAZ,-7.538672320753549,38.42856196140063
pt.ine.add.PTCONT.1368974,R ANGOLA,12,7200-345,REGUENGOS DE MONSARAZ,-7.5383761787055406,38.42836551254362
pt.ine.add.PTCONT.1368975,R ZE PREGO,17,7200-227,REGUENGOS DE MONSARAZ,-7.56646156171243,38.446340955425555
pt.ine.add.PTCONT.1368976,BR S PEDRO,10,7200-253,REGUENGOS DE MONSARAZ,-7.527890353238141,38.42398041185113
pt.ine.add.PTCONT.1368979,R PADRE EDUARDO MANSO INACIO,35,7200-480,REGUENGOS DE MONSARAZ,-7.541627575624378,38.42945338322545
pt.ine.add.PTCONT.1368988,R TEÓFILO CARVALHO DOS SANTOS,75,7200-393,REGUENGOS DE MONSARAZ,-7.5332694907765925,38.419510525560305
pt.ine.add.PTCONT.1368990,R MANUEL AUGUSTO PAPANCA,,7200-480,REGUENGOS DE MONSARAZ,-7.543440186909226,38.42910479514973
pt.ine.add.PTCONT.1368991,R TIMOR,16,7200-353,REGUENGOS DE MONSARAZ,-7.5402494246408445,38.428149864414316
pt.ine.add.PTCONT.1368992,R ÉVORA,42,7200-346,REGUENGOS DE MONSARAZ,-7.538504767989511,38.42561438366816
pt.ine.add.PTCONT.1369013,R ALEXANDRE LOPEZ BRAZ,,7200-480,REGUENGOS DE MONSARAZ,-7.542830675739861,38.429378372912716
pt.ine.add.PTCONT.1369020,BR S JOSE,,7200-251,REGUENGOS DE MONSARAZ,-7.52807488918928,38.42451959086903
pt.ine.add.PTCONT.1369028,TV LAGAR,4,7200-230,REGUENGOS DE MONSARAZ,-7.563944178645956,38.4468020851255
pt.ine.add.PTCONT.1369036,URB ROTUNDA DO SOL À JUNQUEIRA,22,7200-209,REGUENGOS DE MONSARAZ,-7.520957588700672,38.425221327686295
pt.ine.add.PTCONT.1369053,R LADEIRA,51,7200-082,CORVAL,-7.471436376974865,38.48356869198786
pt.ine.add.PTCONT.1369054,R POÇO NOVO,1,7200-179,MONSARAZ,-7.383601844127459,38.467852973593324
pt.ine.add.PTCONT.1369056,R DR ALBERTO JANES,,7200-408,REGUENGOS DE MONSARAZ,-7.529613159381571,38.42666766452567
pt.ine.add.PTCONT.1369660,R NOVA,43,7200-476,REGUENGOS DE MONSARAZ,-7.571060464903154,38.413671137505894
pt.ine.add.PTCONT.1369552,R S PEDRO,1,7200-132,CORVAL,-7.48133166123947,38.45009899155158
pt.ine.add.PTCONT.1369553,R ORADA,23,7200-179,MONSARAZ,-7.3813459822120535,38.46813954961205
pt.ine.add.PTCONT.1369554,PC DR MANUEL FIALHO RECTO,,7200-114,CORVAL,-7.481884212325086,38.44950478722334
pt.ine.add.PTCONT.1369559,R COMPRIDA,143,7200-072,CAMPO RMZ,-7.513430691724852,38.341086639926026
pt.ine.add.PTCONT.1369563,MTE DUQUE,,7200-083,CORVAL,-7.43631986666174,38.45253075452473
pt.ine.add.PTCONT.1369564,R ANTÓNIO JACINTO ROSA,64,7200-115,CORVAL,-7.482846532050404,38.44683845697545
pt.ine.add.PTCONT.1369568,R DEFESA,19,7200-072,CAMPO RMZ,-7.510445318277831,38.33974655512147
pt.ine.add.PTCONT.1369569,R ANTÓNIO JACINTO ROSA,83,7200-115,CORVAL,-7.482761704956571,38.44618553476445
pt.ine.add.PTCONT.1369570,R DR MANUEL FERNANDES RATINHO,35,7200-140,CORVAL,-7.483563547196735,38.451700572784375
pt.ine.add.PTCONT.1369577,R MOAGEM,9,7200-082,CORVAL,-7.469727075351043,38.48726307850783
pt.ine.add.PTCONT.1369580,R NOVA,116,7200-072,CAMPO RMZ,-7.511935955294117,38.3446731808409
pt.ine.add.PTCONT.1369581,R ALEGRIA,11,7200-082,CORVAL,-7.471647918673557,38.486324077151636
pt.ine.add.PTCONT.1369585,,,7200-084,CORVAL,-7.502534991561329,38.43804184288886
pt.ine.add.PTCONT.1369586,R POÇO NOVO,8,7200-179,MONSARAZ,-7.384098151040253,38.467504820378466
pt.ine.add.PTCONT.1369647,R S JOÃO,,7200-175,MONSARAZ,-7.379454761721565,38.4447797872391
pt.ine.add.PTCONT.1369648,R ULTRAMAR,13,7200-355,REGUENGOS DE MONSARAZ,-7.53933838912794,38.427935903589145
pt.ine.add.PTCONT.1369649,PC BERNARDINO JOSE CRUZ,13,7200-503,CAMPINHO,-7.470242415739867,38.36523320316275
pt.ine.add.PTCONT.1369651,R MENDES,33,7200-302,REGUENGOS DE MONSARAZ,-7.530138267952285,38.42402991914033
pt.ine.add.PTCONT.1369652,R LARANJEIRAS,12,7200-463,REGUENGOS DE MONSARAZ,-7.5694434419628704,38.41494258677733
pt.ine.add.PTCONT.1369656,LG LIBERDADE,12,7200-329,REGUENGOS DE MONSARAZ,-7.540881549222229,38.43076602171517
pt.ine.add.PTCONT.1369657,R 1 DE DEZEMBRO,21 A,7200-392,REGUENGOS DE MONSARAZ,-7.533562659234876,38.42279885853276
pt.ine.add.PTCONT.1369658,R MACAU,64,7200-350,REGUENGOS DE MONSARAZ,-7.53601096585047,38.429218607536114
pt.ine.add.PTCONT.1369659,R CRAVOS,10,7200-177,MONSARAZ,-7.417049736882831,38.4630985622187
pt.ine.add.PTCONT.1369661,R RIBEIRA,32,7200-517,CAMPINHO,-7.469962717361425,38.36391994225814
pt.ine.add.PTCONT.1369663,R 25 DE ABRIL,14,7200-364,REGUENGOS DE MONSARAZ,-7.540640440494719,38.43032068911718
pt.ine.add.PTCONT.1369664,R PADRE EDUARDO MANSO DO INÁCIO,23,7200-480,REGUENGOS DE MONSARAZ,-7.541605887971298,38.42968325415809
pt.ine.add.PTCONT.1369666,R BENTO DE JESUS CARAÇA,8,7200-338,REGUENGOS DE MONSARAZ,-7.53985129267897,38.42959754896272
pt.ine.add.PTCONT.1369670,R ANTÓNIO JOSE DE ALMEIDA,20,7200-372,REGUENGOS DE MONSARAZ,-7.536279564799402,38.42342029361844
pt.ine.add.PTCONT.1369671,R JOSE MESTRE BATISTA,20E,7200-368,REGUENGOS DE MONSARAZ,-7.534495705468497,38.41939067585094
pt.ine.add.PTCONT.1369672,R FORNO,3,7200-470,REGUENGOS DE MONSARAZ,-7.568744825806541,38.41120670226085
pt.ine.add.PTCONT.1369674,R LISBOA,27,7200-289,REGUENGOS DE MONSARAZ,-7.535828199781401,38.4272096915489
pt.ine.add.PTCONT.1369677,MTE CAMINHO RURAL,,7200-177,MONSARAZ,-7.415849510144318,38.45934371567028
pt.ine.add.PTCONT.1369678,TV PRAÇA TOIROS,10,7200-395,REGUENGOS DE MONSARAZ,-7.534580445062569,38.42009091425874
pt.ine.add.PTCONT.1369679,R JOSE MESTRE BATISTA,98,7200-368,REGUENGOS DE MONSARAZ,-7.534253986842975,38.41954258604469
pt.ine.add.PTCONT.1369681,R JOAQUIM ANTÓNIO PASSINHAS,,7200-323,REGUENGOS DE MONSARAZ,-7.5338658623708445,38.429098651095195
pt.ine.add.PTCONT.1369682,R JOSE MESTRE BATISTA,98,7200-368,REGUENGOS DE MONSARAZ,-7.534253986842975,38.41954258604469
pt.ine.add.PTCONT.1369685,R ENG AMARO DA COSTA,73,7200-382,REGUENGOS DE MONSARAZ,-7.533383016633558,38.41960662497834
pt.ine.add.PTCONT.1369687,R MARIA VALEJO,,7200-323,REGUENGOS DE MONSARAZ,-7.534499355022854,38.42887553082616
pt.ine.add.PTCONT.1369688,R MOURAO,105,7200-294,REGUENGOS DE MONSARAZ,-7.534629925657066,38.4229324079147
pt.ine.add.PTCONT.1369707,R ZECA AFONSO,4,7200-252,REGUENGOS DE MONSARAZ,-7.528716042633363,38.42545900586872
pt.ine.add.PTCONT.1369714,R PORTEL,32,7200-375,REGUENGOS DE MONSARAZ,-7.5376119157342485,38.424290180637115
pt.ine.add.PTCONT.1369753,R ESCOLA,8,7200-179,MONSARAZ,-7.382644147409947,38.468255594720134
pt.ine.add.PTCONT.1369755,R ZECA AFONSO,4,7200-252,REGUENGOS DE MONSARAZ,-7.528716042633363,38.42545900586872
pt.ine.add.PTCONT.1369756,R ZECA AFONSO,4,7200-252,REGUENGOS DE MONSARAZ,-7.528716042633363,38.42545900586872
pt.ine.add.PTCONT.1369757,R ZECA AFONSO,4,7200-252,REGUENGOS DE MONSARAZ,-7.528716042633363,38.42545900586872
pt.ine.add.PTCONT.1369758,R AREAS DE BAIXO,4,7200-285,REGUENGOS DE MONSARAZ,-7.532135861296784,38.423657651119484
pt.ine.add.PTCONT.1369787,R CARVALHO ARAÚJO,4,7200-279,REGUENGOS DE MONSARAZ,-7.534225229696323,38.426924431694594
pt.ine.add.PTCONT.1370286,R CAMPINHO,13,7200-072,CAMPO RMZ,-7.509523218193701,38.340617381531295
pt.ine.add.PTCONT.1370287,R DR MANUEL FERNANDES RATINHO,56,7200-140,CORVAL,-7.4835812016225525,38.4518834344395
pt.ine.add.PTCONT.1370289,R CIMA,14,7200-129,CORVAL,-7.483853652483674,38.4524882235363
pt.ine.add.PTCONT.1370296,R S PEDRO,13,7200-081,CORVAL,-7.498136344455281,38.45977730250065
pt.ine.add.PTCONT.1370297,R ANTÓNIO JACINTO ROSA,57,7200-115,CORVAL,-7.482665347970773,38.44704191662387
pt.ine.add.PTCONT.1370312,R 1 DE MAIO,35,7200-142,CORVAL,-7.491589079472179,38.449571850443526
pt.ine.add.PTCONT.1370313,R DR JOSE CARVALHO MONIZ,23,7200-123,CORVAL,-7.483535362314136,38.44549617378467
pt.ine.add.PTCONT.1370320,LG STA MARIA,2,7200-082,CORVAL,-7.469439089661123,38.48682983446477
pt.ine.add.PTCONT.1370325,MTE VALE GATO,47,7200-084,CORVAL,-7.485185557764605,38.44413602202482
pt.ine.add.PTCONT.1370328,R FERRADOR,7,7200-072,CAMPO RMZ,-7.512176505094805,38.341910733549284
pt.ine.add.PTCONT.1370337,URB FERRAGIAL DOS FERNANDES,,7200-072,CAMPO RMZ,-7.507585968102471,38.34105560896667
pt.ine.add.PTCONT.1370402,R DR ANTÓNIO VAZ NATARIO,,7200-413,REGUENGOS DE MONSARAZ,-7.530891548912124,38.42732674195636
pt.ine.add.PTCONT.1370403,R S MARCOS DO CAMPO,48,7200-377,REGUENGOS DE MONSARAZ,-7.537096869776439,38.42125360482001
pt.ine.add.PTCONT.1370411,R MONSARAZ E CORVAL,10,7200-314,REGUENGOS DE MONSARAZ,-7.530997779729447,38.42673998524328
pt.ine.add.PTCONT.1370412,R MENDES,35,7200-302,REGUENGOS DE MONSARAZ,-7.529737853811971,38.423716969415345
pt.ine.add.PTCONT.1370413,R MENDES,88,7200-302,REGUENGOS DE MONSARAZ,-7.528961974598789,38.42250625715086
pt.ine.add.PTCONT.1370414,R VIDEIRAS,,7200-175,MONSARAZ,-7.38018332260132,38.443477918776516
pt.ine.add.PTCONT.1370415,R PORTA DE ÉVORA,,7200-175,MONSARAZ,-7.381255509190429,38.44359230410252
pt.ine.add.PTCONT.1370418,ARADINHOS DA RIBEIRA,APARTA 21,7200-400,REGUENGOS DE MONSARAZ,-7.504667142041081,38.43387335367556
pt.ine.add.PTCONT.1370419,ESTR MOURAO,,7200-292,REGUENGOS DE MONSARAZ,-7.509620034032816,38.422612144402365
pt.ine.add.PTCONT.1370420,R MOÇAMBIQUE,4Z,7200-351,REGUENGOS DE MONSARAZ,-7.536035998749337,38.429492658111066
pt.ine.add.PTCONT.1370421,R NOVA,44,7200-476,REGUENGOS DE MONSARAZ,-7.571420371330628,38.413970145370754
pt.ine.add.PTCONT.1370422,R COVALINHO,46,7200-378,REGUENGOS DE MONSARAZ,-7.532860621957383,38.422868230302136
pt.ine.add.PTCONT.1370424,R CRAVOS,,7200-177,MONSARAZ,-7.417097523565395,38.462900669020385
pt.ine.add.PTCONT.1370425,EN 255 MONTE DA GALHEILHA,,7200-207,REGUENGOS DE MONSARAZ,-7.524803909090427,38.45662595689641
pt.ine.add.PTCONT.1370426,TV PASSOS,15,7200-537,CAMPINHO,-7.4705513981675,38.36335572885954
pt.ine.add.PTCONT.1370427,ESTR CARIDADE,2,7200-325,REGUENGOS DE MONSARAZ,-7.540522441331002,38.42974395961324
pt.ine.add.PTCONT.1370428,R DR MANUEL CAETANO FRAZAO,30,7200-381,REGUENGOS DE MONSARAZ,-7.534889666744943,38.422236108892996
pt.ine.add.PTCONT.1370433,LG CAFE,1,7200-221,REGUENGOS DE MONSARAZ,-7.565780596317812,38.44699528115209
pt.ine.add.PTCONT.1370435,R NOVA,47,7200-229,REGUENGOS DE MONSARAZ,-7.564538919540002,38.44599675020057
pt.ine.add.PTCONT.1370436,R GARCIA DA COSTA,7,7200-228,REGUENGOS DE MONSARAZ,-7.564349545621322,38.44688924970262
pt.ine.add.PTCONT.1370437,R FLORES,15,7200-461,REGUENGOS DE MONSARAZ,-7.56928979161918,38.41114023581335
pt.ine.add.PTCONT.1370439,R PORTEL,25,7200-375,REGUENGOS DE MONSARAZ,-7.537806059645085,38.4240452980986
pt.ine.add.PTCONT.1370441,R CARIDADE,18,7200-339,REGUENGOS DE MONSARAZ,-7.536044304874442,38.426010838213514
pt.ine.add.PTCONT.1370444,R IGREJA,22,7200-515,CAMPINHO,-7.469896237010947,38.36618973175011
pt.ine.add.PTCONT.1370446,R JOSE MESTRE BATISTA,2,7200-368,REGUENGOS DE MONSARAZ,-7.534927470312111,38.41979826460153
pt.ine.add.PTCONT.1370453,R DR MÁRIO JACINTO MACHADO,,7200-204,REGUENGOS DE MONSARAZ,-7.528686188420072,38.428117146319515
pt.ine.add.PTCONT.1370454,R TIMOR,22,7200-353,REGUENGOS DE MONSARAZ,-7.54043408256124,38.428283940881784
pt.ine.add.PTCONT.1370487,R FALCOEIRAS,7,7200-225,REGUENGOS DE MONSARAZ,-7.566718124149128,38.448446648594
pt.ine.add.PTCONT.1370538,URB EIRA DA LUZ,,7200-257,REGUENGOS DE MONSARAZ,-7.528805542794756,38.426162912481814
pt.ine.add.PTCONT.1370550,R LISBOA,12,7200-288,REGUENGOS DE MONSARAZ,-7.5386071044155685,38.4293764199794
pt.ine.add.PTCONT.1370626,LG SANTO ANTÓNIO,16,7200-082,CORVAL,-7.471985780620037,38.48529297579713
pt.ine.add.PTCONT.1371083,R DR ZECA AFONSO,63,7200-141,CORVAL,-7.484307558116717,38.448806562374806
pt.ine.add.PTCONT.1371094,R 1 DE MAIO,16,7200-142,CORVAL,-7.49107572084701,38.4490240150051
pt.ine.add.PTCONT.1371099,R LEONEL FIALHO JANEIRO,48,7200-119,CORVAL,-7.484711762858899,38.44622964590149
pt.ine.add.PTCONT.1371104,R CHELES,7,7200-082,CORVAL,-7.46870709011796,38.48998108031447
pt.ine.add.PTCONT.1371106,R NSA SRA DE FÁTIMA,,7200-082,CORVAL,-7.467067704710969,38.48862620222625
pt.ine.add.PTCONT.1371109,R FERRADOR,9,7200-072,CAMPO RMZ,-7.512150241961593,38.34195915108317
pt.ine.add.PTCONT.1371110,,,7200-084,CORVAL,-7.45400526415018,38.43201421374708
pt.ine.add.PTCONT.1371113,MTE VALE ROMEIRA,,7200-082,CORVAL,-7.474231645044745,38.484802112601315
pt.ine.add.PTCONT.1371114,TV VAIS,16,7200-082,CORVAL,-7.46975711136904,38.48569614314873
pt.ine.add.PTCONT.1371115,QTA FARRAPA DE S PEDRO,,7200-101,CORVAL,-7.486484884650034,38.444863878175276
pt.ine.add.PTCONT.1371126,R MONTE ARRIBA,19,7200-072,CAMPO RMZ,-7.5120005560407,38.34246640542067
pt.ine.add.PTCONT.1371127,R LADEIRA,36,7200-082,CORVAL,-7.471843037377331,38.48422163735104
pt.ine.add.PTCONT.1371128,R SANTO ILDEFONSO,26,7200-082,CORVAL,-7.4708573325663075,38.48156707926453
pt.ine.add.PTCONT.1371140,R ORADA,10,7200-179,MONSARAZ,-7.3806319810513985,38.46774554413654
pt.ine.add.PTCONT.1375054,MTE AMARO,,7200-081,CORVAL,-7.5184628804585465,38.45743166313831
pt.ine.add.PTCONT.1371208,BR PADRE AMÉRICO,6,7200-250,REGUENGOS DE MONSARAZ,-7.528646388156297,38.42464865943775
pt.ine.add.PTCONT.1371209,R DIREITA,,7200-175,MONSARAZ,-7.380320437022615,38.44370281882971
pt.ine.add.PTCONT.1371210,R CARIDADE,13,7200-456,REGUENGOS DE MONSARAZ,-7.5716915326435705,38.41443988964081
pt.ine.add.PTCONT.1371211,R 25 DE ABRIL,15,7200-531,CAMPINHO,-7.473509682740364,38.36644433977322
pt.ine.add.PTCONT.1371213,R MOÇAMBIQUE,67,7200-351,REGUENGOS DE MONSARAZ,-7.5355204995189995,38.429818773883675
pt.ine.add.PTCONT.1371214,R PROF MOTA PINTO,,7200-412,REGUENGOS DE MONSARAZ,-7.520476709068671,38.43063293413706
pt.ine.add.PTCONT.1371216,R MACAU,63,7200-350,REGUENGOS DE MONSARAZ,-7.53633288266458,38.42914916653497
pt.ine.add.PTCONT.1371217,R ANTÓNIO FRANCISCO RIBEIRO,2,7200-336,REGUENGOS DE MONSARAZ,-7.53959907368072,38.43077018130974
pt.ine.add.PTCONT.1371219,R FLORES,1E,7200-177,MONSARAZ,-7.416755072017493,38.46455499338024
pt.ine.add.PTCONT.1371220,R HEITOR RAMALHO QUINTAS,,7200-411,REGUENGOS DE MONSARAZ,-7.528111928762318,38.426943075159556
pt.ine.add.PTCONT.1371221,R 1 DE MAIO,8A,7200-363,REGUENGOS DE MONSARAZ,-7.535585207185888,38.42496469545279
pt.ine.add.PTCONT.1371222,R 1 DE MAIO,42,7200-363,REGUENGOS DE MONSARAZ,-7.536265368374231,38.42541053249422
pt.ine.add.PTCONT.1371223,R 1 DE MAIO,42,7200-363,REGUENGOS DE MONSARAZ,-7.536265368374231,38.42541053249422
pt.ine.add.PTCONT.1371224,AV DR JOAQUIM ROJAO,19,7200-396,REGUENGOS DE MONSARAZ,-7.540985969951075,38.42441479145583
pt.ine.add.PTCONT.1371225,R SAUDADE,5,7200-518,CAMPINHO,-7.469667134344067,38.363711072361625
pt.ine.add.PTCONT.1371228,R SABINA,1,7200-177,MONSARAZ,-7.418155949586258,38.463179537073856
pt.ine.add.PTCONT.1371229,R VELHA,48,7200-231,REGUENGOS DE MONSARAZ,-7.563331845674262,38.44708801807868
pt.ine.add.PTCONT.1371230,R JUNQUEIRA,,7200-209,REGUENGOS DE MONSARAZ,-7.523362547065039,38.425206840146686
pt.ine.add.PTCONT.1371231,R D MARIA ROSÁRIO PERDIGAO,8,7200-406,REGUENGOS DE MONSARAZ,-7.539639261670541,38.42349147551237
pt.ine.add.PTCONT.1371232,LG S JOSE,4,7200-504,CAMPINHO,-7.4704757443896055,38.3628688371003
pt.ine.add.PTCONT.1371235,R EDUARDO BRAZAO,19,7200-307,REGUENGOS DE MONSARAZ,-7.532835526219904,38.42490441398048
pt.ine.add.PTCONT.1371237,BR 14 FOGOS,,7200-220,REGUENGOS DE MONSARAZ,-7.5644162917515025,38.44568243381587
pt.ine.add.PTCONT.1371241,CPO 25 DE ABRIL,39,7200-368,REGUENGOS DE MONSARAZ,-7.535024688769555,38.420359391687946
pt.ine.add.PTCONT.1371243,R JOAQUIM ANTÓNIO PASSINHAS,,7200-323,REGUENGOS DE MONSARAZ,-7.53440007752189,38.42958784182736
pt.ine.add.PTCONT.1371244,R MENDES,34,7200-302,REGUENGOS DE MONSARAZ,-7.5303238533839245,38.423981660293364
pt.ine.add.PTCONT.1371248,R DR JOAQUIM FIADEIRO,79,7200-480,REGUENGOS DE MONSARAZ,-7.542752933439146,38.42908069997381
pt.ine.add.PTCONT.1371249,R DR ALBERTO JANES,,7200-408,REGUENGOS DE MONSARAZ,-7.529525322896968,38.426364809517416
pt.ine.add.PTCONT.1371253,PC SANTO ANTONIO,1,7200-266,REGUENGOS DE MONSARAZ,-7.532057437471237,38.425687843991355
pt.ine.add.PTCONT.1371254,PC LIBERDADE,15,7200-370,REGUENGOS DE MONSARAZ,-7.5353385005828235,38.42432836392438
pt.ine.add.PTCONT.1371257,R COVALINHO,51,7200-378,REGUENGOS DE MONSARAZ,-7.5328169384454835,38.4230493906048
pt.ine.add.PTCONT.1371270,R DR ZECA AFONSO,16,7200-141,CORVAL,-7.482125898502525,38.448368630699335
pt.ine.add.PTCONT.1371273,MTE CAMINHO RURAL,,7200-179,MONSARAZ,-7.395156303311281,38.470781993449656
pt.ine.add.PTCONT.1371274,LG LIBERDADE,6,7200-329,REGUENGOS DE MONSARAZ,-7.540890502294727,38.43062292245408
pt.ine.add.PTCONT.1371277,R JOAQUIM AGOSTINHO,14,7200-358,REGUENGOS DE MONSARAZ,-7.5385644714765805,38.427311870596405
pt.ine.add.PTCONT.1371288,R 1 DE DEZEMBRO,15,7200-392,REGUENGOS DE MONSARAZ,-7.533382148264071,38.422878157668336
pt.ine.add.PTCONT.1371303,R DIREITA,15,7200-175,MONSARAZ,-7.380386452148846,38.44383253559357
pt.ine.add.PTCONT.1371320,R ALEGRIA,35,7200-179,MONSARAZ,-7.383310990185148,38.47049057255408
pt.ine.add.PTCONT.1371323,AZ PAÇO,6,7200-173,MONSARAZ,-7.3776062893297825,38.45275240286952
pt.ine.add.PTCONT.1371330,LG SANTO ANTÓNIO,11,7200-082,CORVAL,-7.471988949355963,38.48617338566027
pt.ine.add.PTCONT.1371331,LG SANTO ANTÓNIO,1,7200-082,CORVAL,-7.472194941865845,38.48577521794523
pt.ine.add.PTCONT.1371334,R SANTO ANTÓNIO,,7200-175,MONSARAZ,-7.379923730409843,38.445045435567835
pt.ine.add.PTCONT.1371355,R CARVALHO ARAÚJO,1,7200-278,REGUENGOS DE MONSARAZ,-7.5341933872890285,38.426800389128616
pt.ine.add.PTCONT.1371417,R LADEIRA,15,7200-082,CORVAL,-7.471858846097673,38.48484279177742
pt.ine.add.PTCONT.1371422,R ESCOLA,65,7200-457,REGUENGOS DE MONSARAZ,-7.566881901993347,38.41452485405877
pt.ine.add.PTCONT.1371427,R DO COVALINHO,51 A,7200-378,REGUENGOS DE MONSARAZ,-7.5328169384454835,38.4230493906048
pt.ine.add.PTCONT.1371877,R N SR DA ESPERANÇA,17,7200-081,CORVAL,-7.497570207696654,38.45973646293914
pt.ine.add.PTCONT.1371878,LG IGREJA,,7200-081,CORVAL,-7.498934124917132,38.459489612620146
pt.ine.add.PTCONT.1371886,R JOSE MESTRE BATISTA,13,7200-072,CAMPO RMZ,-7.511398258295597,38.33932820456922
pt.ine.add.PTCONT.1371887,R ANTÓNIO JACINTO ROSA,77,7200-115,CORVAL,-7.4827549473470985,38.446499684039125
pt.ine.add.PTCONT.1371892,R LEONEL FIALHO JANEIRO,49,7200-119,CORVAL,-7.484722805193654,38.44618101889769
pt.ine.add.PTCONT.1371896,R DR JOSE CARVALHO MONIZ,14,7200-123,CORVAL,-7.483395265799999,38.44601398075936
pt.ine.add.PTCONT.1371899,R NOVA,5,7200-071,CAMPO RMZ,-7.513761652292602,38.36900007083795
pt.ine.add.PTCONT.1371900,R ALEGRIA,,7200-082,CORVAL,-7.470394248492762,38.486625616951876
pt.ine.add.PTCONT.1371907,R NOVA,37,7200-082,CORVAL,-7.470175660778029,38.48341895672645
pt.ine.add.PTCONT.1372000,R INDIA,2A,7200-343,REGUENGOS DE MONSARAZ,-7.539280784003069,38.42756464781908
pt.ine.add.PTCONT.1372001,R MOÇAMBIQUE,2A,7200-351,REGUENGOS DE MONSARAZ,-7.539874831217696,38.42812027017733
pt.ine.add.PTCONT.1372005,R D DORES LEAL,,7200-300,REGUENGOS DE MONSARAZ,-7.531832792199793,38.4267194180859
pt.ine.add.PTCONT.1372006,R MENDES,,7200-302,REGUENGOS DE MONSARAZ,-7.530493938225183,38.42432476179441
pt.ine.add.PTCONT.1372007,MONTEVERDE,,7200-399,REGUENGOS DE MONSARAZ,-7.534651819726435,38.412959374562654
pt.ine.add.PTCONT.1372008,R FIGUEIRINHA,8,7200-458,REGUENGOS DE MONSARAZ,-7.571944844158096,38.414896368270874
pt.ine.add.PTCONT.1372010,R SANTIAGO,,7200-175,MONSARAZ,-7.380955224560724,38.44364383648505
pt.ine.add.PTCONT.1372011,BR S JOSE,,7200-251,REGUENGOS DE MONSARAZ,-7.52799518315639,38.424465128169956
pt.ine.add.PTCONT.1372015,R ESCOLA,56,7200-457,REGUENGOS DE MONSARAZ,-7.5667462660629905,38.414298984777766
pt.ine.add.PTCONT.1372016,R VELHA,33,7200-231,REGUENGOS DE MONSARAZ,-7.564751693640592,38.447266600858036
pt.ine.add.PTCONT.1372017,R GONÇALVES CRESPO,5,7200-384,REGUENGOS DE MONSARAZ,-7.533211224344416,38.42240196660985
pt.ine.add.PTCONT.1372018,R CARIDADE,2,7200-456,REGUENGOS DE MONSARAZ,-7.571935624746655,38.414267988948495
pt.ine.add.PTCONT.1372019,R FLORES,13,7200-177,MONSARAZ,-7.416837639456808,38.464757663377014
pt.ine.add.PTCONT.1372020,R PANIFICADORA,24,7200-401,REGUENGOS DE MONSARAZ,-7.539918404889443,38.42440868712128
pt.ine.add.PTCONT.1372021,R PANIFICADORA,22,7200-401,REGUENGOS DE MONSARAZ,-7.539918404889443,38.42440868712128
pt.ine.add.PTCONT.1372022,LG DR IGNACIO RAMALHO,2,7200-262,REGUENGOS DE MONSARAZ,-7.53315161030328,38.425455552785735
pt.ine.add.PTCONT.1372023,R LISBOA,70,7200-290,REGUENGOS DE MONSARAZ,-7.537102598149952,38.428337619741384
pt.ine.add.PTCONT.1372027,R 11 DE MARCO,7,7200-361,REGUENGOS DE MONSARAZ,-7.540046359925769,38.42990528465833
pt.ine.add.PTCONT.1372028,R MOÇAMBIQUE,26A,7200-351,REGUENGOS DE MONSARAZ,-7.538075741043381,38.42876558017916
pt.ine.add.PTCONT.1372029,R LISBOA,77,7200-289,REGUENGOS DE MONSARAZ,-7.537237976303249,38.42832110642241
pt.ine.add.PTCONT.1372030,R TRAVESSA,5,7200-460,REGUENGOS DE MONSARAZ,-7.568452409756145,38.41121086741735
pt.ine.add.PTCONT.1372036,R FLORES,7,7200-171,MONSARAZ,-7.3994094991723935,38.463329140654636
pt.ine.add.PTCONT.1372037,R MOUZINHO DE ALBUQUERQUE,66,7200-390,REGUENGOS DE MONSARAZ,-7.5365398560479475,38.42423868185692
pt.ine.add.PTCONT.1372038,TV CANTO,2,7200-478,REGUENGOS DE MONSARAZ,-7.568760756606975,38.41144398069909
pt.ine.add.PTCONT.1372042,R PORTEL,19B,7200-375,REGUENGOS DE MONSARAZ,-7.53721844957337,38.424387414038186
pt.ine.add.PTCONT.1372043,BR S PEDRO,18,7200-253,REGUENGOS DE MONSARAZ,-7.527059797110122,38.42459613766022
pt.ine.add.PTCONT.1372045,MTE CAMINHO RURAL,,7200-177,MONSARAZ,-7.411236490186565,38.46237824585734
pt.ine.add.PTCONT.1372046,R 25 DE ABRIL,64,7200-531,CAMPINHO,-7.473766549284683,38.367139446213606
pt.ine.add.PTCONT.1372047,R 25 DE ABRIL,32,7200-531,CAMPINHO,-7.473198546687643,38.36629945410598
pt.ine.add.PTCONT.1372048,R NSA SRA DAS DORES,18,7200-531,CAMPINHO,-7.472407288171623,38.365618350648276
pt.ine.add.PTCONT.1372050,R MOURAO,80,7200-293,REGUENGOS DE MONSARAZ,-7.534409675772191,38.42313244521116
pt.ine.add.PTCONT.1372053,R MARIA JOÃO PIRES,,7200-204,REGUENGOS DE MONSARAZ,-7.532092859553348,38.428846341061856
pt.ine.add.PTCONT.1372054,R NOVA,,7200-173,MONSARAZ,-7.375832245622614,38.452919283788226
pt.ine.add.PTCONT.1372055,R JOÃO DE DEUS,17,7200-357,REGUENGOS DE MONSARAZ,-7.537550323632226,38.42608167212861
pt.ine.add.PTCONT.1372056,R MARIA VALEJO,,7200-323,REGUENGOS DE MONSARAZ,-7.534552664522103,38.428840759981675
pt.ine.add.PTCONT.1372057,R DR MARIO JACINTO MACHADO,14,7200-204,REGUENGOS DE MONSARAZ,-7.528809736631056,38.42848818414077
pt.ine.add.PTCONT.1372058,R TIMOR,N 47 LT9,7200-480,REGUENGOS DE MONSARAZ,-7.541045000009662,38.42886169637492
pt.ine.add.PTCONT.1372073,R TEÓFILO CONDE FIALHO,28,7200-101,CORVAL,-7.484383218476841,38.445580461069895
pt.ine.add.PTCONT.1372082,LG LIBERDADE,5,7200-329,REGUENGOS DE MONSARAZ,-7.540664598607717,38.43060250593497
pt.ine.add.PTCONT.1372089,R INÁCIO COELHO PERDIGAO,16,7200-404,REGUENGOS DE MONSARAZ,-7.540167203692215,38.42317606743571
pt.ine.add.PTCONT.1372110,R FONTE,6,7200-177,MONSARAZ,-7.41743807674721,38.46371879489813
pt.ine.add.PTCONT.1372111,BC CANO,2,7200-177,MONSARAZ,-7.417908466390493,38.46315785840514
pt.ine.add.PTCONT.1372209,BC HORTA,5,7200-450,REGUENGOS DE MONSARAZ,-7.570043568949084,38.41231105469564
pt.ine.add.PTCONT.1372238,R 11 DE MARCO,1,7200-361,REGUENGOS DE MONSARAZ,-7.539910564850373,38.429705242323536
pt.ine.add.PTCONT.1372239,GAV RUA JOÃO DE DEUS,1,7200-376,REGUENGOS DE MONSARAZ,-7.533622620283017,38.42943072226385
pt.ine.add.PTCONT.1372240,R DR MÁRIO JACINTO MACHADO,,7200-204,REGUENGOS DE MONSARAZ,-7.528752570408009,38.428396752832796
pt.ine.add.PTCONT.1372272,R EGAS MONIZ,4,7200-308,REGUENGOS DE MONSARAZ,-7.533271959882065,38.42606628752806
pt.ine.add.PTCONT.1372273,URB JOSÉ SARAMAGO,,7200-479,REGUENGOS DE MONSARAZ,-7.542193045796241,38.42751940305555
pt.ine.add.PTCONT.1372312,R ZECA AFONSO,,7200-413,REGUENGOS DE MONSARAZ,-7.5301749587922115,38.42656217481911
pt.ine.add.PTCONT.1372313,R CARLOS PAREDES,,7200-482,REGUENGOS DE MONSARAZ,-7.527076929509156,38.42609092606704
pt.ine.add.PTCONT.1372314,LG 5 DE OUTUBRO,,7200-482,REGUENGOS DE MONSARAZ,-7.526682916623657,38.426647416192225
pt.ine.add.PTCONT.1372315,HORTA DE S JOÃO,,7200-401,REGUENGOS DE MONSARAZ,-7.5239982865249155,38.429957636309815
pt.ine.add.PTCONT.1372357,BR FIGUEIRINHA,5,7200-397,REGUENGOS DE MONSARAZ,-7.552651677374702,38.42693546130409
pt.ine.add.PTCONT.1372358,R MOURAO,111,7200-293,REGUENGOS DE MONSARAZ,-7.535685809112315,38.42246246206212
pt.ine.add.PTCONT.1372359,R MOÇAMBIQUE,61,7200-351,REGUENGOS DE MONSARAZ,-7.53571577478367,38.42974770137383
pt.ine.add.PTCONT.1372404,LOTEAM ROMEU ROSADO FERNANDES,,7200-400,REGUENGOS DE MONSARAZ,-7.539954418599929,38.4260864269863
pt.ine.add.PTCONT.1372405,BR DR JOSÉ SERETO,8,7200-398,REGUENGOS DE MONSARAZ,-7.54199760265643,38.42496237521708
pt.ine.add.PTCONT.1372406,R PANIFICADORA,8,7200-401,REGUENGOS DE MONSARAZ,-7.5391243220171695,38.42361862913496
pt.ine.add.PTCONT.1372407,R EDUARDO BRAZAO,9,7200-307,REGUENGOS DE MONSARAZ,-7.532830484697705,38.42503729456376
pt.ine.add.PTCONT.1372408,R EDUARDO BRAZAO,14,7200-307,REGUENGOS DE MONSARAZ,-7.532830484697705,38.42503729456376
pt.ine.add.PTCONT.1372409,R EDUARDO BRAZAO,14,7200-307,REGUENGOS DE MONSARAZ,-7.532830484697705,38.42503729456376
pt.ine.add.PTCONT.1372410,R EDUARDO BRAZAO,14,7200-307,REGUENGOS DE MONSARAZ,-7.532830484697705,38.42503729456376
pt.ine.add.PTCONT.1372411,R EDUARDO BRAZAO,14,7200-307,REGUENGOS DE MONSARAZ,-7.532830484697705,38.42503729456376
pt.ine.add.PTCONT.1372458,R EDUARDO BRAZAO,14,7200-307,REGUENGOS DE MONSARAZ,-7.532830484697705,38.42503729456376
pt.ine.add.PTCONT.1372459,R DR FRANCISCO SALLES GIAO,39,7200-305,REGUENGOS DE MONSARAZ,-7.533038546797237,38.42439131542585
pt.ine.add.PTCONT.1372460,R MENDES,42,7200-302,REGUENGOS DE MONSARAZ,-7.530107783861794,38.423800378140584
pt.ine.add.PTCONT.1372499,R MÁRIO MARTINS BELO MASSAGISTA,36,7200-388,REGUENGOS DE MONSARAZ,-7.532546852003351,38.41977532039599
pt.ine.add.PTCONT.1372500,TV HORTA,3,7200-477,REGUENGOS DE MONSARAZ,-7.569416570145819,38.41103274288972
pt.ine.add.PTCONT.1372501,R A BR NOVO,24,7200-508,CAMPINHO,-7.467636477449254,38.36555533432664
pt.ine.add.PTCONT.1372543,R GUADIANA,15,7200-527,CAMPINHO,-7.471792047021268,38.36454371508945
pt.ine.add.PTCONT.1372708,R DEFESA,29,7200-072,CAMPO RMZ,-7.510505590332537,38.339386529181304
pt.ine.add.PTCONT.1372709,TV POÇO NOVO,5,7200-072,CAMPO RMZ,-7.511495254662717,38.33834592005751
pt.ine.add.PTCONT.1372819,BC CAPUCHOS,5,7200-177,MONSARAZ,-7.417843441897871,38.463941194048466
pt.ine.add.PTCONT.1372710,LG STA MARIA,3,7200-082,CORVAL,-7.469502748322348,38.486811317125515
pt.ine.add.PTCONT.1372743,R ALEGRIA,27,7200-082,CORVAL,-7.470950014417804,38.486468179838106
pt.ine.add.PTCONT.1372744,R NOVA,47,7200-082,CORVAL,-7.469950577205701,38.48235282589354
pt.ine.add.PTCONT.1372745,R NOVA,59,7200-082,CORVAL,-7.469978656471923,38.4820275450511
pt.ine.add.PTCONT.1372746,EN ALANDROAL MONTE DOS CALISTOS,,7200-085,CORVAL,-7.50234760172461,38.52399026636878
pt.ine.add.PTCONT.1372747,R S PEDRO,6,7200-081,CORVAL,-7.498197776866065,38.45967578308191
pt.ine.add.PTCONT.1372782,URB BACELINHO,,7200-150,CORVAL,-7.485092119970862,38.44818031115903
pt.ine.add.PTCONT.1372820,R LARANJEIRAS,32,7200-171,MONSARAZ,-7.399607077304697,38.46302931582426
pt.ine.add.PTCONT.1372831,PCT BRASIL,,7200-479,REGUENGOS DE MONSARAZ,-7.541688025789781,38.42679871990532
pt.ine.add.PTCONT.1372845,URB FERRAGIAL DOS FERNANDES,8,7200-072,CAMPO RMZ,-7.507901484560315,38.34138107487553
pt.ine.add.PTCONT.1372905,R SANTO ANTÓNIO,16,7200-072,CAMPO RMZ,-7.509153440832961,38.33967300920537
pt.ine.add.PTCONT.1372930,R CARVALHO ARAÚJO,36,7200-279,REGUENGOS DE MONSARAZ,-7.535790082847686,38.42798827970266
pt.ine.add.PTCONT.1373436,BR NOVO,16,7200-179,MONSARAZ,-7.382635882806105,38.46749253584105
pt.ine.add.PTCONT.1373441,MTE SERRA,60,7200-084,CORVAL,-7.480647983617234,38.455758792414656
pt.ine.add.PTCONT.1373442,MTE BARROQUEIRA,A,7200-084,CORVAL,-7.475101552663904,38.46853778575046
pt.ine.add.PTCONT.1373443,R PROF CÂNDIDO,4,7200-143,CORVAL,-7.4821826048466065,38.44944338608006
pt.ine.add.PTCONT.1373447,BC PARREIRAS,1,7200-104,CORVAL,-7.481428502978203,38.44806682295146
pt.ine.add.PTCONT.1373452,R TEÓFILO CONDE FIALHO,35,7200-101,CORVAL,-7.484321264104328,38.44595072495594
pt.ine.add.PTCONT.1373455,LG LIBERDADE,4,7200-072,CAMPO RMZ,-7.509838211294329,38.338112904966344
pt.ine.add.PTCONT.1373459,R PRIMAVERA,,7200-126,CORVAL,-7.485465914782395,38.44737161527457
pt.ine.add.PTCONT.1373466,TV VALADAS,5,7200-179,MONSARAZ,-7.3823247680990125,38.47056533144341
pt.ine.add.PTCONT.1373468,R ESPERANÇA,48,7200-179,MONSARAZ,-7.3817588430371215,38.469852876582955
pt.ine.add.PTCONT.1373477,R POÇO,14,7200-072,CAMPO RMZ,-7.513169637166058,38.341191683800396
pt.ine.add.PTCONT.1373478,R MONTE ARRIBA,23,7200-072,CAMPO RMZ,-7.512039093367696,38.342574682639054
pt.ine.add.PTCONT.1373570,R SANTIAGO,,7200-175,MONSARAZ,-7.380388645323024,38.444400622385935
pt.ine.add.PTCONT.1373571,R COVALINHO,63,7200-378,REGUENGOS DE MONSARAZ,-7.532661462083682,38.42271275968074
pt.ine.add.PTCONT.1373572,R GUINE,1,7200-342,REGUENGOS DE MONSARAZ,-7.539747504207137,38.426575532589936
pt.ine.add.PTCONT.1373574,R LISBOA,20,7200-288,REGUENGOS DE MONSARAZ,-7.535687418783647,38.427228344055656
pt.ine.add.PTCONT.1373575,R HORTAS,4,7200-344,REGUENGOS DE MONSARAZ,-7.539863288698087,38.43113629404026
pt.ine.add.PTCONT.1373576,R SISMEIRINHOS,7,7200-530,CAMPINHO,-7.473752138032672,38.36572463682126
pt.ine.add.PTCONT.1373577,ESTR S MARCOS N255 QTA DO POÇO NOVO,,7200-208,REGUENGOS DE MONSARAZ,-7.534464846193563,38.4161924869036
pt.ine.add.PTCONT.1373579,R DR DOMINGOS ROSADO,2,7200-319,REGUENGOS DE MONSARAZ,-7.533281349748237,38.42638409511657
pt.ine.add.PTCONT.1373580,ESTR MOURAO QTA DO CASTELO,,7200-292,REGUENGOS DE MONSARAZ,-7.514694369905732,38.422440844062386
pt.ine.add.PTCONT.1373581,R DR ALBERTO JANES,16,7200-408,REGUENGOS DE MONSARAZ,-7.529003410815353,38.427154870234
pt.ine.add.PTCONT.1373582,R MOÇAMBIQUE,28,7200-351,REGUENGOS DE MONSARAZ,-7.537692593551767,38.42889294417866
pt.ine.add.PTCONT.1373583,R S MARCOS DO CAMPO,15,7200-377,REGUENGOS DE MONSARAZ,-7.538556597057474,38.42523571908465
pt.ine.add.PTCONT.1373584,R PASSAGEM DE NIVEL,13,7200-224,REGUENGOS DE MONSARAZ,-7.566900704782745,38.447404710137754
pt.ine.add.PTCONT.1373587,R S JOÃO DEUS,29,7200-376,REGUENGOS DE MONSARAZ,-7.5357922354934415,38.42426896367367
pt.ine.add.PTCONT.1373588,R LISBOA,51 A,7200-289,REGUENGOS DE MONSARAZ,-7.536634624457084,38.427840687831
pt.ine.add.PTCONT.1373589,R ANTÓNIO JOSE DE ALMEIDA,26A,7200-372,REGUENGOS DE MONSARAZ,-7.5364477022025085,38.423331920293535
pt.ine.add.PTCONT.1373590,R ANTÓNIO JOSE DE ALMEIDA,26A,7200-372,REGUENGOS DE MONSARAZ,-7.5364477022025085,38.423331920293535
pt.ine.add.PTCONT.1373591,R ANTÓNIO JOSE DE ALMEIDA,26A,7200-372,REGUENGOS DE MONSARAZ,-7.5364477022025085,38.423331920293535
pt.ine.add.PTCONT.1373592,R EDUARDO BRAZAO,15,7200-307,REGUENGOS DE MONSARAZ,-7.532767267213268,38.42485001315323
pt.ine.add.PTCONT.1373593,R VIRGILIO DURÃO,5,7200-481,REGUENGOS DE MONSARAZ,-7.535343337945579,38.41893799931491
pt.ine.add.PTCONT.1373594,R FORNO,8,7200-470,REGUENGOS DE MONSARAZ,-7.568830851886984,38.411264146972705
pt.ine.add.PTCONT.1373596,EM 256,,7200-399,REGUENGOS DE MONSARAZ,-7.52522449694667,38.42439673760223
pt.ine.add.PTCONT.1373597,R CARLOS PAREDES,,7200-482,REGUENGOS DE MONSARAZ,-7.527315072909065,38.42637142160332
pt.ine.add.PTCONT.1373598,R NSA SRA DAS DORES,20,7200-531,CAMPINHO,-7.472493741145116,38.36564486092792
pt.ine.add.PTCONT.1373599,TV PRAÇA TOIROS,1B,7200-395,REGUENGOS DE MONSARAZ,-7.534728059593742,38.420373792867366
pt.ine.add.PTCONT.1373600,TV PRAÇA TOIROS,105,7200-395,REGUENGOS DE MONSARAZ,-7.534563130367264,38.420001265670216
pt.ine.add.PTCONT.1373602,AV ANTÓNIO JOSE DE ALMEIDA,25,7200-372,REGUENGOS DE MONSARAZ,-7.535647350814577,38.42358961163547
pt.ine.add.PTCONT.1373603,URB S MARCOS,14,7200-368,REGUENGOS DE MONSARAZ,-7.535591808678071,38.41977462804497
pt.ine.add.PTCONT.1373606,R JUNQUEIRA,22,7200-516,CAMPINHO,-7.469753004266529,38.36558534576686
pt.ine.add.PTCONT.1373650,URB QUINTA DA TAPADA,8,7200-999,REGUENGOS DE MONSARAZ,-7.537787659193808,38.431262668308015
pt.ine.add.PTCONT.1373651,CASTELO,,7200-229,REGUENGOS DE MONSARAZ,-7.516221818132855,38.42461094001715
pt.ine.add.PTCONT.1373672,R PRAZERES,5,7200-179,MONSARAZ,-7.382563544844954,38.46963899687197
pt.ine.add.PTCONT.1373678,R SANTO ANTÓNIO,40,7200-072,CAMPO RMZ,-7.508001154663411,38.33932816270533
pt.ine.add.PTCONT.1373713,BR DR JOSE SERETO,,7200-398,REGUENGOS DE MONSARAZ,-7.541221909014028,38.42483199191003
pt.ine.add.PTCONT.1373748,BR ESTAÇÃO,6,7200-404,REGUENGOS DE MONSARAZ,-7.540343942129633,38.423086209576326
pt.ine.add.PTCONT.1373749,BR ESTAÇÃO,6,7200-404,REGUENGOS DE MONSARAZ,-7.540343942129633,38.423086209576326
pt.ine.add.PTCONT.1373764,R TEÓFILO CARVALHO DOS SANTOS,76,7200-393,REGUENGOS DE MONSARAZ,-7.533465187128179,38.41938540753823
pt.ine.add.PTCONT.1373765,R NSA SRA DE FÁTIMA,20,7200-082,CORVAL,-7.469188421148086,38.48781854772296
pt.ine.add.PTCONT.1373769,URB EGAS MONIZ,,7200-399,REGUENGOS DE MONSARAZ,-7.546470726587933,38.426766161854054
pt.ine.add.PTCONT.1374206,R COMPRIDA,68,7200-072,CAMPO RMZ,-7.512520389835988,38.339531671904744
pt.ine.add.PTCONT.1374207,LG STA MARIA,19,7200-082,CORVAL,-7.469344719066806,38.48696356462506
pt.ine.add.PTCONT.1374208,R JARDIM,9,7200-135,CORVAL,-7.484125978419784,38.447337175638836
pt.ine.add.PTCONT.1374209,R POÇO NOVO,3,7200-179,MONSARAZ,-7.38411880272183,38.46733140920263
pt.ine.add.PTCONT.1374210,R LAVADOUROS,8,7200-179,MONSARAZ,-7.3836089303891805,38.46716838058189
pt.ine.add.PTCONT.1374211,R DR JACINTO FERNANDES PALMA,5,7200-353,REGUENGOS DE MONSARAZ,-7.540701740257398,38.42901910347601
pt.ine.add.PTCONT.1374212,HRD PERDIGOES C,,7200-207,REGUENGOS DE MONSARAZ,-7.535945268496581,38.45193681725999
pt.ine.add.PTCONT.1374213,R JOAQUIM ANTÓNIO PASSINHAS,,7200-323,REGUENGOS DE MONSARAZ,-7.533943772776652,38.42914399479272
pt.ine.add.PTCONT.1374214,R FERNÃO DE MAGALHÃES,2A,7200-309,REGUENGOS DE MONSARAZ,-7.533044390781805,38.42620870665645
pt.ine.add.PTCONT.1374215,MTE FOME,,7200-204,REGUENGOS DE MONSARAZ,-7.6082079529083915,38.39508752164498
pt.ine.add.PTCONT.1374216,EN 255,,7200-207,REGUENGOS DE MONSARAZ,-7.533736494401402,38.433665308067525
pt.ine.add.PTCONT.1374217,R CAPITÃES DE ABRIL,20,7200-323,REGUENGOS DE MONSARAZ,-7.5351473427933255,38.42924032498481
pt.ine.add.PTCONT.1374218,R LISBOA,56,7200-290,REGUENGOS DE MONSARAZ,-7.536842136789739,38.42813657306371
pt.ine.add.PTCONT.1374241,R FERRAGIAL,41,7200-072,CAMPO RMZ,-7.5132902484089055,38.34024536829595
pt.ine.add.PTCONT.1374242,LG STA MARIA,12,7200-082,CORVAL,-7.469737038160011,38.486945474156045
pt.ine.add.PTCONT.1374243,R LADEIRA,59,7200-082,CORVAL,-7.471208148762867,38.4833076863465
pt.ine.add.PTCONT.1374244,BC LOURINHOS,3,7200-106,CORVAL,-7.491282545453286,38.448953080369286
pt.ine.add.PTCONT.1374245,R 1 DE MAIO,9,7200-142,CORVAL,-7.491049930941408,38.448775083035436
pt.ine.add.PTCONT.1374246,R LARANJEIRAS,25,7200-171,MONSARAZ,-7.399517813762027,38.4629622766034
pt.ine.add.PTCONT.1374247,LG S BARTOLOMEU,,7200-175,MONSARAZ,-7.379159737074835,38.4454836024718
pt.ine.add.PTCONT.1374248,EM 514,,7200-175,MONSARAZ,-7.382104544551852,38.44097127184049
pt.ine.add.PTCONT.1374249,R DR ALBERTO JANES,20,7200-408,REGUENGOS DE MONSARAZ,-7.528977205853705,38.42755111012173
pt.ine.add.PTCONT.1374250,R CARLOS PAREDES,,7200-482,REGUENGOS DE MONSARAZ,-7.526986147745702,38.42599136279689
pt.ine.add.PTCONT.1374251,BR PADRE AMÉRICO,,7200-250,REGUENGOS DE MONSARAZ,-7.52883080547756,38.424505474099846
pt.ine.add.PTCONT.1374252,PCT DR FRANCISCO SA CARNEIRO,3,7200-335,REGUENGOS DE MONSARAZ,-7.5371355776930695,38.427245366023094
pt.ine.add.PTCONT.1374253,R PORTEL,2A,7200-375,REGUENGOS DE MONSARAZ,-7.536537984877608,38.42498094722002
pt.ine.add.PTCONT.1374254,R ÉVORA,55,7200-346,REGUENGOS DE MONSARAZ,-7.539232771070923,38.42541445997521
pt.ine.add.PTCONT.1374255,R ENG AMARO DA COSTA,51,7200-382,REGUENGOS DE MONSARAZ,-7.533129703737509,38.41979808313418
pt.ine.add.PTCONT.1374256,R ENG AMARO DA COSTA,44,7200-382,REGUENGOS DE MONSARAZ,-7.532858922813198,38.41931023561538
pt.ine.add.PTCONT.1374257,R VINHAS,8,7200-465,REGUENGOS DE MONSARAZ,-7.5689175321950355,38.41484096211842
pt.ine.add.PTCONT.1374258,LG FIGUEIRINHA,8,7200-452,REGUENGOS DE MONSARAZ,-7.572551010817699,38.41434490950632
pt.ine.add.PTCONT.1374259,R RIBEIRA,12,7200-517,CAMPINHO,-7.469982289942543,38.364523506285956
pt.ine.add.PTCONT.1374282,BR S JOSE,,7200-251,REGUENGOS DE MONSARAZ,-7.52738246169468,38.42457021638656
pt.ine.add.PTCONT.1374283,R COMÉRCIO,33A,7200-298,REGUENGOS DE MONSARAZ,-7.534086570724562,38.42498002353241
pt.ine.add.PTCONT.1374284,R MARIA INACIA VOGADO PERDIGAO,15A,7200-405,REGUENGOS DE MONSARAZ,-7.538877784023826,38.42348816180097
pt.ine.add.PTCONT.1374285,R JOSE MESTRE BATISTA,20F,7200-368,REGUENGOS DE MONSARAZ,-7.534438826186388,38.419345342621064
pt.ine.add.PTCONT.1374286,R ALTO,3,7200-467,REGUENGOS DE MONSARAZ,-7.569093286980513,38.41189372400135
pt.ine.add.PTCONT.1374287,R SISMEIRINHOS,27,7200-530,CAMPINHO,-7.474511153937937,38.3657833337599
pt.ine.add.PTCONT.1374421,URB BACELINHO,,7200-150,CORVAL,-7.485037424870643,38.447891737490735
pt.ine.add.PTCONT.1374432,PCT DR FRANCISCO SA CARNEIRO,5,7200-335,REGUENGOS DE MONSARAZ,-7.5371355776930695,38.427245366023094
pt.ine.add.PTCONT.1374445,COUTADA,,7200-220,REGUENGOS DE MONSARAZ,-7.519701561854,38.43561959358996
pt.ine.add.PTCONT.1374457,TV VAIS,23,7200-082,CORVAL,-7.469114034441401,38.48529798690859
pt.ine.add.PTCONT.1374477,R MOÇAMBIQUE,58,7200-351,REGUENGOS DE MONSARAZ,-7.533736494401402,38.433665308067525
pt.ine.add.PTCONT.1374478,LG FIGUEIRINHA,8,7200-452,REGUENGOS DE MONSARAZ,-7.572551010817699,38.41434490950632
pt.ine.add.PTCONT.1374510,R STO ANTÓNIO DO BALDIO,12,7200-133,CORVAL,-7.481540583976037,38.450809104734184
pt.ine.add.PTCONT.1374528,R ALEGRIA,23,7200-082,CORVAL,-7.471175892161267,38.48642128858948
pt.ine.add.PTCONT.1374529,R CHAMINÉ,4,7200-223,REGUENGOS DE MONSARAZ,-7.56568352779196,38.44768846601526
pt.ine.add.PTCONT.1374548,GAV CARTUXA,5,7200-323,REGUENGOS DE MONSARAZ,-7.53542450148738,38.429678030630434
pt.ine.add.PTCONT.1374549,GAV CARTUXA,5,7200-323,REGUENGOS DE MONSARAZ,-7.53542450148738,38.429678030630434
pt.ine.add.PTCONT.1374550,GAV CARTUXA,5,7200-323,REGUENGOS DE MONSARAZ,-7.53542450148738,38.429678030630434
pt.ine.add.PTCONT.1374551,R DR FRANCISCO MARTINS BELO,16,7200-403,REGUENGOS DE MONSARAZ,-7.5397247400313985,38.424284923990406
pt.ine.add.PTCONT.1374552,R DR FRANCISCO MARTINS BELO,16,7200-403,REGUENGOS DE MONSARAZ,-7.5397247400313985,38.424284923990406
pt.ine.add.PTCONT.1374566,R TORRE,8,7200-520,CAMPINHO,-7.468320699546771,38.365211841041386
pt.ine.add.PTCONT.1374567,R TORRE,8,7200-520,CAMPINHO,-7.468320699546771,38.365211841041386
pt.ine.add.PTCONT.1375016,R DR MANUEL FERNANDES RATINHO,30,7200-140,CORVAL,-7.482610857253376,38.45108299251224
pt.ine.add.PTCONT.1375017,R ESPERANÇA,11,7200-179,MONSARAZ,-7.381253153622302,38.468861684018634
pt.ine.add.PTCONT.1375033,R CIMA,1,7200-129,CORVAL,-7.483887060451082,38.45191802228451
pt.ine.add.PTCONT.1375034,R TEÓFILO CONDE FIALHO,33,7200-101,CORVAL,-7.4843435551478255,38.44582752324357
pt.ine.add.PTCONT.1375039,R ÉVORA,,7200-130,CORVAL,-7.482467741130274,38.45053527571465
pt.ine.add.PTCONT.1375041,URB CASAS DE S PEDRO,,7200-131,CORVAL,-7.484775078803631,38.44516400608466
pt.ine.add.PTCONT.1375047,R HORTA DO MIRA,16,7200-072,CAMPO RMZ,-7.512830862405742,38.34209365780594
pt.ine.add.PTCONT.1375056,LG ROSSIO,10,7200-072,CAMPO RMZ,-7.512656636028443,38.34139283816344
pt.ine.add.PTCONT.1375057,TV VISTA ALEGRE,7,7200-179,MONSARAZ,-7.381573544436954,38.469378482352866
pt.ine.add.PTCONT.1375147,R MARIA JOÃO PIRES,,7200-204,REGUENGOS DE MONSARAZ,-7.529443267040773,38.427967903896715
pt.ine.add.PTCONT.1375148,R ÉVORA,32,7200-349,REGUENGOS DE MONSARAZ,-7.540783433254649,38.42552733037409
pt.ine.add.PTCONT.1375149,R CARIDADE,29,7200-456,REGUENGOS DE MONSARAZ,-7.5709796395810285,38.41469772545917
pt.ine.add.PTCONT.1375151,R MENDES,92,7200-302,REGUENGOS DE MONSARAZ,-7.52889875921582,38.422452548497716
pt.ine.add.PTCONT.1375153,R VIDEIRAS,,7200-175,MONSARAZ,-7.38017841266674,38.44335515451551
pt.ine.add.PTCONT.1375154,R 1 DE MAIO,57,7200-363,REGUENGOS DE MONSARAZ,-7.536519715944189,38.4254196064851
pt.ine.add.PTCONT.1375155,R SISMEIRINHOS,1,7200-530,CAMPINHO,-7.473596559957616,38.365697115255024
pt.ine.add.PTCONT.1375156,EN 381 MONTE DOS LAZAROS,,7200-202,REGUENGOS DE MONSARAZ,-7.5708058097549795,38.45926205464071
pt.ine.add.PTCONT.1375157,R NSA SRA DAS DORES,17,7200-531,CAMPINHO,-7.471691015636034,38.365334235788964
pt.ine.add.PTCONT.1375159,QTA COUTADA,,7200-400,REGUENGOS DE MONSARAZ,-7.5146008677431215,38.433403714404044
pt.ine.add.PTCONT.1375160,R S ROMÃO,12,7200-466,REGUENGOS DE MONSARAZ,-7.572495294808058,38.41414645472388
pt.ine.add.PTCONT.1375163,R OLIVAL,1,7200-177,MONSARAZ,-7.416991494128592,38.465512462645314
pt.ine.add.PTCONT.1375166,R PALMEIRA,6,7200-177,MONSARAZ,-7.418133245814246,38.46360064311083
pt.ine.add.PTCONT.1375167,R PASSAGEM DE NIVEL,16,7200-224,REGUENGOS DE MONSARAZ,-7.567020827181437,38.44733646467774
pt.ine.add.PTCONT.1375168,R ZE PREGO,18,7200-227,REGUENGOS DE MONSARAZ,-7.566752554234708,38.446160109437635
pt.ine.add.PTCONT.1375169,R ANTÓNIO JOSE DE ALMEIDA,8,7200-372,REGUENGOS DE MONSARAZ,-7.535421888458926,38.423851969574315
pt.ine.add.PTCONT.1375171,R COVALINHO,36,7200-378,REGUENGOS DE MONSARAZ,-7.532244708044886,38.4215772386609
pt.ine.add.PTCONT.1375173,R MOUZINHO DE ALBUQUERQUE,56,7200-390,REGUENGOS DE MONSARAZ,-7.536724754080161,38.424460445449505
pt.ine.add.PTCONT.1375174,R DEMOSTENES ESPANCA,38,7200-481,REGUENGOS DE MONSARAZ,-7.534865026012467,38.419216253845555
pt.ine.add.PTCONT.1375175,R ZE PREGO,13,7200-227,REGUENGOS DE MONSARAZ,-7.566392059613259,38.44643971285863
pt.ine.add.PTCONT.1375178,URB JOSÉ SARAMAGO,,7200-479,REGUENGOS DE MONSARAZ,-7.542515008547463,38.427358872633604
pt.ine.add.PTCONT.1375179,URB EIRA DA LUZ,,7200-257,REGUENGOS DE MONSARAZ,-7.527860802057486,38.425473389058006
pt.ine.add.PTCONT.1375180,R DR FRANCISCO SALLES GIAO,15,7200-305,REGUENGOS DE MONSARAZ,-7.5320313996690595,38.4246118365015
pt.ine.add.PTCONT.1375181,LOTEAM ROMEU ROSADO FERNANDES,,7200-400,REGUENGOS DE MONSARAZ,-7.54004683604913,38.42603005001372
pt.ine.add.PTCONT.1375182,CPO 25 DE ABRIL,38 A,7200-368,REGUENGOS DE MONSARAZ,-7.534910373857784,38.42048282603474
pt.ine.add.PTCONT.1375183,TV PRAÇA TOIROS,1,7200-395,REGUENGOS DE MONSARAZ,-7.534876319911705,38.420446618064716
pt.ine.add.PTCONT.1375185,R MENDES,54,7200-302,REGUENGOS DE MONSARAZ,-7.529800483195788,38.42357358331057
pt.ine.add.PTCONT.1375186,TV CANTO DAS ROSAS,10,7200-535,CAMPINHO,-7.469680572082438,38.365999331167544
pt.ine.add.PTCONT.1375187,R PADRE MORAIS,17,7200-508,CAMPINHO,-7.468894144854184,38.36566156058682
pt.ine.add.PTCONT.1375190,R CONVENTO,,7200-173,MONSARAZ,-7.375339295983626,38.45264810058
pt.ine.add.PTCONT.1375222,R DR FRANCISCO SALLES GIAO,28,7200-304,REGUENGOS DE MONSARAZ,-7.532678343648671,38.42452525057709
pt.ine.add.PTCONT.1375749,R MONTE ARRIBA,S,7200-072,CAMPO RMZ,-7.512108182387403,38.34172686744092
pt.ine.add.PTCONT.1375750,R LARGA,27,7200-072,CAMPO RMZ,-7.512192561776521,38.3414134106694
pt.ine.add.PTCONT.1375754,R LARGA,13,7200-072,CAMPO RMZ,-7.511647315140109,38.340969098695744
pt.ine.add.PTCONT.1375755,R LARGA,17,7200-072,CAMPO RMZ,-7.51177220759237,38.34107786426272
pt.ine.add.PTCONT.1375759,R DEFESA,35,7200-072,CAMPO RMZ,-7.510518030159135,38.33926948278683
pt.ine.add.PTCONT.1375770,R ESCOLA,19,7200-072,CAMPO RMZ,-7.511009653785077,38.33795682885409
pt.ine.add.PTCONT.1375780,R NSA SRA DE FÁTIMA,16,7200-082,CORVAL,-7.469322656615143,38.48770212898387
pt.ine.add.PTCONT.1375781,R ALEGRIA,45,7200-082,CORVAL,-7.470305137963345,38.48690303564711
pt.ine.add.PTCONT.1375786,R ALEGRIA,4,7200-082,CORVAL,-7.471835861323729,38.48610383956228
pt.ine.add.PTCONT.1375787,R NOVA,31,7200-082,CORVAL,-7.470160234549914,38.482984461183605
pt.ine.add.PTCONT.1375794,R POÇO,8,7200-072,CAMPO RMZ,-7.512949257881141,38.341292296444934
pt.ine.add.PTCONT.1375795,R BAIRRO SANTO ANTONIO,13,7200-082,CORVAL,-7.473196551268149,38.48394048624711
pt.ine.add.PTCONT.1375802,R POÇO NOVO,3,7200-179,MONSARAZ,-7.381717712141899,38.46722833252741
pt.ine.add.PTCONT.1375874,R VIRGILIO DURÃO,18,7200-481,REGUENGOS DE MONSARAZ,-7.534996019282322,38.41891449415447
pt.ine.add.PTCONT.1375875,,,7200-399,REGUENGOS DE MONSARAZ,-7.538216484551752,38.39852779445813
pt.ine.add.PTCONT.1375876,BR DR JOSE SERETO,21,7200-398,REGUENGOS DE MONSARAZ,-7.54121470554618,38.42506986901704
pt.ine.add.PTCONT.1375877,R MENDES,100,7200-302,REGUENGOS DE MONSARAZ,-7.528781240599637,38.422208043799266
pt.ine.add.PTCONT.1375878,R TOMAZ RIBEIRO,8,7200-394,REGUENGOS DE MONSARAZ,-7.531881964619261,38.42171619871517
pt.ine.add.PTCONT.1375879,R MENDES,,7200-302,REGUENGOS DE MONSARAZ,-7.52137397118831,38.412512462949955
pt.ine.add.PTCONT.1375881,R ANTERO DE QUENTAL,2,7200-274,REGUENGOS DE MONSARAZ,-7.533739375189694,38.42643291723302
pt.ine.add.PTCONT.1375885,MTE CAMINHO RURAL,,7200-175,MONSARAZ,-7.363643962102072,38.440662317686204
pt.ine.add.PTCONT.1375887,R GONÇALVES CRESPO,15,7200-384,REGUENGOS DE MONSARAZ,-7.533022036073284,38.422486688957
pt.ine.add.PTCONT.1375889,R CARIDADE,21A,7200-339,REGUENGOS DE MONSARAZ,-7.53589365232382,38.42585027909778
pt.ine.add.PTCONT.1375895,R VELHA,36,7200-231,REGUENGOS DE MONSARAZ,-7.56457762235615,38.447170174303835
pt.ine.add.PTCONT.1375896,TV CANTO,1,7200-478,REGUENGOS DE MONSARAZ,-7.568639590889409,38.411530763127
pt.ine.add.PTCONT.1375897,R JULIO DINIS,20A,7200-386,REGUENGOS DE MONSARAZ,-7.533333002102436,38.42205878651826
pt.ine.add.PTCONT.1375899,R DR JOSE PIRES GONÇALVES,2,7200-356,REGUENGOS DE MONSARAZ,-7.5375475670832,38.42754704717073
pt.ine.add.PTCONT.1375900,R FORNO,4,7200-470,REGUENGOS DE MONSARAZ,-7.568738839534226,38.411317755303976
pt.ine.add.PTCONT.1375901,R TRAVESSA,14,7200-460,REGUENGOS DE MONSARAZ,-7.568154595710431,38.410993086217054
pt.ine.add.PTCONT.1375904,R MACAU,22,7200-350,REGUENGOS DE MONSARAZ,-7.538426387412279,38.42791093594911
pt.ine.add.PTCONT.1375905,R D AMELIA ROJAO CAYOLA BASTOS,3,7200-380,REGUENGOS DE MONSARAZ,-7.534116618043075,38.420956543819045
pt.ine.add.PTCONT.1375906,R D AMELIA ROJAO CAYOLA BASTOS,5,7200-380,REGUENGOS DE MONSARAZ,-7.534300305964717,38.42086707739618
pt.ine.add.PTCONT.1375908,R MARIA INACIA VOGADO PERDIGAO,24,7200-405,REGUENGOS DE MONSARAZ,-7.539763025168689,38.423158239686956
pt.ine.add.PTCONT.1375909,LG FONTE DA LIBERDADE,3,7200-369,REGUENGOS DE MONSARAZ,-7.535166370096215,38.42297999432578
pt.ine.add.PTCONT.1375912,R JOÃO DE DEUS,41,7200-357,REGUENGOS DE MONSARAZ,-7.535323555049342,38.42763682859047
pt.ine.add.PTCONT.1375913,R AREAS DE BAIXO,20,7200-285,REGUENGOS DE MONSARAZ,-7.53185272606284,38.423277840570464
pt.ine.add.PTCONT.1375920,LG D JOÃO DA CAMARA,,7200-261,REGUENGOS DE MONSARAZ,-7.534782363126341,38.42628366619961
pt.ine.add.PTCONT.1375933,R CARLOS PAREDES,,7200-482,REGUENGOS DE MONSARAZ,-7.526652630704947,38.4261607992303
pt.ine.add.PTCONT.1375934,R ANTÓNIO GOMES MARCELINO,,7200-480,REGUENGOS DE MONSARAZ,-7.54233722086895,38.42950200559272
pt.ine.add.PTCONT.1375943,BR DR JOSE SERETO,13,7200-398,REGUENGOS DE MONSARAZ,-7.541945437811778,38.42511066275149
pt.ine.add.PTCONT.1375944,R MENDES,11A,7200-302,REGUENGOS DE MONSARAZ,-7.52138458481557,38.41261161230894
pt.ine.add.PTCONT.1375945,R ZE PREGO,5,7200-227,REGUENGOS DE MONSARAZ,-7.566252984376474,38.44664623575738
pt.ine.add.PTCONT.1375958,COURELAS DE VAL ROMEIRA,,7200-082,CORVAL,-7.484601451103297,38.49402153806956
pt.ine.add.PTCONT.1375970,R ALEGRIA,25,7200-179,MONSARAZ,-7.382905164462626,38.47001785318248
pt.ine.add.PTCONT.1375982,R SANTO ANTÓNIO,1,7200-525,CAMPINHO,-7.4704045512838855,38.36314770121853
pt.ine.add.PTCONT.1376003,R STO ANTÓNIO DO BALDIO,5,7200-133,CORVAL,-7.4815091965871225,38.45050035321472
pt.ine.add.PTCONT.1376004,R STO ANTÓNIO DO BALDIO,1,7200-081,CORVAL,-7.497565589126712,38.4600767549975
pt.ine.add.PTCONT.1376006,R BAIRRO DE SANTO ANTONIO,11,7200-082,CORVAL,-7.473196551268149,38.48394048624711
pt.ine.add.PTCONT.1376011,R PEDRO ÁLVARES CABRAL,10,7200-317,REGUENGOS DE MONSARAZ,-7.535263621717365,38.42653564775194
pt.ine.add.PTCONT.1376053,R MARIA INACIA VOGADO PERDIGAO,3,7200-405,REGUENGOS DE MONSARAZ,-7.538317944668954,38.42379458999322
pt.ine.add.PTCONT.1376093,R COVALINHO,34,7200-378,REGUENGOS DE MONSARAZ,-7.533053883872707,38.42329486948338
pt.ine.add.PTCONT.1376094,R DR MANUEL CAETANO FRAZAO,49,7200-381,REGUENGOS DE MONSARAZ,-7.533532605440869,38.420926211956406
pt.ine.add.PTCONT.1376095,R JOSE MESTRE BATISTA,1,7200-368,REGUENGOS DE MONSARAZ,-7.535124384637665,38.420203104174924
pt.ine.add.PTCONT.1376096,R ROSAS,8,7200-464,REGUENGOS DE MONSARAZ,-7.569061080915724,38.41430781321796
pt.ine.add.PTCONT.1376555,R COMPRIDA,139,7200-072,CAMPO RMZ,-7.513371946379727,38.34094933587804
pt.ine.add.PTCONT.1376556,R DR ALVES DURÃO,3,7200-072,CAMPO RMZ,-7.511978601544506,38.340518671123505
pt.ine.add.PTCONT.1376557,R CAMPINHO,9,7200-072,CAMPO RMZ,-7.507440763383124,38.340649445280846
pt.ine.add.PTCONT.1376558,LG LIBERDADE,6,7200-072,CAMPO RMZ,-7.509742503598961,38.338003204204405
pt.ine.add.PTCONT.1376559,R ALEGRIA,26,7200-082,CORVAL,-7.471169415239986,38.486289251763246
pt.ine.add.PTCONT.1376560,R LADEIRA,20,7200-082,CORVAL,-7.472089864665637,38.48464591066631
pt.ine.add.PTCONT.1376561,R PALMEIRA,16,7200-177,MONSARAZ,-7.418500045181435,38.46358486429411
pt.ine.add.PTCONT.1376562,R FONTE,,7200-181,MONSARAZ,-7.38146252234384,38.45376052664125
pt.ine.add.PTCONT.1376563,R CELEIROS,,7200-175,MONSARAZ,-7.380177910183295,38.44426071236686
pt.ine.add.PTCONT.1376564,TV CANASTRA,,7200-175,MONSARAZ,-7.380845870739832,38.44265339841622
pt.ine.add.PTCONT.1376565,,,7200-569,CAMPINHO,-7.4705730921680145,38.37352654786882
pt.ine.add.PTCONT.1376585,MTE CAVALEIRA NOVA,,7200-081,CORVAL,-7.509043654811307,38.470939598240676
pt.ine.add.PTCONT.1376586,MTE BARROQUEIRA,C,7200-084,CORVAL,-7.474917326465655,38.46863584363309
pt.ine.add.PTCONT.1376587,R ESCOLA,1,7200-081,CORVAL,-7.497223236961589,38.459921753478376
pt.ine.add.PTCONT.1376588,R CIMA,3,7200-129,CORVAL,-7.483914323790835,38.452007806699186
pt.ine.add.PTCONT.1376589,R DR JOSE GARCIA DA COSTA,34,7200-139,CORVAL,-7.483719488928956,38.44929666871918
pt.ine.add.PTCONT.1376590,R CONDE,6,7200-134,CORVAL,-7.488194321395461,38.448503575229594
pt.ine.add.PTCONT.1376591,R ULTRAMAR,14,7200-355,REGUENGOS DE MONSARAZ,-7.539233910844111,38.428071981236464
pt.ine.add.PTCONT.1376592,R MARIA VALEJO,,7200-323,REGUENGOS DE MONSARAZ,-7.535295259819322,38.4283343908049
pt.ine.add.PTCONT.1376593,R MACAU,36,7200-350,REGUENGOS DE MONSARAZ,-7.537796586164449,38.4282536718491
pt.ine.add.PTCONT.1376594,R MOUZINHO DE ALBUQUERQUE,6,7200-390,REGUENGOS DE MONSARAZ,-7.538091797330155,38.42612916896074
pt.ine.add.PTCONT.1376616,R FERRAGIAL,65,7200-072,CAMPO RMZ,-7.5153326225147,38.34206060018043
pt.ine.add.PTCONT.1376617,TV VALADAS,1,7200-179,MONSARAZ,-7.382447720816733,38.47052921470893
pt.ine.add.PTCONT.1376618,LG DR JOSE GARCIA DA COSTA,2,7200-263,REGUENGOS DE MONSARAZ,-7.533586678681115,38.42653534321713
pt.ine.add.PTCONT.1376619,BR 14 FOGOS,,7200-220,REGUENGOS DE MONSARAZ,-7.564756875054893,38.44595605321005
pt.ine.add.PTCONT.1376620,R TIMOR,5,7200-353,REGUENGOS DE MONSARAZ,-7.539709259823421,38.42762734928104
pt.ine.add.PTCONT.1376621,R CONDE DE MONSARAZ,14,7200-281,REGUENGOS DE MONSARAZ,-7.5340206522161575,38.42451173136194
pt.ine.add.PTCONT.1376622,R COVALINHO,66,7200-378,REGUENGOS DE MONSARAZ,-7.532593409885018,38.42233574268131
pt.ine.add.PTCONT.1376635,R ENG AMARO DA COSTA,50,7200-382,REGUENGOS DE MONSARAZ,-7.533015573704956,38.419752456105094
pt.ine.add.PTCONT.1376651,R COMPRIDA,46,7200-072,CAMPO RMZ,-7.5120890482339755,38.33880035443907
pt.ine.add.PTCONT.1376655,R MOÇAMBIQUE,4,7200-351,REGUENGOS DE MONSARAZ,-7.539323384336626,38.42833368185903
pt.ine.add.PTCONT.1376665,R 11 DE MARCO,20,7200-361,REGUENGOS DE MONSARAZ,-7.540163432229459,38.43020644014066
pt.ine.add.PTCONT.1376686,R COVALINHO,28,7200-378,REGUENGOS DE MONSARAZ,-7.533102024213077,38.423407930690594
pt.ine.add.PTCONT.1376697,R AÇORES,,7200-479,REGUENGOS DE MONSARAZ,-7.5417773723044075,38.42726058306572
pt.ine.add.PTCONT.1376699,R SANTO ANTÓNIO,79,7200-525,CAMPINHO,-7.471761220991022,38.36242910018722
pt.ine.add.PTCONT.1376707,R SANTO ANTÓNIO,44,7200-072,CAMPO RMZ,-7.507841958318233,38.33921921021797
pt.ine.add.PTCONT.1376708,R JOÃO BIZARRO DE MORAIS,28,7200-322,REGUENGOS DE MONSARAZ,-7.538961014569352,38.428801761299084
pt.ine.add.PTCONT.1376736,R CARVALHO ARAÚJO,48,7200-279,REGUENGOS DE MONSARAZ,-7.536074335942735,38.42829321911307
pt.ine.add.PTCONT.1376769,R JOÃO DE DEUS,4,7200-357,REGUENGOS DE MONSARAZ,-7.537593406081591,38.425898452224345
pt.ine.add.PTCONT.1376770,R JOÃO DE DEUS,4,7200-357,REGUENGOS DE MONSARAZ,-7.537593406081591,38.425898452224345
pt.ine.add.PTCONT.1376779,R NSA SRA DE FÁTIMA,48,7200-082,CORVAL,-7.466973155643841,38.488719324016365
pt.ine.add.PTCONT.1376781,R BAIRRO DE SANTO ANTÓNIO,15,7200-082,CORVAL,-7.473082277142173,38.483903808725394
pt.ine.add.PTCONT.1376857,R COMPRIDA,89,7200-072,CAMPO RMZ,-7.512715084365177,38.33971153727386
pt.ine.add.PTCONT.1376858,R DR MANUEL FERNANDES RATINHO,,7200-140,CORVAL,-7.482634594414493,38.45145878009861
pt.ine.add.PTCONT.1376859,LG IGREJA,8,7200-081,CORVAL,-7.498384925111681,38.459405562303346
pt.ine.add.PTCONT.1376860,R AULA,11,7200-118,CORVAL,-7.482007876171931,38.45035745319442
pt.ine.add.PTCONT.1376907,PC DR MANUEL FIALHO RECTO,18,7200-114,CORVAL,-7.481645339299262,38.449562252151296
pt.ine.add.PTCONT.1376908,URB CASAS DE S PEDRO,,7200-131,CORVAL,-7.483635064707129,38.444736984841796
pt.ine.add.PTCONT.1376934,R ORADA,54,7200-179,MONSARAZ,-7.377985424075452,38.46473603235449
pt.ine.add.PTCONT.1376935,R FONTE,1,7200-177,MONSARAZ,-7.417593969424561,38.46367842641846
pt.ine.add.PTCONT.1376936,R BARRADA,,7200-181,MONSARAZ,-7.38251775277541,38.45484818319285
pt.ine.add.PTCONT.1376969,R VARANDAS,,7200-173,MONSARAZ,-7.377321112608705,38.45267563604151
pt.ine.add.PTCONT.1376968,R NOVA,,7200-173,MONSARAZ,-7.375830466206216,38.45276796329656
pt.ine.add.PTCONT.1376970,EM 514,,7200-175,MONSARAZ,-7.391318970756997,38.435967222011506
pt.ine.add.PTCONT.1376971,R ANTÓNIO FRANCISCO RIBEIRO,11,7200-336,REGUENGOS DE MONSARAZ,-7.5394801879407645,38.43016320652608
pt.ine.add.PTCONT.1376972,R MOÇAMBIQUE,6A,7200-351,REGUENGOS DE MONSARAZ,-7.539179426479299,38.42837930478928
pt.ine.add.PTCONT.1377006,URB JOSÉ SARAMAGO,,7200-479,REGUENGOS DE MONSARAZ,-7.54294091273954,38.42709076249463
pt.ine.add.PTCONT.1377007,URB JOSE SARAMAGO,,7200-479,REGUENGOS DE MONSARAZ,-7.542767967808895,38.427234027835816
pt.ine.add.PTCONT.1377038,R TIMOR,31,7200-353,REGUENGOS DE MONSARAZ,-7.540619993400958,38.42825046572487
pt.ine.add.PTCONT.1377058,R MOURAO,68,7200-293,REGUENGOS DE MONSARAZ,-7.533912910842347,38.42335620598178
pt.ine.add.PTCONT.1377059,R MOURAO,76,7200-293,REGUENGOS DE MONSARAZ,-7.534290262513701,38.42347049187825
pt.ine.add.PTCONT.1377060,R MOURAO,109 B,7200-294,REGUENGOS DE MONSARAZ,-7.5350052880929885,38.4227628973032
pt.ine.add.PTCONT.1377102,R MOURAO,49,7200-291,REGUENGOS DE MONSARAZ,-7.532503453916029,38.42377166840113
pt.ine.add.PTCONT.1377101,LG DR IGNACIO RAMALHO,1A,7200-262,REGUENGOS DE MONSARAZ,-7.532991741335083,38.42540068304851
pt.ine.add.PTCONT.1377137,MTE VALE MORENO,,7200-203,REGUENGOS DE MONSARAZ,-7.569656016386442,38.41558321641588
pt.ine.add.PTCONT.1377138,R CARIDADE,7,7200-456,REGUENGOS DE MONSARAZ,-7.571829135716931,38.41441352304636
pt.ine.add.PTCONT.1377139,R ESCOLA,61,7200-457,REGUENGOS DE MONSARAZ,-7.566973779204955,38.414489263689326
pt.ine.add.PTCONT.1377169,R CRAVOS,9,7200-472,REGUENGOS DE MONSARAZ,-7.569479175894348,38.411816788830365
pt.ine.add.PTCONT.1377170,R NSA SRA DAS DORES,19,7200-531,CAMPINHO,-7.471819881064274,38.3653312673722
pt.ine.add.PTCONT.1377381,R 25 DE ABRIL,1,7200-364,REGUENGOS DE MONSARAZ,-7.540845724293617,38.430299473080346
pt.ine.add.PTCONT.1377385,R LUIS FREITAS BRANCO,17,7200-387,REGUENGOS DE MONSARAZ,-7.533705999891842,38.42072891119704
pt.ine.add.PTCONT.1377388,R CAP SALGUEIRO MAIA,6,7200-200,REGUENGOS DE MONSARAZ,-7.5343278702981396,38.43001087335534
pt.ine.add.PTCONT.1377393,R COMPRIDA,55,7200-072,CAMPO RMZ,-7.5122126935956235,38.33872119341184
pt.ine.add.PTCONT.1377423,R MOÇAMBIQUE,32,7200-351,REGUENGOS DE MONSARAZ,-7.5374167904120615,38.42900865329633
pt.ine.add.PTCONT.1377424,R MOÇAMBIQUE,32 A,7200-351,REGUENGOS DE MONSARAZ,-7.5374167904120615,38.42900865329633
pt.ine.add.PTCONT.1377474,R TRAVESSA,11,7200-460,REGUENGOS DE MONSARAZ,-7.568236486151889,38.411135163982046
pt.ine.add.PTCONT.1377483,R MOURAO,10,7200-292,REGUENGOS DE MONSARAZ,-7.530162469711232,38.4248758650854
pt.ine.add.PTCONT.1377919,R FERRAGIAL,63,7200-072,CAMPO RMZ,-7.514457950803821,38.34134430591567
pt.ine.add.PTCONT.1377920,R S PEDRO,79,7200-132,CORVAL,-7.479864994783739,38.448003096997304
pt.ine.add.PTCONT.1377921,MTE SERRAS,,7200-085,CORVAL,-7.4872514604571485,38.516881450320824
pt.ine.add.PTCONT.1377922,QTA ROCHA,,7200-132,CORVAL,-7.47837915609457,38.44693585583308
pt.ine.add.PTCONT.1377926,HRD FARIZOA,,7200-071,CAMPO RMZ,-7.527856096229158,38.37524161759098
pt.ine.add.PTCONT.1377930,R ANTÓNIO JACINTO ROSA,,7200-115,CORVAL,-7.482775998848805,38.44728763159643
pt.ine.add.PTCONT.1377937,R PROF CÂNDIDO,48,7200-143,CORVAL,-7.481566036781202,38.44803326465904
pt.ine.add.PTCONT.1377940,R DR MANUEL FERNANDES RATINHO,15,7200-140,CORVAL,-7.482728608220584,38.4510663544611
pt.ine.add.PTCONT.1377946,R GRAVE,4,7200-123,CORVAL,-7.483098076435726,38.445533268870626
pt.ine.add.PTCONT.1377949,URB CASAS DE S PEDRO,,7200-131,CORVAL,-7.483464841230244,38.44513810842967
pt.ine.add.PTCONT.1377960,TV JANEIRO,1,7200-179,MONSARAZ,-7.382689483473207,38.470153851559196
pt.ine.add.PTCONT.1378057,R ULTRAMAR,23,7200-355,REGUENGOS DE MONSARAZ,-7.539485108288699,38.42816333924065
pt.ine.add.PTCONT.1378059,R VINHAS,4,7200-465,REGUENGOS DE MONSARAZ,-7.569112314734103,38.41482388252411
pt.ine.add.PTCONT.1378061,R JULIO DINIS,43,7200-386,REGUENGOS DE MONSARAZ,-7.532908895094555,38.42187257089312
pt.ine.add.PTCONT.1378062,EN 381 HONTE DO BARROCAL B,,7200-202,REGUENGOS DE MONSARAZ,-7.575465070382878,38.44932993404362
pt.ine.add.PTCONT.1378064,R PROF MOTA PINTO,24,7200-412,REGUENGOS DE MONSARAZ,-7.528688290833134,38.42786491857038
pt.ine.add.PTCONT.1378065,QTA COUTADA,,7200-400,REGUENGOS DE MONSARAZ,-7.513315186837145,38.42973045769685
pt.ine.add.PTCONT.1378066,R MACAU,77,7200-350,REGUENGOS DE MONSARAZ,-7.535603155810637,38.429615010027746
pt.ine.add.PTCONT.1378067,R MACAU,79,7200-350,REGUENGOS DE MONSARAZ,-7.535603155810637,38.429615010027746
pt.ine.add.PTCONT.1378068,R JULIO DINIS,27,7200-386,REGUENGOS DE MONSARAZ,-7.533531545462087,38.422439640016236
pt.ine.add.PTCONT.1378070,LG 1 DE MAIO,13,7200-333,REGUENGOS DE MONSARAZ,-7.540372869731521,38.43076028872307
pt.ine.add.PTCONT.1378071,R S ROMÃO,15,7200-466,REGUENGOS DE MONSARAZ,-7.57265690937521,38.413976065070536
pt.ine.add.PTCONT.1378072,R NOVA,71,7200-476,REGUENGOS DE MONSARAZ,-7.572120282082013,38.41410862604457
pt.ine.add.PTCONT.1378073,LG 1 DE MAIO,12,7200-333,REGUENGOS DE MONSARAZ,-7.540160412710873,38.4305990594844
pt.ine.add.PTCONT.1378076,R LISBOA,81,7200-289,REGUENGOS DE MONSARAZ,-7.53731135284684,38.42838137808519
pt.ine.add.PTCONT.1378077,CPO 25 DE ABRIL,,7200-368,REGUENGOS DE MONSARAZ,-7.535245718890135,38.42158643868199
pt.ine.add.PTCONT.1378078,R TRAVESSA,7,7200-460,REGUENGOS DE MONSARAZ,-7.568384831990286,38.4111989387938
pt.ine.add.PTCONT.1378079,R HEITOR RAMALHO QUINTAS,,7200-411,REGUENGOS DE MONSARAZ,-7.528686249810888,38.42696406935017
pt.ine.add.PTCONT.1378080,R S JOÃO DEUS,13,7200-376,REGUENGOS DE MONSARAZ,-7.5362260830469445,38.42479561294641
pt.ine.add.PTCONT.1378081,R S JOÃO DEUS,13,7200-376,REGUENGOS DE MONSARAZ,-7.5362260830469445,38.42479561294641
pt.ine.add.PTCONT.1378083,LG 13 DE JUNHO,2,7200-322,REGUENGOS DE MONSARAZ,-7.539383895655602,38.42919403945536
pt.ine.add.PTCONT.1378084,R FLORES,3,7200-461,REGUENGOS DE MONSARAZ,-7.568898284957727,38.41142662572088
pt.ine.add.PTCONT.1378087,R PORTEL,19D,7200-375,REGUENGOS DE MONSARAZ,-7.5374608162574654,38.42426853455743
pt.ine.add.PTCONT.1378088,R MARIA INACIA VOGADO PERDIGAO,5A,7200-405,REGUENGOS DE MONSARAZ,-7.5384462340863365,38.42370833574899
pt.ine.add.PTCONT.1378089,R DR FRANCISCO SALLES GIAO,17,7200-305,REGUENGOS DE MONSARAZ,-7.532109442877084,38.4245770125262
pt.ine.add.PTCONT.1378091,R OUTEIRO,,7200-181,MONSARAZ,-7.3822039329123745,38.454592652828225
pt.ine.add.PTCONT.1378092,R CAP SALGUEIRO MAIA,,7200-200,REGUENGOS DE MONSARAZ,-7.534077491764896,38.42982041478608
pt.ine.add.PTCONT.1378093,R ANTÓNIO GOMES MARCELINO,,7200-480,REGUENGOS DE MONSARAZ,-7.542519422754828,38.42962904333797
pt.ine.add.PTCONT.1378094,R TEÓFILO CARVALHO DOS SANTOS,62,7200-393,REGUENGOS DE MONSARAZ,-7.533988078920544,38.420092892569734
pt.ine.add.PTCONT.1378096,CPO 25 ABRIL,1,7200-368,REGUENGOS DE MONSARAZ,-7.5355978418767,38.420432281920654
pt.ine.add.PTCONT.1378097,CPO 25 ABRIL,2,7200-368,REGUENGOS DE MONSARAZ,-7.5355978418767,38.420432281920654
pt.ine.add.PTCONT.1378098,CPO 25 ABRIL,3,7200-368,REGUENGOS DE MONSARAZ,-7.5355978418767,38.420432281920654
pt.ine.add.PTCONT.1378099,R VARANDAS,,7200-173,MONSARAZ,-7.376927208394261,38.45277859733184
pt.ine.add.PTCONT.1378100,R MARIA VALEJO,,7200-323,REGUENGOS DE MONSARAZ,-7.534877674395247,38.42861819479102
pt.ine.add.PTCONT.1378101,CPO 25 ABRIL,5,7200-368,REGUENGOS DE MONSARAZ,-7.5355978418767,38.420432281920654
pt.ine.add.PTCONT.1378102,CPO 25 ABRIL,6,7200-368,REGUENGOS DE MONSARAZ,-7.5355978418767,38.420432281920654
pt.ine.add.PTCONT.1378103,CPO 25 ABRIL,7,7200-368,REGUENGOS DE MONSARAZ,-7.5355978418767,38.420432281920654
pt.ine.add.PTCONT.1378104,CPO 25 ABRIL,8,7200-368,REGUENGOS DE MONSARAZ,-7.5355978418767,38.420432281920654
pt.ine.add.PTCONT.1378105,CPO 25 ABRIL,9,7200-368,REGUENGOS DE MONSARAZ,-7.5355978418767,38.420432281920654
pt.ine.add.PTCONT.1378106,CPO 25 ABRIL,10,7200-368,REGUENGOS DE MONSARAZ,-7.5355978418767,38.420432281920654
pt.ine.add.PTCONT.1378107,CPO 25 ABRIL,11,7200-368,REGUENGOS DE MONSARAZ,-7.5355978418767,38.420432281920654
pt.ine.add.PTCONT.1378108,CPO 25 ABRIL,12,7200-368,REGUENGOS DE MONSARAZ,-7.5355978418767,38.420432281920654
pt.ine.add.PTCONT.1378109,CPO 25 ABRIL,13,7200-368,REGUENGOS DE MONSARAZ,-7.5355978418767,38.420432281920654
pt.ine.add.PTCONT.1378110,CPO 25 ABRIL,14,7200-368,REGUENGOS DE MONSARAZ,-7.5355978418767,38.420432281920654
pt.ine.add.PTCONT.1378111,CPO 25 ABRIL,15,7200-368,REGUENGOS DE MONSARAZ,-7.5355978418767,38.420432281920654
pt.ine.add.PTCONT.1378112,R MOURAO,88,7200-293,REGUENGOS DE MONSARAZ,-7.535543660257746,38.422634906530305
pt.ine.add.PTCONT.1378113,R 1 DE MAIO,,7200-363,REGUENGOS DE MONSARAZ,-7.537830191560473,38.42631773562132
pt.ine.add.PTCONT.1378116,R DR FRANCISCO SALLES GIAO,12A,7200-304,REGUENGOS DE MONSARAZ,-7.531861961146903,38.42492644863339
pt.ine.add.PTCONT.1378142,R FLORES,10,7200-461,REGUENGOS DE MONSARAZ,-7.5692785579433846,38.4112910481549
pt.ine.add.PTCONT.1378196,R CAMPINHO,,7200-072,CAMPO RMZ,-7.508893698183299,38.34044827230127
pt.ine.add.PTCONT.1378220,CPO 25 ABRIL,4,7200-368,REGUENGOS DE MONSARAZ,-7.5355978418767,38.420432281920654
pt.ine.add.PTCONT.1378224,R NSA SRA DE FÁTIMA,23,7200-082,CORVAL,-7.469436356391743,38.48780186575548
pt.ine.add.PTCONT.1390747,R NOVA,,7200-171,MONSARAZ,-7.400108410342801,38.46320383335958
pt.ine.add.PTCONT.1378672,R COMPRIDA,90,7200-072,CAMPO RMZ,-7.512887897725255,38.34035406989453
pt.ine.add.PTCONT.1378673,LG JOAQUIM ANTÓNIO TAPUM,10,7200-112,CORVAL,-7.480914518713291,38.45024996196943
pt.ine.add.PTCONT.1378674,R ANTÓNIO JOAQUIM FIALHO,15,7200-116,CORVAL,-7.481797811811689,38.450185971529486
pt.ine.add.PTCONT.1378676,MTE FIALHA,,7200-084,CORVAL,-7.475086589887658,38.45757442232838
pt.ine.add.PTCONT.1378684,MTE PEDRAS,,7200-083,CORVAL,-7.444435319147869,38.466496776381035
pt.ine.add.PTCONT.1378685,R DR ZECA AFONSO,55,7200-141,CORVAL,-7.483859679238466,38.44870150732978
pt.ine.add.PTCONT.1378695,R PROF CÂNDIDO,43,7200-143,CORVAL,-7.481417125085223,38.44794372465872
pt.ine.add.PTCONT.1378696,R TEÓFILO CONDE FIALHO,30,7200-101,CORVAL,-7.484370305124028,38.445666870048484
pt.ine.add.PTCONT.1378699,R OLOVAL,20,7200-136,CORVAL,-7.485042689908236,38.44986462201326
pt.ine.add.PTCONT.1378700,R ÉVORA,61,7200-130,CORVAL,-7.484138278267265,38.450098090006584
pt.ine.add.PTCONT.1378702,R CHELES,6,7200-082,CORVAL,-7.468603275568302,38.48990510906332
pt.ine.add.PTCONT.1378703,R MONSARAZ,8,7200-131,CORVAL,-7.482141278511482,38.44568498641261
pt.ine.add.PTCONT.1378707,R NOVA,104,7200-072,CAMPO RMZ,-7.511733142854955,38.34431176065494
pt.ine.add.PTCONT.1378708,R TRAS,,7200-082,CORVAL,-7.47067742886092,38.4866966646555
pt.ine.add.PTCONT.1378718,R NSA SRA DO ROSÁRIO,5,7200-072,CAMPO RMZ,-7.510801534444962,38.340892544249094
pt.ine.add.PTCONT.1378721,R LADEIRA,12,7200-082,CORVAL,-7.47206463986302,38.484898003851626
pt.ine.add.PTCONT.1378788,EM 514,,7200-175,MONSARAZ,-7.382319823589221,38.44119786243892
pt.ine.add.PTCONT.1378789,LG S BARTOLOMEU,,7200-175,MONSARAZ,-7.378917328944826,38.44566221096865
pt.ine.add.PTCONT.1378793,R DIREITA,,7200-175,MONSARAZ,-7.380356212513103,38.44387321258489
pt.ine.add.PTCONT.1378799,MTE COUTADA,100,7200-204,REGUENGOS DE MONSARAZ,-7.513806946917903,38.435174196840876
pt.ine.add.PTCONT.1378800,R MOÇAMBIQUE,41,7200-351,REGUENGOS DE MONSARAZ,-7.53648598948891,38.429499111962045
pt.ine.add.PTCONT.1378803,R PEDRO SOARES,6,7200-362,REGUENGOS DE MONSARAZ,-7.54035579960186,38.43092435475071
pt.ine.add.PTCONT.1378804,R MOÇAMBIQUE,34,7200-351,REGUENGOS DE MONSARAZ,-7.537244422259081,38.42907984514215
pt.ine.add.PTCONT.1378805,R SOCIEDADE,3,7200-519,CAMPINHO,-7.470332295796115,38.36485354323274
pt.ine.add.PTCONT.1378807,R JUSTINO GODINHO,23,7200-177,MONSARAZ,-7.415690957944847,38.46262738469782
pt.ine.add.PTCONT.1378808,BR PEDRA ESCORREGADIA,,7200-397,REGUENGOS DE MONSARAZ,-7.547195458684858,38.41927468591691
pt.ine.add.PTCONT.1378809,R LISBOA,78,7200-290,REGUENGOS DE MONSARAZ,-7.537408594908877,38.42861223661313
pt.ine.add.PTCONT.1378810,R AMÁLIA RODRIGUES,,7200-482,REGUENGOS DE MONSARAZ,-7.526701826824486,38.4271249657201
pt.ine.add.PTCONT.1378812,R BENTO DE JESUS CARAÇA,4,7200-338,REGUENGOS DE MONSARAZ,-7.540058015011333,38.429526527150415
pt.ine.add.PTCONT.1378813,R S JOÃO DEUS,75,7200-376,REGUENGOS DE MONSARAZ,-7.533685466963653,38.421827847239626
pt.ine.add.PTCONT.1378814,R S MARCOS DO CAMPO,13,7200-526,CAMPINHO,-7.471594436117187,38.36315442071425
pt.ine.add.PTCONT.1378816,R DR JOSE PIRES GONÇALVES,12,7200-356,REGUENGOS DE MONSARAZ,-7.537865192767299,38.42739840597598
pt.ine.add.PTCONT.1378817,R TRAVESSA,2,7200-460,REGUENGOS DE MONSARAZ,-7.568545468196042,38.4111546698835
pt.ine.add.PTCONT.1378818,R LARANJEIRAS,17,7200-171,MONSARAZ,-7.3992525279308445,38.46299393181231
pt.ine.add.PTCONT.1378821,HORTA DOS REVOREDOS RESIDAL 27,,7200-172,MONSARAZ,-7.397673117062213,38.456519488691065
pt.ine.add.PTCONT.1378822,R JOÃO DE DEUS,97,7200-357,REGUENGOS DE MONSARAZ,-7.533491972368326,38.429212234997195
pt.ine.add.PTCONT.1378823,R ZECA AFONSO,,7200-413,REGUENGOS DE MONSARAZ,-7.5296554100166215,38.42587001062984
pt.ine.add.PTCONT.1378824,R ANTÓNIO GIAO,7,7200-371,REGUENGOS DE MONSARAZ,-7.53434617278851,38.423654792998406
pt.ine.add.PTCONT.1378825,R ANTÓNIO GIAO,7,7200-371,REGUENGOS DE MONSARAZ,-7.53434617278851,38.423654792998406
pt.ine.add.PTCONT.1378826,R D AMELIA ROJAO,9,7200-501,CAMPINHO,-7.468681354311547,38.36766026195193
pt.ine.add.PTCONT.1378830,R VARANDAS,58,7200-173,MONSARAZ,-7.376587725854577,38.45265574606635
pt.ine.add.PTCONT.1378831,R VARANDAS,,7200-173,MONSARAZ,-7.377382987107995,38.45265298983508
pt.ine.add.PTCONT.1378832,R PADRE MORAIS,13,7200-508,CAMPINHO,-7.467569560390433,38.36536577406074
pt.ine.add.PTCONT.1378847,R PADRE EDUARDO MANSO DO INÁCIO,22,7200-480,REGUENGOS DE MONSARAZ,-7.5417166920588565,38.42976012280532
pt.ine.add.PTCONT.1378848,R JOSE MESTRE BATISTA,100,7200-368,REGUENGOS DE MONSARAZ,-7.534401873218826,38.41966045261553
pt.ine.add.PTCONT.1378866,R LADEIRA,7,7200-082,CORVAL,-7.471868660277707,38.48502301541911
pt.ine.add.PTCONT.1378875,R JOSE MARIA CARVALHO,,7200-410,REGUENGOS DE MONSARAZ,-7.526641104210254,38.427539043465835
pt.ine.add.PTCONT.1378879,R MOURAO,47,7200-291,REGUENGOS DE MONSARAZ,-7.532430654124591,38.423797654229766
pt.ine.add.PTCONT.1378888,PC SANTO ANTÓNIO,18,7200-266,REGUENGOS DE MONSARAZ,-7.532460884827669,38.42589343228154
pt.ine.add.PTCONT.1378917,R CARVALHO ARAÚJO,5S,7200-278,REGUENGOS DE MONSARAZ,-7.536694001051112,38.428810299084915
pt.ine.add.PTCONT.1379415,R COMPRIDA,110,7200-072,CAMPO RMZ,-7.513191047670601,38.34097154906621
pt.ine.add.PTCONT.1379416,BR NOVO,11,7200-179,MONSARAZ,-7.382500552726415,38.46811378608627
pt.ine.add.PTCONT.1379417,TV ORADA,9,7200-179,MONSARAZ,-7.381288829031999,38.468402767624234
pt.ine.add.PTCONT.1379422,ESTR BALDIO MONTE DA ESTRADA DO BALDIO,36,7200-084,CORVAL,-7.478558668327045,38.453693209291444
pt.ine.add.PTCONT.1379423,TV VAIS,45,7200-083,CORVAL,-7.467856678917176,38.48509038197528
pt.ine.add.PTCONT.1379427,R ESCOLA,17,7200-081,CORVAL,-7.496317596501336,38.460240754292734
pt.ine.add.PTCONT.1379437,R ANTÓNIO JACINTO ROSA,71,7200-115,CORVAL,-7.4827151901008895,38.44666821370549
pt.ine.add.PTCONT.1379449,R CRAVOS,10,7200-072,CAMPO RMZ,-7.510123359325126,38.337994074461044
pt.ine.add.PTCONT.1379457,R NSA SRA DA CONCEIÇÃO,29,7200-071,CAMPO RMZ,-7.513599358093145,38.367806528880294
pt.ine.add.PTCONT.1379458,R DR JOSE GARCIA DA COSTA,26,7200-139,CORVAL,-7.483319815426226,38.44936496483756
pt.ine.add.PTCONT.1379459,R PRIMAVERA,21,7200-126,CORVAL,-7.485902393354758,38.4472388999907
pt.ine.add.PTCONT.1379466,R SANTO ILDEFONSO,13,7200-082,CORVAL,-7.47040091643488,38.48134829590282
pt.ine.add.PTCONT.1379467,R ESPERANÇA,17,7200-179,MONSARAZ,-7.38172637855883,38.46970569729029
pt.ine.add.PTCONT.1379565,R NOVA,30,7200-476,REGUENGOS DE MONSARAZ,-7.570450104587165,38.41358713181431
pt.ine.add.PTCONT.1379548,LG DR BALTAZAR DE CARVALHO ALBERTO,,7200-204,REGUENGOS DE MONSARAZ,-7.530657840605105,38.427509312764165
pt.ine.add.PTCONT.1379549,R INDIA,4,7200-343,REGUENGOS DE MONSARAZ,-7.539510518817779,38.42742320408177
pt.ine.add.PTCONT.1379550,BR PADRE AMÉRICO,4,7200-250,REGUENGOS DE MONSARAZ,-7.528245602369742,38.42464659148701
pt.ine.add.PTCONT.1379552,MTE FRUCTUOSA,,7200-569,CAMPINHO,-7.44955362647937,38.38720955716932
pt.ine.add.PTCONT.1379553,,,7200-569,CAMPINHO,-7.449316191895566,38.37056679081392
pt.ine.add.PTCONT.1379557,BR S JOSE,,7200-251,REGUENGOS DE MONSARAZ,-7.528734878139347,38.423649169335434
pt.ine.add.PTCONT.1379558,R PORTEL,36,7200-375,REGUENGOS DE MONSARAZ,-7.5377186289786575,38.42423586000215
pt.ine.add.PTCONT.1379559,PC BERNARDINO JOSE CRUZ,17,7200-503,CAMPINHO,-7.470408916498378,38.36510549988012
pt.ine.add.PTCONT.1379562,R MESTRE PASSINHAS,,7200-410,REGUENGOS DE MONSARAZ,-7.526626036349275,38.4279713744808
pt.ine.add.PTCONT.1379563,R MESTRE PASSINHAS,,7200-410,REGUENGOS DE MONSARAZ,-7.526626036349275,38.4279713744808
pt.ine.add.PTCONT.1379564,R MOÇAMBIQUE,52,7200-351,REGUENGOS DE MONSARAZ,-7.535878937003043,38.42956530332541
pt.ine.add.PTCONT.1379569,R FLORES,7,7200-177,MONSARAZ,-7.416886694505092,38.46455508199222
pt.ine.add.PTCONT.1379572,R 11 DE MARCO,,7200-361,REGUENGOS DE MONSARAZ,-7.540485620020746,38.43037251242255
pt.ine.add.PTCONT.1379573,R MACAU,50,7200-350,REGUENGOS DE MONSARAZ,-7.537000704453329,38.4286832080374
pt.ine.add.PTCONT.1379575,R HEITOR RAMALHO QUINTAS,,7200-411,REGUENGOS DE MONSARAZ,-7.527066163968092,38.42737908910664
pt.ine.add.PTCONT.1379576,R MACAU,35,7200-350,REGUENGOS DE MONSARAZ,-7.537874944079607,38.428313609026475
pt.ine.add.PTCONT.1379577,LG SOCIEDADE,2,7200-453,REGUENGOS DE MONSARAZ,-7.568941979704053,38.41169709289278
pt.ine.add.PTCONT.1379578,R STA MARIA,21,7200-524,CAMPINHO,-7.47007154016768,38.362517459844874
pt.ine.add.PTCONT.1379582,TV LAGAR,7,7200-230,REGUENGOS DE MONSARAZ,-7.563560735074408,38.446325661881225
pt.ine.add.PTCONT.1379583,R JOAQUIM AGOSTINHO,10,7200-358,REGUENGOS DE MONSARAZ,-7.538410592246949,38.42720498556851
pt.ine.add.PTCONT.1379584,R JOAQUIM AGOSTINHO,12,7200-358,REGUENGOS DE MONSARAZ,-7.538410592246949,38.42720498556851
pt.ine.add.PTCONT.1379587,R LARANJEIRAS,16,7200-171,MONSARAZ,-7.399159452858616,38.46312948387483
pt.ine.add.PTCONT.1379588,R MOURAO,30 B,7200-292,REGUENGOS DE MONSARAZ,-7.532012660977882,38.42411245083123
pt.ine.add.PTCONT.1379589,R MOURAO,30 B,7200-292,REGUENGOS DE MONSARAZ,-7.532012660977882,38.42411245083123
pt.ine.add.PTCONT.1379592,LOTEAM ROMEU ROSADO FERNANDES,,7200-400,REGUENGOS DE MONSARAZ,-7.540120306840558,38.4259624236363
pt.ine.add.PTCONT.1379595,URB QUINTA CAPELA,1,7200-255,REGUENGOS DE MONSARAZ,-7.53311692393105,38.42699626097425
pt.ine.add.PTCONT.1379596,R PADRE MORAIS,9,7200-508,CAMPINHO,-7.468164520572116,38.36536914986662
pt.ine.add.PTCONT.1379598,R TEÓFILO CARVALHO DOS SANTOS,77,7200-393,REGUENGOS DE MONSARAZ,-7.533534484030834,38.419313693799005
pt.ine.add.PTCONT.1379622,R CONDE,3,7200-134,CORVAL,-7.488813840321093,38.448317946180175
pt.ine.add.PTCONT.1379625,R JOAQUIM ANTÓNIO PASSINHAS,,7200-323,REGUENGOS DE MONSARAZ,-7.534585011624182,38.42970589730576
pt.ine.add.PTCONT.1379665,R ALTO,11,7200-467,REGUENGOS DE MONSARAZ,-7.569088226508818,38.41203111352824
pt.ine.add.PTCONT.1379686,R SANTO ANTÓNIO,15,7200-072,CAMPO RMZ,-7.509442255354664,38.33991210179753
pt.ine.add.PTCONT.1379687,R SANTO ANTÓNIO,6,7200-072,CAMPO RMZ,-7.510243505529162,38.34010464286804
pt.ine.add.PTCONT.1379688,MTE VENTO,,7200-082,CORVAL,-7.473295909356191,38.48184208515282
pt.ine.add.PTCONT.1379714,R ALEXANDRE HERCULANO,,7200-273,REGUENGOS DE MONSARAZ,-7.530564213377629,38.425361393789956
pt.ine.add.PTCONT.1379715,R ALEXANDRE HERCULANO,,7200-273,REGUENGOS DE MONSARAZ,-7.530564213377629,38.425361393789956
pt.ine.add.PTCONT.1379716,R ALEXANDRE HERCULANO,,7200-273,REGUENGOS DE MONSARAZ,-7.530564213377629,38.425361393789956
pt.ine.add.PTCONT.1379717,R ALEXANDRE HERCULANO,,7200-273,REGUENGOS DE MONSARAZ,-7.530564213377629,38.425361393789956
pt.ine.add.PTCONT.1379718,R ALEXANDRE HERCULANO,,7200-273,REGUENGOS DE MONSARAZ,-7.530564213377629,38.425361393789956
pt.ine.add.PTCONT.1379719,R ALEXANDRE HERCULANO,,7200-273,REGUENGOS DE MONSARAZ,-7.530564213377629,38.425361393789956
pt.ine.add.PTCONT.1379720,R ALEXANDRE HERCULANO,,7200-273,REGUENGOS DE MONSARAZ,-7.530564213377629,38.425361393789956
pt.ine.add.PTCONT.1379721,R ALEXANDRE HERCULANO,,7200-273,REGUENGOS DE MONSARAZ,-7.530564213377629,38.425361393789956
pt.ine.add.PTCONT.1379722,R ALEXANDRE HERCULANO,,7200-273,REGUENGOS DE MONSARAZ,-7.530564213377629,38.425361393789956
pt.ine.add.PTCONT.1379723,R ALEXANDRE HERCULANO,,7200-273,REGUENGOS DE MONSARAZ,-7.530564213377629,38.425361393789956
pt.ine.add.PTCONT.1379724,R ALEXANDRE HERCULANO,,7200-273,REGUENGOS DE MONSARAZ,-7.530564213377629,38.425361393789956
pt.ine.add.PTCONT.1379725,R ALEXANDRE HERCULANO,,7200-273,REGUENGOS DE MONSARAZ,-7.530564213377629,38.425361393789956
pt.ine.add.PTCONT.1379726,R ALEXANDRE HERCULANO,,7200-273,REGUENGOS DE MONSARAZ,-7.530564213377629,38.425361393789956
pt.ine.add.PTCONT.1379727,R ALEXANDRE HERCULANO,,7200-273,REGUENGOS DE MONSARAZ,-7.530564213377629,38.425361393789956
pt.ine.add.PTCONT.1379728,R ALEXANDRE HERCULANO,,7200-273,REGUENGOS DE MONSARAZ,-7.530564213377629,38.425361393789956
pt.ine.add.PTCONT.1379729,R ALEXANDRE HERCULANO,,7200-273,REGUENGOS DE MONSARAZ,-7.530564213377629,38.425361393789956
pt.ine.add.PTCONT.1379730,R ALEXANDRE HERCULANO,,7200-273,REGUENGOS DE MONSARAZ,-7.530564213377629,38.425361393789956
pt.ine.add.PTCONT.1379749,R ESCOLA,46,7200-457,REGUENGOS DE MONSARAZ,-7.567331804711005,38.41409461612516
pt.ine.add.PTCONT.1380210,R FRIA,20,7200-072,CAMPO RMZ,-7.512151714635163,38.34046242173969
pt.ine.add.PTCONT.1380216,R PROF CÂNDIDO,35,7200-143,CORVAL,-7.481421039927118,38.4482704837072
pt.ine.add.PTCONT.1380217,R NOVA,8,7200-072,CAMPO RMZ,-7.5113247727888375,38.34041712453743
pt.ine.add.PTCONT.1380233,R DR JOSE GARCIA DA COSTA,28,7200-139,CORVAL,-7.483409073682711,38.449360867306645
pt.ine.add.PTCONT.1380238,LG STA MARIA,11,7200-082,CORVAL,-7.469828065796894,38.48691315671884
pt.ine.add.PTCONT.1380240,R NOVA,5,7200-082,CORVAL,-7.47092461177141,38.4829817808641
pt.ine.add.PTCONT.1380317,R PROF MOTA PINTO,,7200-204,REGUENGOS DE MONSARAZ,-7.530353705154025,38.427278934138705
pt.ine.add.PTCONT.1380318,R LARANJEIRAS,8,7200-463,REGUENGOS DE MONSARAZ,-7.56941140305325,38.41464515032295
pt.ine.add.PTCONT.1380319,LG FORNO,10,7200-505,CAMPINHO,-7.473313409132388,38.365563654350645
pt.ine.add.PTCONT.1380321,R LISBOA,104,7200-290,REGUENGOS DE MONSARAZ,-7.538149088146213,38.42917683674415
pt.ine.add.PTCONT.1380322,R MOURAO,91,7200-294,REGUENGOS DE MONSARAZ,-7.534116391488943,38.42315558304735
pt.ine.add.PTCONT.1380324,R MACAU,67,7200-350,REGUENGOS DE MONSARAZ,-7.536220269556878,38.42920967166669
pt.ine.add.PTCONT.1380325,R 25 DE ABRIL,3,7200-364,REGUENGOS DE MONSARAZ,-7.540764479949385,38.43034752918106
pt.ine.add.PTCONT.1380326,R HORTAS,,7200-344,REGUENGOS DE MONSARAZ,-7.540094994095953,38.43117622689714
pt.ine.add.PTCONT.1380327,ESTR MENDES,,7200-256,REGUENGOS DE MONSARAZ,-7.524043165956141,38.41779635992455
pt.ine.add.PTCONT.1380332,R CRAVOS,13,7200-472,REGUENGOS DE MONSARAZ,-7.569547450561841,38.41187116851366
pt.ine.add.PTCONT.1380334,R ANTÓNIO JANEIRO,7,7200-337,REGUENGOS DE MONSARAZ,-7.53837902905334,38.427568374353825
pt.ine.add.PTCONT.1380337,R PADRE LUIS LOPES PERDIGAO,,7200-480,REGUENGOS DE MONSARAZ,-7.541029874894712,38.42972062054129
pt.ine.add.PTCONT.1380339,R GUINE,2A,7200-342,REGUENGOS DE MONSARAZ,-7.539612084376664,38.42664154146322
pt.ine.add.PTCONT.1380342,R MADEIRA,59,7200-479,REGUENGOS DE MONSARAZ,-7.541757283286948,38.42650548868951
pt.ine.add.PTCONT.1380343,TV CANTO DAS ROSAS,3,7200-535,CAMPINHO,-7.469897363100875,38.365807796343745
pt.ine.add.PTCONT.1380346,R ALEXANDRE LOPEZ BRAZ,,7200-480,REGUENGOS DE MONSARAZ,-7.542431659859483,38.42907378850454
pt.ine.add.PTCONT.1380347,R PADRE MORAIS,19,7200-508,CAMPINHO,-7.4686501388393465,38.36555221540655
pt.ine.add.PTCONT.1380352,R MANUEL AUGUSTO PAPANCA,,7200-480,REGUENGOS DE MONSARAZ,-7.5432184752230755,38.4289438950858
pt.ine.add.PTCONT.1380353,R 1 DE MAIO,,7200-363,REGUENGOS DE MONSARAZ,-7.537886616457473,38.42636298018644
pt.ine.add.PTCONT.1380354,R AREAS DE CIMA,15,7200-286,REGUENGOS DE MONSARAZ,-7.532264786072889,38.423224781225265
pt.ine.add.PTCONT.1380360,R NSA SRA FATIMA,6,7200-082,CORVAL,-7.469828065796894,38.48691315671884
pt.ine.add.PTCONT.1380382,R LISBOA,85,7200-290,REGUENGOS DE MONSARAZ,-7.5375152970332495,38.42853664433934
pt.ine.add.PTCONT.1380386,R CARLOS PAREDES,,7200-482,REGUENGOS DE MONSARAZ,-7.526822742686143,38.426359866963004
pt.ine.add.PTCONT.1380388,R DR FRANCISCO SALLES GIAO,43,7200-305,REGUENGOS DE MONSARAZ,-7.533135242153349,38.42438505862615
pt.ine.add.PTCONT.1380420,BR S JOSE,22,7200-251,REGUENGOS DE MONSARAZ,-7.527813320609528,38.42430203549276
pt.ine.add.PTCONT.1380421,R HEITOR RAMALHO QUINTAS,,7200-411,REGUENGOS DE MONSARAZ,-7.529167021617035,38.426311190615124
pt.ine.add.PTCONT.1380429,R SANTO ANTÓNIO,12,7200-072,CAMPO RMZ,-7.509270411920223,38.33973752175055
pt.ine.add.PTCONT.1380472,BR FIGUEIRINHA,4,7200-397,REGUENGOS DE MONSARAZ,-7.552621478620006,38.42698855214011
pt.ine.add.PTCONT.1380458,R CARVALHO ARAÚJO,76,7200-279,REGUENGOS DE MONSARAZ,-7.536754497861084,38.429037883892086
pt.ine.add.PTCONT.1380941,R DR ZECA AFONSO,20,7200-141,CORVAL,-7.482227193988723,38.44840737226677
pt.ine.add.PTCONT.1380946,LG IGREJA,5,7200-081,CORVAL,-7.498566649983515,38.459586715938244
pt.ine.add.PTCONT.1380949,R S PEDRO,74,7200-132,CORVAL,-7.480032417814694,38.4477918790162
pt.ine.add.PTCONT.1380965,TV S PEDRO,4,7200-071,CAMPO RMZ,-7.513498495935044,38.368031802014734
pt.ine.add.PTCONT.1380966,URB CASAS DE S PEDRO,,7200-131,CORVAL,-7.483308875597722,38.444979993393936
pt.ine.add.PTCONT.1380968,R NOVA,100,7200-072,CAMPO RMZ,-7.511631429489834,38.34416708336578
pt.ine.add.PTCONT.1380969,R NOVA,79,7200-072,CAMPO RMZ,-7.511782359137432,38.34390663253059
pt.ine.add.PTCONT.1380976,R NOVA,49,7200-082,CORVAL,-7.469968400194041,38.48227371490348
pt.ine.add.PTCONT.1380977,TV VISTA ALEGRE,11,7200-179,MONSARAZ,-7.381380921756873,38.46946760243672
pt.ine.add.PTCONT.1381029,R DIREITA,,7200-175,MONSARAZ,-7.3801252979116185,38.44405747101943
pt.ine.add.PTCONT.1381030,BR PADRE AMÉRICO,18,7200-250,REGUENGOS DE MONSARAZ,-7.529062751666668,38.42415533734025
pt.ine.add.PTCONT.1381031,R COVALINHO,69,7200-378,REGUENGOS DE MONSARAZ,-7.53257861197831,38.42254286306799
pt.ine.add.PTCONT.1381032,R JUNQUEIRA,17,7200-516,CAMPINHO,-7.470028663155247,38.365430611421594
pt.ine.add.PTCONT.1381033,R RIBEIRA,3,7200-517,CAMPINHO,-7.469886358070759,38.364764601180035
pt.ine.add.PTCONT.1381034,R TORRE,4,7200-520,CAMPINHO,-7.469682667586368,38.36485777595918
pt.ine.add.PTCONT.1381036,R SANTIAGO,,7200-175,MONSARAZ,-7.380857361344168,38.44362805152772
pt.ine.add.PTCONT.1381037,TV CADEIA,,7200-175,MONSARAZ,-7.380408607869936,38.443248532319714
pt.ine.add.PTCONT.1381038,BR PADRE AMÉRICO,,7200-250,REGUENGOS DE MONSARAZ,-7.529374476891251,38.423850653764234
pt.ine.add.PTCONT.1381041,R NSA SRA DAS DORES,21,7200-531,CAMPINHO,-7.472069483987776,38.36541030469312
pt.ine.add.PTCONT.1381042,TV LOPES,3,7200-536,CAMPINHO,-7.471964344070851,38.36525550994846
pt.ine.add.PTCONT.1381044,MTE CAMINHO RURAL,,7200-175,MONSARAZ,-7.365964081979743,38.449794056796634
pt.ine.add.PTCONT.1381045,R MESTRE PASSINHAS,113,7200-410,REGUENGOS DE MONSARAZ,-7.52629228315962,38.428167834138996
pt.ine.add.PTCONT.1381047,QTA MENDES,I7,7200-302,REGUENGOS DE MONSARAZ,-7.526426255646367,38.41999746386606
pt.ine.add.PTCONT.1381048,PAINEL ZONA MENDES,,7200-256,REGUENGOS DE MONSARAZ,-7.5219705670465915,38.41916387580818
pt.ine.add.PTCONT.1381049,R MACAU,76,7200-350,REGUENGOS DE MONSARAZ,-7.535669847466827,38.42940175801549
pt.ine.add.PTCONT.1381051,R PROF MOTA PINTO,,7200-412,REGUENGOS DE MONSARAZ,-7.530148702742729,38.42714275167137
pt.ine.add.PTCONT.1381052,R S JOÃO DEUS,58A,7200-376,REGUENGOS DE MONSARAZ,-7.534314461244036,38.422320991832656
pt.ine.add.PTCONT.1381053,R S JOÃO DEUS,58A,7200-376,REGUENGOS DE MONSARAZ,-7.534314461244036,38.422320991832656
pt.ine.add.PTCONT.1381054,R RIBEIRA,38,7200-517,CAMPINHO,-7.46996578467161,38.3637348780174
pt.ine.add.PTCONT.1381055,R PADRE LUIS LOPES PERDIGAO,14,7200-480,REGUENGOS DE MONSARAZ,-7.541380563411692,38.42974895802561
pt.ine.add.PTCONT.1381060,R VELHA,12,7200-231,REGUENGOS DE MONSARAZ,-7.565446577309227,38.44722788450054
pt.ine.add.PTCONT.1381061,TV LAGAR,15,7200-230,REGUENGOS DE MONSARAZ,-7.563725487715754,38.44612950423657
pt.ine.add.PTCONT.1381062,R HEITOR RAMALHO,53,7200-411,REGUENGOS DE MONSARAZ,-7.52879923708432,38.426919595933036
pt.ine.add.PTCONT.1381063,R MOUZINHO DE ALBUQUERQUE,47,7200-390,REGUENGOS DE MONSARAZ,-7.536674304375461,38.42459970739542
pt.ine.add.PTCONT.1381064,R ACTOR AUGUSTO MELO,6,7200-267,REGUENGOS DE MONSARAZ,-7.533796225312838,38.425053467466554
pt.ine.add.PTCONT.1381065,R GUADIANA,57,7200-527,CAMPINHO,-7.470884178813552,38.363249505777745
pt.ine.add.PTCONT.1381066,R TRAVESSA,6,7200-460,REGUENGOS DE MONSARAZ,-7.568408641377726,38.41108194221411
pt.ine.add.PTCONT.1381071,R MACAU,17,7200-350,REGUENGOS DE MONSARAZ,-7.538455596028002,38.42799414186949
pt.ine.add.PTCONT.1381079,R STA MARIA,8,7200-171,MONSARAZ,-7.399558926759128,38.46262100255137
pt.ine.add.PTCONT.1381080,R ANTÓNIO GOMES MARCELINO,37,7200-480,REGUENGOS DE MONSARAZ,-7.542426340369702,38.429808744654984
pt.ine.add.PTCONT.1381081,R 25 DE ABRIL,20,7200-531,CAMPINHO,-7.472884561643994,38.36598138298891
pt.ine.add.PTCONT.1381090,R MARIAS,,7200-173,MONSARAZ,-7.376007906967361,38.453136878732884
pt.ine.add.PTCONT.1381092,R VARANDAS,,7200-173,MONSARAZ,-7.377780865227325,38.452495194053654
pt.ine.add.PTCONT.1381093,R AREAS DE BAIXO,17,7200-285,REGUENGOS DE MONSARAZ,-7.531681113269123,38.423258942907204
pt.ine.add.PTCONT.1381098,R MOUZINHO DE ALBUQUERQUE,9,7200-390,REGUENGOS DE MONSARAZ,-7.5378585809204495,38.42602457028276
pt.ine.add.PTCONT.1381099,R AREAS DE CIMA,12,7200-286,REGUENGOS DE MONSARAZ,-7.532466128453022,38.423328894356494
pt.ine.add.PTCONT.1381101,ALDEIA CERROS,A,7200-203,REGUENGOS DE MONSARAZ,-7.602485902429622,38.39176461085827
pt.ine.add.PTCONT.1381115,R CARIDADE,23,7200-456,REGUENGOS DE MONSARAZ,-7.571356642045362,38.41454204279942
pt.ine.add.PTCONT.1381119,R MARIA JOÃO PIRES,,7200-204,REGUENGOS DE MONSARAZ,-7.529155702852675,38.428119567056754
pt.ine.add.PTCONT.1381128,R MESTRE PASSINHAS,113,7200-410,REGUENGOS DE MONSARAZ,-7.52629228315962,38.428167834138996
pt.ine.add.PTCONT.1381177,LG SANTO ANTÓNIO,2,7200-171,MONSARAZ,-7.399935995488083,38.46272245554893
pt.ine.add.PTCONT.1381178,R SANTO ANTÓNIO,22,7200-179,MONSARAZ,-7.383385505694538,38.47104056153365
pt.ine.add.PTCONT.1381199,R CRAVOS,7,7200-472,REGUENGOS DE MONSARAZ,-7.569399382268796,38.41177136226525
pt.ine.add.PTCONT.1381212,BR FIGUEIRINHA,16 A,7200-397,REGUENGOS DE MONSARAZ,-7.553203431805429,38.426889757717355
pt.ine.add.PTCONT.1381221,BR PEDRA ESCORREGADIA,,7200-397,REGUENGOS DE MONSARAZ,-7.546905417726609,38.41974167962264
pt.ine.add.PTCONT.1381262,R QUINTAIS,5,7200-071,CAMPO RMZ,-7.51280128370205,38.36928031140854
pt.ine.add.PTCONT.1381263,R FALCOEIRAS,7,7200-071,CAMPO RMZ,-7.5126705997512655,38.36880206655596
pt.ine.add.PTCONT.1381264,R NSA SRA DA CONCEIÇÃO,17,7200-071,CAMPO RMZ,-7.513417098987643,38.36756687272355
pt.ine.add.PTCONT.1381265,R NSA SRA ROSARIO,17,7200-072,CAMPO RMZ,-7.510529340569712,38.340620840067416
pt.ine.add.PTCONT.1381291,R ESCOLA,17,7200-072,CAMPO RMZ,-7.511147055741437,38.33793954036267
pt.ine.add.PTCONT.1381292,MTE ATALAIA A,A,7200-083,CORVAL,-7.458989851889547,38.4809678856412
pt.ine.add.PTCONT.1381332,R PROF GOMES,4,7200-144,CORVAL,-7.484610311899091,38.44956424652447
pt.ine.add.PTCONT.1381333,,,7200-150,CORVAL,-7.485542071310244,38.44782245992311
pt.ine.add.PTCONT.1381334,BR 25 DE ABRIL,42,7200-101,CORVAL,-7.484340466560164,38.44641049057104
pt.ine.add.PTCONT.1381335,URB CASAS DE S PEDRO,,7200-131,CORVAL,-7.483541677101281,38.44472931712354
pt.ine.add.PTCONT.1381336,MTE PACO,,7200-084,CORVAL,-7.474248430890416,38.39601462229111
pt.ine.add.PTCONT.1381337,MTE PACO,,7200-084,CORVAL,-7.474248430890416,38.39601462229111
pt.ine.add.PTCONT.1381372,TV VIOLETAS,8,7200-179,MONSARAZ,-7.382784485790937,38.4704331510101
pt.ine.add.PTCONT.1381373,R BAIRRO NOVO,23,7200-179,MONSARAZ,-7.381949907498663,38.46804057748167
pt.ine.add.PTCONT.1381374,R FLORES,21,7200-177,MONSARAZ,-7.416766805077368,38.46506066802934
pt.ine.add.PTCONT.1381375,BC SALVADORES,5,7200-177,MONSARAZ,-7.41655361672461,38.463446857153734
pt.ine.add.PTCONT.1381376,LG BOA VISTA,2,7200-177,MONSARAZ,-7.417473729077509,38.46309214459293
pt.ine.add.PTCONT.1381419,R FONTE,,7200-181,MONSARAZ,-7.380783054864898,38.4522541276427
pt.ine.add.PTCONT.1381420,R TANQUES,,7200-175,MONSARAZ,-7.379342052276702,38.445395883008445
pt.ine.add.PTCONT.1381421,R PARREIRAS,,7200-175,MONSARAZ,-7.381008186182635,38.442640236818626
pt.ine.add.PTCONT.1381468,R ULTRAMAR,16,7200-355,REGUENGOS DE MONSARAZ,-7.539294765968612,38.428152250192106
pt.ine.add.PTCONT.1381469,R CAP SALGUEIRO MAIA,2,7200-200,REGUENGOS DE MONSARAZ,-7.533861693352573,38.429603106956094
pt.ine.add.PTCONT.1381470,R DR MANUEL FIALHO CORREIA,13,7200-297,REGUENGOS DE MONSARAZ,-7.533424114016559,38.425711979873704
pt.ine.add.PTCONT.1381506,R HORTA DA SANTINHA,,7200-410,REGUENGOS DE MONSARAZ,-7.525580720854609,38.42698403111692
pt.ine.add.PTCONT.1381507,R HORTA DA SANTINHA,,7200-410,REGUENGOS DE MONSARAZ,-7.525445040412187,38.426776131634035
pt.ine.add.PTCONT.1381508,R CARIDADE,19,7200-339,REGUENGOS DE MONSARAZ,-7.535694212556633,38.42578872793676
pt.ine.add.PTCONT.1381509,R CARIDADE,21,7200-339,REGUENGOS DE MONSARAZ,-7.535694212556633,38.42578872793676
pt.ine.add.PTCONT.1381510,R CARIDADE,19,7200-339,REGUENGOS DE MONSARAZ,-7.535694212556633,38.42578872793676
pt.ine.add.PTCONT.1381547,R CARIDADE,19,7200-339,REGUENGOS DE MONSARAZ,-7.535694212556633,38.42578872793676
pt.ine.add.PTCONT.1381548,R S JOAO DEUS,14A,7200-376,REGUENGOS DE MONSARAZ,-7.536186403005799,38.42454412512326
pt.ine.add.PTCONT.1381549,R S JOAO DEUS,14,7200-376,REGUENGOS DE MONSARAZ,-7.536186403005799,38.42454412512326
pt.ine.add.PTCONT.1381550,CPO 25 DE ABRIL,46,7200-368,REGUENGOS DE MONSARAZ,-7.536989968181171,38.42110784531588
pt.ine.add.PTCONT.1381551,R MACAU,66,7200-350,REGUENGOS DE MONSARAZ,-7.535951255974024,38.42925172579462
pt.ine.add.PTCONT.1381576,R DR JOSE PIRES GONÇALVES,3,7200-356,REGUENGOS DE MONSARAZ,-7.537486150977622,38.42742592529736
pt.ine.add.PTCONT.1381577,R GUINE,8,7200-342,REGUENGOS DE MONSARAZ,-7.539827744064701,38.426876855189015
pt.ine.add.PTCONT.1381578,BR DR JOSE SERETO,3,7200-398,REGUENGOS DE MONSARAZ,-7.541568496490907,38.42457050903302
pt.ine.add.PTCONT.1381612,R JULIO DINIS,,7200-386,REGUENGOS DE MONSARAZ,-7.533688931912534,38.42254474951971
pt.ine.add.PTCONT.1381613,R S JOÃO DEUS,78,7200-376,REGUENGOS DE MONSARAZ,-7.53371455270217,38.42163039384366
pt.ine.add.PTCONT.1381614,R JULIO DINIS,24,7200-386,REGUENGOS DE MONSARAZ,-7.5332542672398715,38.42199653905933
pt.ine.add.PTCONT.1381615,R CARIDADE,15,7200-456,REGUENGOS DE MONSARAZ,-7.571611246708736,38.41445752213512
pt.ine.add.PTCONT.1381649,R TORRE,61,7200-520,CAMPINHO,-7.467572035171528,38.36509553034551
pt.ine.add.PTCONT.1381650,R SISMEIRINHOS,3,7200-530,CAMPINHO,-7.473653686253493,38.365706445178795
pt.ine.add.PTCONT.1381651,LG FORNO,7,7200-505,CAMPINHO,-7.4732688450716855,38.365362922697564
pt.ine.add.PTCONT.1381652,R S MARCOS,1,7200-527,CAMPINHO,-7.471336922699554,38.36355201050468
pt.ine.add.PTCONT.1381849,LOTEAM ROMEU ROSADO FERNANDES,,7200-400,REGUENGOS DE MONSARAZ,-7.539851643388821,38.42613518428593
pt.ine.add.PTCONT.1381877,R CARIDADE,19,7200-339,REGUENGOS DE MONSARAZ,-7.535694212556633,38.42578872793676
