id,street,house,postcode,city,lon,lat
pt.ine.add.PTCONT.3540033,R ANTÓNIO ABREU MACHADO,418,4795-034,AVES,-8.401994205323827,41.37229449164265
pt.ine.add.PTCONT.3540034,R STA CLARA,,4795-112,AVES,-8.409821566518188,41.369016473713316
pt.ine.add.PTCONT.3540035,LG FLOR DO MATO,63,4780-124,SANTO TIRSO,-8.440550860849417,41.34602315312329
pt.ine.add.PTCONT.3540036,R BOM JESUS DE S CRUZ,147,4780-145,SANTO TIRSO,-8.442714522159234,41.338670022247165
pt.ine.add.PTCONT.3540037,R NSA SRA VALINHAS,168,4825-150,SANTO TIRSO,-8.461338492293148,41.30745519249863
pt.ine.add.PTCONT.3540038,R PALMEIRO,598,4780-664,PALMEIRA STS,-8.49294120174756,41.36500489709064
pt.ine.add.PTCONT.3540039,R BOIEIROS,25,4795-276,RORIZ STS,-8.38064379745928,41.35281259897015
pt.ine.add.PTCONT.3540040,R GIL VICENTE,117,4795-299,RORIZ STS,-8.387955675552156,41.35249050172336
pt.ine.add.PTCONT.3540041,R SENHORA DA CONCEIÇÃO,42,4795-543,RORIZ STS,-8.389763458786845,41.34727312481856
pt.ine.add.PTCONT.3540042,R SENHORA DA CONCEIÇÃO,42,4795-543,RORIZ STS,-8.389763458786845,41.34727312481856
pt.ine.add.PTCONT.3540043,R CACHADAS,118,4795-221,RORIZ STS,-8.390016343951283,41.34473340964489
pt.ine.add.PTCONT.3540044,R BARREIRO,87,4780-406,SANTO TIRSO,-8.490176386508429,41.34460131214937
pt.ine.add.PTCONT.3540045,R BARREIRO,87,4780-406,SANTO TIRSO,-8.490176386508429,41.34460131214937
pt.ine.add.PTCONT.3540046,R CARVOEIRA DE CIMA,320,4780-417,SANTO TIRSO,-8.492627960848145,41.34717784833742
pt.ine.add.PTCONT.3540047,R ALTO DO MONTE,57,4795-517,SÃO SALVADOR DO CAMPO,-8.349219725727695,41.361033581797464
pt.ine.add.PTCONT.3540048,R ALTO DO MONTE,63,4795-517,SÃO SALVADOR DO CAMPO,-8.348215159826673,41.3608283704171
pt.ine.add.PTCONT.3540049,R MOURIGO,14,4795-876,SÃO SALVADOR DO CAMPO,-8.350339047572279,41.35980692198848
pt.ine.add.PTCONT.3540050,TV LAMEIRO DAS ROLAS,47,4795-733,SÃO TOMÉ NEGRELOS,-8.403294715938406,41.357272688938465
pt.ine.add.PTCONT.3540205,R MONTE,,4780-332,PALMEIRA STS,-8.48689867445371,41.368148033401695
pt.ine.add.PTCONT.3540189,R NOVA DO FACHO,555,4825-033,AGRELA STS,-8.472718161671013,41.26133884457372
pt.ine.add.PTCONT.3540190,R EMIGRANTES,,4825-022,AGRELA STS,-8.466830229051189,41.25800649600298
pt.ine.add.PTCONT.3540191,R PESO,889,4825-038,AGRELA STS,-8.480025723680857,41.26221747805684
pt.ine.add.PTCONT.3540192,R CAMPO GRANDE,100,4795-046,AVES,-8.399475477825963,41.37019340358199
pt.ine.add.PTCONT.3540193,R AGRA,5,4795-026,AVES,-8.400160593220091,41.368201922000985
pt.ine.add.PTCONT.3540194,R AGRA,5,4795-026,AVES,-8.400160593220091,41.368201922000985
pt.ine.add.PTCONT.3540195,R AGRA,5,4795-026,AVES,-8.400160593220091,41.368201922000985
pt.ine.add.PTCONT.3540196,R AGRA,5,4795-026,AVES,-8.400160593220091,41.368201922000985
pt.ine.add.PTCONT.3540197,R BERNARDINO GOMES,12,4795-841,AVES,-8.40829925145974,41.362312107655505
pt.ine.add.PTCONT.3540198,R 1 DE MAIO,32,4795-022,AVES,-8.421426723663968,41.36343248688731
pt.ine.add.PTCONT.3540199,R NSA SRA VALINHAS,816,4825-150,SANTO TIRSO,-8.455458425779518,41.30402322413057
pt.ine.add.PTCONT.3540200,R S TIAGO,370,4825-159,SANTO TIRSO,-8.462011574677367,41.30357248812017
pt.ine.add.PTCONT.3540201,R GUIMAREI,847,4825-189,SANTO TIRSO,-8.484917393019517,41.30872715960797
pt.ine.add.PTCONT.3540202,R GUIMAREI,839,4825-189,SANTO TIRSO,-8.484917393019517,41.30872715960797
pt.ine.add.PTCONT.3540203,TV AULA,292,4825-208,SANTO TIRSO,-8.488664086947576,41.303790387015006
pt.ine.add.PTCONT.3540204,R TABULO,125,4825-203,SANTO TIRSO,-8.481191988173066,41.297564349140416
pt.ine.add.PTCONT.3540206,R FERNANDO PESSOA,427,4780-328,PALMEIRA STS,-8.486127097245546,41.36471085994216
pt.ine.add.PTCONT.3540207,R VALE DE MOURA,952,4780-337,PALMEIRA STS,-8.497640306858298,41.358948394273824
pt.ine.add.PTCONT.3540208,R JOANE,781,4780-329,PALMEIRA STS,-8.50883452399151,41.36040706383459
pt.ine.add.PTCONT.3540209,TV VALE MOURA,,4780-337,PALMEIRA STS,-8.498371116900252,41.357136262929465
pt.ine.add.PTCONT.3540210,TV VALE DE MOURA,20,4780-337,PALMEIRA STS,-8.498371116900252,41.357136262929465
pt.ine.add.PTCONT.3540211,TV VALE DE MOURA,20,4780-337,PALMEIRA STS,-8.498371116900252,41.357136262929465
pt.ine.add.PTCONT.3540212,TV VALE DE MOURA,20,4780-337,PALMEIRA STS,-8.498371116900252,41.357136262929465
pt.ine.add.PTCONT.3540213,R JUNQUEIRA,99,4795-301,RORIZ STS,-8.36544042985202,41.34510078666542
pt.ine.add.PTCONT.3540214,R JUNQUEIRA,99,4795-301,RORIZ STS,-8.36544042985202,41.34510078666542
pt.ine.add.PTCONT.3540215,R MONTESSO,201,4795-308,RORIZ STS,-8.368170547572584,41.343429487207615
pt.ine.add.PTCONT.3540216,R BENTOS,29,4795-274,RORIZ STS,-8.365027040516592,41.33634964313041
pt.ine.add.PTCONT.3540217,R ACÁCIAS,74,4780-385,SANTO TIRSO,-8.491061494957744,41.3404116674584
pt.ine.add.PTCONT.3540218,R JUNCAL DE CIMA,176,4780-491,SANTO TIRSO,-8.4915222982175,41.33729482119104
pt.ine.add.PTCONT.3540219,R PADRE LUIS G MARTINS PINHEIRO,242,4795-668,SÃO TOMÉ NEGRELOS,-8.402642009814945,41.35548241070186
pt.ine.add.PTCONT.3540220,R AGRA DE GINJO,214,4795-568,SÃO TOMÉ NEGRELOS,-8.393393096758436,41.346589667480345
pt.ine.add.PTCONT.3540221,R STA ESCOLASTICA,,4795-690,SÃO TOMÉ NEGRELOS,-8.396142474355669,41.35580358727654
pt.ine.add.PTCONT.3540222,CC PADEIROS,,4795-555,SÃO TOMÉ NEGRELOS,-8.414692190930522,41.35098754078165
pt.ine.add.PTCONT.3540403,R TILIAS,8,4825-102,ÁGUA LONGA,-8.500180505476843,41.274985955429365
pt.ine.add.PTCONT.3540404,R LAMEIROES,113,4825-090,ÁGUA LONGA,-8.499169612726195,41.26494950427213
pt.ine.add.PTCONT.3540405,R SERRA,198,4825-117,ÁGUA LONGA,-8.487509637912753,41.266984917984956
pt.ine.add.PTCONT.3540406,R BARREIRO,188,4825-450,ÁGUA LONGA,-8.49169141615783,41.265702378085315
pt.ine.add.PTCONT.3540407,R S JOÃO,6,4795-115,AVES,-8.410370348823438,41.36032624435555
pt.ine.add.PTCONT.3540408,R JOSE PEREIRA DA COSTA,152,4780-307,LAMA STS,-8.459895793883556,41.362870474068494
pt.ine.add.PTCONT.3540409,R ETELVINA GOMES MARTINS,132,4780-304,LAMA STS,-8.459363700178287,41.364015497722
pt.ine.add.PTCONT.3540410,R ETELVINA GOMES MARTINS,132,4780-304,LAMA STS,-8.459363700178287,41.364015497722
pt.ine.add.PTCONT.3540411,AV JOÃO PAULO II,43,4795-166,REBORDÕES,-8.438691845057452,41.362406495937314
pt.ine.add.PTCONT.3540412,TV PADRE MANUEL GONÇALVES,41,4795-435,REBORDÕES,-8.426329335801423,41.35600075744037
pt.ine.add.PTCONT.3540413,R PLACIDO CARVALHO,154,4780-216,SANTO TIRSO,-8.468925674789482,41.32926829041207
pt.ine.add.PTCONT.3540414,TV BELA,73,4780-225,SANTO TIRSO,-8.495919971695024,41.33322019954556
pt.ine.add.PTCONT.3540415,R CAVADAS,27,4780-419,SANTO TIRSO,-8.47815712657921,41.344691998204034
pt.ine.add.PTCONT.3540416,R LOMBA,166,4780-496,SANTO TIRSO,-8.463251304769186,41.33865796657464
pt.ine.add.PTCONT.3540417,R LOMBA,163,4780-496,SANTO TIRSO,-8.462785606796459,41.33870432188184
pt.ine.add.PTCONT.3540418,R FONTISCOS,277,4780-470,SANTO TIRSO,-8.488567541243578,41.34096864567582
pt.ine.add.PTCONT.3540419,R CENTRAL,187,4795-591,SÃO TOMÉ NEGRELOS,-8.402989754637241,41.338409862493315
pt.ine.add.PTCONT.3540420,R CENTRAL,187,4795-591,SÃO TOMÉ NEGRELOS,-8.402989754637241,41.338409862493315
pt.ine.add.PTCONT.3540421,R PEDRADOS,134,4795-674,SÃO TOMÉ NEGRELOS,-8.399757040568055,41.3425412701312
pt.ine.add.PTCONT.3540628,R ESCADINHAS,147,4795-616,SÃO TOMÉ NEGRELOS,-8.401209051314426,41.33826095461362
pt.ine.add.PTCONT.3540612,R AGUA LONGA,43,4825-069,ÁGUA LONGA,-8.492952661459382,41.24980601565027
pt.ine.add.PTCONT.3540613,R ENG JOSE GUIMARÃES,89,4780-029,AREIAS STS,-8.475786039669694,41.36645288483708
pt.ine.add.PTCONT.3540614,R AMÉRICO COELHO FERNANDES,106,4780-014,AREIAS STS,-8.47328986929943,41.3622103818867
pt.ine.add.PTCONT.3540615,R RIO AVE,609,4795-107,AVES,-8.422450273977512,41.36246648449418
pt.ine.add.PTCONT.3540616,R AVES,249,4795-057,AVES,-8.430122240639976,41.362293871118766
pt.ine.add.PTCONT.3540617,R VALE DO LECA,1952,4825-239,LAMELAS,-8.471724374936194,41.286094278526484
pt.ine.add.PTCONT.3540618,R POMBAL,184,4825-252,LAMELAS,-8.474395929229354,41.27875699356356
pt.ine.add.PTCONT.3540619,R POUSADA,278,4825-250,LAMELAS,-8.474521166338537,41.28446526801556
pt.ine.add.PTCONT.3540620,TV FREITAS,292,4795-248,REBORDÕES,-8.443040467174683,41.35701944618289
pt.ine.add.PTCONT.3540621,LG FREITAS,48,4795-865,REBORDÕES,-8.442770649958174,41.355561514774024
pt.ine.add.PTCONT.3540622,R S JOÃO,170,4795-233,REBORDÕES,-8.439262586375843,41.35158209975112
pt.ine.add.PTCONT.3540623,R PADRE DOMINGOS COSTA MAIA,164,4780-211,SANTO TIRSO,-8.495242411162716,41.32951264714921
pt.ine.add.PTCONT.3540624,R S PEDRO,34,4780-726,SANTO TIRSO,-8.490168906453578,41.34104472554004
pt.ine.add.PTCONT.3540625,R S PEDRO,34,4780-726,SANTO TIRSO,-8.490168906453578,41.34104472554004
pt.ine.add.PTCONT.3540626,R S PEDRO,34,4780-726,SANTO TIRSO,-8.490168906453578,41.34104472554004
pt.ine.add.PTCONT.3540627,R S PEDRO,34,4780-726,SANTO TIRSO,-8.490168906453578,41.34104472554004
pt.ine.add.PTCONT.3540629,R JOAQUIM VIEIRA,,4780-604,SEQUEIRÓ,-8.461482543232552,41.37182497783238
pt.ine.add.PTCONT.3540824,R BOUCAS NOVAS,309,4795-820,VILARINHO STS,-8.335343517495565,41.37228685726771
pt.ine.add.PTCONT.3540807,R D AFONSO HENRIQUES,158,4780-020,AREIAS STS,-8.484292806489155,41.36587799338173
pt.ine.add.PTCONT.3540808,R DR ANTÓNIO AUGUSTO PIRES DE LIMA,103,4780-024,AREIAS STS,-8.479529753928347,41.364712900362655
pt.ine.add.PTCONT.3540809,R 25 DE ABRIL,644,4780-008,AREIAS STS,-8.482535285324333,41.3613002848666
pt.ine.add.PTCONT.3540810,PCT PONTE,37,4795-326,AVES,-8.406073045139589,41.3586707663059
pt.ine.add.PTCONT.3540811,PCT PONTE,37,4795-326,AVES,-8.406073045139589,41.3586707663059
pt.ine.add.PTCONT.3540812,PCT PONTE,37,4795-326,AVES,-8.406073045139589,41.3586707663059
pt.ine.add.PTCONT.3540813,PCT PONTE,37,4795-326,AVES,-8.406073045139589,41.3586707663059
pt.ine.add.PTCONT.3540814,PCT PONTE,37,4795-326,AVES,-8.406073045139589,41.3586707663059
pt.ine.add.PTCONT.3540815,PCT PONTE,37,4795-326,AVES,-8.406073045139589,41.3586707663059
pt.ine.add.PTCONT.3540816,PCT PONTE,37,4795-326,AVES,-8.406073045139589,41.3586707663059
pt.ine.add.PTCONT.3540817,R INDUSTRIA,261,4795-207,REBORDÕES,-8.417312093185668,41.35442965913063
pt.ine.add.PTCONT.3540818,R D MARIA PIA,38,4795-198,REBORDÕES,-8.425508739973425,41.35154583268209
pt.ine.add.PTCONT.3540819,R PADRE JOSE COSTA MAIA,301,4780-212,SANTO TIRSO,-8.496466301173133,41.32834726152245
pt.ine.add.PTCONT.3540820,R MONTALVAO MACHADO,259,4780-205,SANTO TIRSO,-8.483855719659497,41.32007559158957
pt.ine.add.PTCONT.3540821,R LAGOA,40,4780-492,SANTO TIRSO,-8.478926965517715,41.34115108547886
pt.ine.add.PTCONT.3540822,R LAGOA,40,4780-492,SANTO TIRSO,-8.478926965517715,41.34115108547886
pt.ine.add.PTCONT.3540823,R CANCELA,226,4795-804,VILARINHO STS,-8.336230537314322,41.37308665495294
pt.ine.add.PTCONT.3540825,PCT VILA BOA,12,4795-801,VILARINHO STS,-8.336472918023322,41.37031298086575
pt.ine.add.PTCONT.3540826,R ARRANHO,324,4795-818,VILARINHO STS,-8.341678671065322,41.372284553816215
pt.ine.add.PTCONT.3540827,R ARRANHO,324,4795-818,VILARINHO STS,-8.341678671065322,41.372284553816215
pt.ine.add.PTCONT.3540828,TV ALTO DE EIRO,37,4795-789,VILARINHO STS,-8.336684049170366,41.365189302168496
pt.ine.add.PTCONT.3540960,R QUINTAS,33,4780-122,SANTO TIRSO,-8.45275079519834,41.3486101022751
pt.ine.add.PTCONT.3540961,R QUINTAS,20,4780-122,SANTO TIRSO,-8.453265600602684,41.34881576497194
pt.ine.add.PTCONT.3540962,R PADROEIRO,77,4780-120,SANTO TIRSO,-8.447887485969755,41.34857848611559
pt.ine.add.PTCONT.3540963,R PEDRAS,136,4780-101,SANTO TIRSO,-8.448449765489142,41.35367324906143
pt.ine.add.PTCONT.3540964,R ALDEIA NOVA,418,4780-103,SANTO TIRSO,-8.446921620645238,41.35148043409317
pt.ine.add.PTCONT.3540965,R VILAR,35,4825-291,SANTO TIRSO,-8.463859874047793,41.31489438939391
pt.ine.add.PTCONT.3540966,TV PONTE NOVA,340,4825-283,SANTO TIRSO,-8.467070049600459,41.314425910205294
pt.ine.add.PTCONT.3540967,R CAIROS,8,4825-270,SANTO TIRSO,-8.436311232577992,41.32069687244713
pt.ine.add.PTCONT.3540968,AV 1 DE MAIO,660,4795-158,REBORDÕES,-8.41907838762995,41.348446581240765
pt.ine.add.PTCONT.3540969,TV DEVESINHA,181,4825-348,REFOJOS DE RIBA DE AVE,-8.457936449445569,41.295669414330135
pt.ine.add.PTCONT.3540970,R TRIBUNAL,153,4825-338,REFOJOS DE RIBA DE AVE,-8.449804717105481,41.29295480909986
pt.ine.add.PTCONT.3540971,AV LUÍS AREAL,1261,4780-165,SANTO TIRSO,-8.486313493541116,41.32180586926682
pt.ine.add.PTCONT.3540972,AV ABEL ALVES FIGUEIREDO,888,4780-163,SANTO TIRSO,-8.483636520742685,41.31705988105723
pt.ine.add.PTCONT.3540973,R PINTOS,52,4780-215,SANTO TIRSO,-8.482058002760247,41.31667750020249
pt.ine.add.PTCONT.3540974,R ACAMPAMENTO REGO,93,4780-234,SANTO TIRSO,-8.474384181548508,41.322310070900734
pt.ine.add.PTCONT.3540975,LG DR ANTÓNIO MIRANDA,115,4780-166,SANTO TIRSO,-8.471691560962508,41.32130055838743
pt.ine.add.PTCONT.3540976,R S BENTO DA BATALHA,1228,4780-547,SANTO TIRSO,-8.491013955585233,41.35354875178839
pt.ine.add.PTCONT.3540977,R QUINTAES,43,4795-423,SÃO MAMEDE NEGRELOS,-8.343267340431042,41.34965445616344
pt.ine.add.PTCONT.3540978,TV 3 DA RUA DE SANTO ISIDRO,152,4795-429,SÃO MAMEDE NEGRELOS,-8.342821834209492,41.352320475752066
pt.ine.add.PTCONT.3540979,TV 3 DA RUA DE SANTO ISIDRO,152,4795-429,SÃO MAMEDE NEGRELOS,-8.342821834209492,41.352320475752066
pt.ine.add.PTCONT.3540980,R RAPOSEIRAS,99,4795-834,VILARINHO STS,-8.333551911538162,41.364942686570025
pt.ine.add.PTCONT.3540981,R RAPOSEIRAS,107,4795-834,VILARINHO STS,-8.333551911538162,41.364942686570025
pt.ine.add.PTCONT.3540982,R RAPOSEIRAS,99,4795-834,VILARINHO STS,-8.333551911538162,41.364942686570025
pt.ine.add.PTCONT.3540983,R MANGUELA,472,4795-828,VILARINHO STS,-8.330079697851,41.35892496487268
pt.ine.add.PTCONT.3540984,R ALDEIA NOVA,466,4795-817,VILARINHO STS,-8.323065423004303,41.35508301442687
pt.ine.add.PTCONT.3540985,R ALDEIA NOVA,466,4795-817,VILARINHO STS,-8.323065423004303,41.35508301442687
pt.ine.add.PTCONT.3540986,R SALGUEIRINHOS,,4795-798,VILARINHO STS,-8.33122028819514,41.3527822308533
pt.ine.add.PTCONT.3540987,TV SALGUEIRINHOS,1,4795-798,VILARINHO STS,-8.330252487029526,41.35281990904014
pt.ine.add.PTCONT.3541111,R FONTE DA ESTRADA,24,4825-284,SANTO TIRSO,-8.436173193769697,41.31668139864381
pt.ine.add.PTCONT.3541112,R ALBINO SOUSA CRUZ,265,4825-288,SANTO TIRSO,-8.425953928214545,41.31755423894426
pt.ine.add.PTCONT.3541113,R ALBINO SOUSA CRUZ,265,4825-288,SANTO TIRSO,-8.425953928214545,41.31755423894426
pt.ine.add.PTCONT.3541114,TV CALVÁRIO,106,4825-423,REGUENGA,-8.449527678843083,41.27762146876797
pt.ine.add.PTCONT.3541115,R GUARDA,385,4825-391,REGUENGA,-8.464600551485649,41.27720988354796
pt.ine.add.PTCONT.3541116,R VAU,4,4780-561,SANTO TIRSO,-8.480174277731814,41.351051809732425
pt.ine.add.PTCONT.3541117,R VAU,4,4780-561,SANTO TIRSO,-8.47993630048842,41.351241612476926
pt.ine.add.PTCONT.3541118,R ALEXANDRE HERCULANO,186,4780-389,SANTO TIRSO,-8.489201683687211,41.35210471976766
pt.ine.add.PTCONT.3541119,TV TELHEIRAS,,4780-727,SANTO TIRSO,-8.509240419190258,41.34995203162147
pt.ine.add.PTCONT.3541120,R CIMO DE VILA,166,4795-403,SÃO MAMEDE NEGRELOS,-8.34266334043648,41.34761163106731
pt.ine.add.PTCONT.3541121,R VELHOS,189,4795-440,SÃO MAMEDE NEGRELOS,-8.360033979251527,41.35028892018747
pt.ine.add.PTCONT.3541122,R EIRA NOVA,132,4795-880,SÃO MAMEDE NEGRELOS,-8.356297580016914,41.34786512521882
pt.ine.add.PTCONT.3541123,R EIRA NOVA,132,4795-880,SÃO MAMEDE NEGRELOS,-8.356297580016914,41.34786512521882
pt.ine.add.PTCONT.3541124,R JOSE LUIS DIAS BARBOSA,296,4795-891,SÃO MAMEDE NEGRELOS,-8.349482020952292,41.342799835962346
pt.ine.add.PTCONT.3541287,R VISC DE CANTIM,,4825-420,REGUENGA,-8.454250693336512,41.27445692639579
pt.ine.add.PTCONT.3541288,R VISC DE CANTIM,626,4825-420,REGUENGA,-8.455684943293393,41.27486710927839
pt.ine.add.PTCONT.3541289,R SERRINHA,170,4795-346,RORIZ STS,-8.380504733263942,41.35395641496751
pt.ine.add.PTCONT.3541290,R SERRINHA,170,4795-346,RORIZ STS,-8.380504733263942,41.35395641496751
pt.ine.add.PTCONT.3541291,R ALTO DA BANDEIRA,791,4795-266,RORIZ STS,-8.38101952594936,41.35420742115274
pt.ine.add.PTCONT.3541292,R BOAVISTA,69,4795-393,SÃO MAMEDE NEGRELOS,-8.357794004051154,41.338263854935796
pt.ine.add.PTCONT.3541467,R ALTO DO PEDRO,121,4780-394,SANTO TIRSO,-8.487694555390599,41.345221262092
pt.ine.add.PTCONT.3541468,R BARREIRO,87,4780-406,SANTO TIRSO,-8.490176386508429,41.34460131214937
pt.ine.add.PTCONT.3541469,R BARREIRO,87,4780-406,SANTO TIRSO,-8.490176386508429,41.34460131214937
pt.ine.add.PTCONT.3541470,CC AGRELO,46,4795-446,SÃO MARTINHO CAMPO,-8.37221706815004,41.35871907512209
pt.ine.add.PTCONT.3541471,R QUINTINHA,49,4795-485,SÃO MARTINHO CAMPO,-8.373407288499335,41.35740200275713
pt.ine.add.PTCONT.3541652,R MONTE LOMBAO,60,4795-509,SÃO MARTINHO CAMPO,-8.36557816384844,41.353591354381265
pt.ine.add.PTCONT.3541653,R AMÉRICO CARNEIRO MIRRA,131,4780-261,SANTO TIRSO,-8.461265970506402,41.331091203354546
pt.ine.add.PTCONT.3544618,R S JOÃO,135,4795-233,REBORDÕES,-8.439776443555225,41.35158973573307
pt.ine.add.PTCONT.3544632,R S BENTO DA BATALHA,12,4780-547,SANTO TIRSO,-8.48516139080204,41.351847028013005
pt.ine.add.PTCONT.3544644,R VISC DE CANTIM,1078,4825-420,REGUENGA,-8.461044686665117,41.27502304655771
pt.ine.add.PTCONT.3544657,TV VALE DE MOURA,20,4780-337,PALMEIRA STS,-8.498371116900252,41.357136262929465
pt.ine.add.PTCONT.3544682,R D AFONSO HENRIQUES,158,4780-020,AREIAS STS,-8.484292806489155,41.36587799338173
pt.ine.add.PTCONT.3544694,PCT PONTE,37,4795-326,AVES,-8.406073045139589,41.3586707663059
pt.ine.add.PTCONT.3544695,R NASCENTE DO RIO LECA,,4825-286,SANTO TIRSO,-8.401487669371265,41.31882043674966
pt.ine.add.PTCONT.3544696,R HONRA,35,4795-190,REBORDÕES,-8.437778709930296,41.35880729546096
pt.ine.add.PTCONT.3544710,R B DA SOBREIRA,60,4795-434,SÃO MAMEDE NEGRELOS,-8.349817706824911,41.350353630779125
pt.ine.add.PTCONT.3544926,R CRUZ,199,4825-288,SANTO TIRSO,-8.422989634486813,41.317012490820794
pt.ine.add.PTCONT.3544927,R S BENTO DA BATALHA,12,4780-547,SANTO TIRSO,-8.48516139080204,41.351847028013005
pt.ine.add.PTCONT.3544937,R PONTE PAU,85,4825-042,AGRELA STS,-8.473963433460352,41.266746689310736
pt.ine.add.PTCONT.3544938,TV VALE DE MOURA,20,4780-337,PALMEIRA STS,-8.498371116900252,41.357136262929465
pt.ine.add.PTCONT.3544981,R CARVALHEIRAS,251,4795-047,AVES,-8.396300424180858,41.365347527658905
pt.ine.add.PTCONT.3544982,R JOSE PEREIRA DA COSTA,128,4780-307,LAMA STS,-8.459597013236694,41.362871322091095
pt.ine.add.PTCONT.3544983,TV JOSE CARDOSO MIRANDA,28,4780-228,SANTO TIRSO,-8.4892316865506,41.3356811960873
pt.ine.add.PTCONT.3545026,R ALMINHAS,108,4825-264,SANTO TIRSO,-8.41764463437422,41.33199966637878
pt.ine.add.PTCONT.3545051,LG ALMEIDA GARRETT,108,4780-005,AREIAS STS,-8.48278572658189,41.363433483048134
pt.ine.add.PTCONT.3545110,R CTR PASTORAL DE CENSE,25,4795-022,AVES,-8.421856739445662,41.36410448495007
pt.ine.add.PTCONT.3545166,TV BOCA,34,4795-785,VILARINHO STS,-8.3452572567721,41.36266168533599
pt.ine.add.PTCONT.3545167,R CHÃOS,1173,4795-287,RORIZ STS,-8.378826803728423,41.355814847764286
pt.ine.add.PTCONT.3545244,R BASÍLIO MACEDO,638,4780-177,SANTO TIRSO,-8.476695197935875,41.323419705093094
pt.ine.add.PTCONT.3545258,R SANTO ANTÓNIO,66,4825-111,ÁGUA LONGA,-8.499414341875706,41.25962724359398
pt.ine.add.PTCONT.3545273,R SANTO ANTÓNIO,40,4780-703,SANTO TIRSO,-8.462839501862305,41.32807033297809
pt.ine.add.PTCONT.3545374,R SILVA ARAÚJO,945,4795-120,AVES,-8.413709266523446,41.36139863851417
pt.ine.add.PTCONT.3545375,R ADELINO FRANCISCO ARAÚJO,122,4780-170,SANTO TIRSO,-8.483355224038391,41.33144029363305
pt.ine.add.PTCONT.3545376,R SILVA ARAÚJO,318,4795-120,AVES,-8.408948557079427,41.35758342285158
pt.ine.add.PTCONT.3545383,R SILVA ARAÚJO,1328,4795-120,AVES,-8.41563373348368,41.36423921077785
pt.ine.add.PTCONT.3545400,R JAIME SAMPAIO,75,4780-276,LAMA STS,-8.47075414372666,41.36181266729171
pt.ine.add.PTCONT.3545401,R JAIME SAMPAIO,75,4780-276,LAMA STS,-8.47075414372666,41.36181266729171
pt.ine.add.PTCONT.3545486,R S BENTO,583,4795-232,REBORDÕES,-8.433505465216749,41.34951733040844
pt.ine.add.PTCONT.3545487,R S BENTO,583,4795-232,REBORDÕES,-8.433505465216749,41.34951733040844
pt.ine.add.PTCONT.3545488,R ESCOLAS,205,4780-109,SANTO TIRSO,-8.450968267013273,41.350622946625414
pt.ine.add.PTCONT.3545489,R ESCOLAS,205,4780-109,SANTO TIRSO,-8.450968267013273,41.350622946625414
pt.ine.add.PTCONT.3545898,R CALVELOS,75,4825-490,SANTO TIRSO,-8.469762846783167,41.32018070155621
pt.ine.add.PTCONT.3545899,R CALVELOS,75,4825-490,SANTO TIRSO,-8.469762846783167,41.32018070155621
pt.ine.add.PTCONT.3545967,R NASCENTE DO RIO LECA,218,4825-286,SANTO TIRSO,-8.40055856292602,41.31942587550492
pt.ine.add.PTCONT.3546095,AV ABEL ALVES FIGUEIREDO,292,4780-163,SANTO TIRSO,-8.477829389378355,41.321057237280854
pt.ine.add.PTCONT.3546134,R STA EULÁLIA,420,4825-244,LAMELAS,-8.474876068744889,41.290713104609075
pt.ine.add.PTCONT.3546136,R STA EULÁLIA,388,4825-244,LAMELAS,-8.474719653165655,41.29047946073465
pt.ine.add.PTCONT.3549251,R BERNARDINO GOMES FERREIRA,350,4795-041,AVES,-8.397575738299553,41.38218215358082
pt.ine.add.PTCONT.3549252,R BERNARDINO GOMES FERREIRA,350,4795-041,AVES,-8.397575738299553,41.38218215358082
pt.ine.add.PTCONT.3549253,R CASAS NOVAS,98,4780-253,SANTO TIRSO,-8.451643792902232,41.33967212195638
pt.ine.add.PTCONT.3549254,R PADRE JACINTO MARQUES,2,4780-281,LAMA STS,-8.466700999814979,41.36148233364679
pt.ine.add.PTCONT.3549255,R BOCAS,76,4825-284,SANTO TIRSO,-8.437857204413277,41.31412878523516
pt.ine.add.PTCONT.3549256,R ALMINHAS DO HORTAL,142,4825-272,SANTO TIRSO,-8.416725783277045,41.31018495662692
pt.ine.add.PTCONT.3549259,R S JOSE,98,4795-116,AVES,-8.412373276226633,41.36478741194868
pt.ine.add.PTCONT.3549260,R S JOSE,98,4795-116,AVES,-8.412373276226633,41.36478741194868
pt.ine.add.PTCONT.3549261,R NARCISO JOSE MACHADO GUIMARÃES,,4795-089,AVES,-8.402145976353738,41.36561313602846
pt.ine.add.PTCONT.3549262,R BOM JESUS SANTA CRUZ,1090,4780-145,SANTO TIRSO,-8.437460981112123,41.3342090007963
pt.ine.add.PTCONT.3549263,R PRESA NOVA,146,4825-264,SANTO TIRSO,-8.416220960369742,41.33150795147329
pt.ine.add.PTCONT.3549264,R ALMINHAS,135,4825-264,SANTO TIRSO,-8.417846533876288,41.33172904405922
pt.ine.add.PTCONT.3549265,R ALMINHAS,135,4825-264,SANTO TIRSO,-8.417846533876288,41.33172904405922
pt.ine.add.PTCONT.3549269,R CONTIM,28,4825-019,AGRELA STS,-8.47753357026741,41.26029806055937
pt.ine.add.PTCONT.3549270,R FERNANDO PIRES LIMA,577,4780-031,AREIAS STS,-8.473383648792408,41.36185894678762
pt.ine.add.PTCONT.3549271,R S JOSE,103,4780-063,AREIAS STS,-8.473001871908494,41.36198613164781
pt.ine.add.PTCONT.3549272,R EMIGRANTES,145,4795-063,AVES,-8.40013986798744,41.37190263168502
pt.ine.add.PTCONT.3549273,AL ARNALDO GAMA,139,4795-001,AVES,-8.406327783631681,41.36528814214642
pt.ine.add.PTCONT.3549274,AL ARNALDO GAMA,139,4795-001,AVES,-8.406327783631681,41.36528814214642
pt.ine.add.PTCONT.3549275,AL ARNALDO GAMA,,4795-001,AVES,-8.406327783631681,41.36528814214642
pt.ine.add.PTCONT.3549276,AL ARNALDO GAMA,139,4795-001,AVES,-8.406327783631681,41.36528814214642
pt.ine.add.PTCONT.3549277,AL ARNALDO GAMA,,4795-001,AVES,-8.406327783631681,41.36528814214642
pt.ine.add.PTCONT.3549278,AL ARNALDO GAMA,139,4795-001,AVES,-8.406327783631681,41.36528814214642
pt.ine.add.PTCONT.3549279,AL ARNALDO GAMA,139,4795-001,AVES,-8.406327783631681,41.36528814214642
pt.ine.add.PTCONT.3549280,AL ARNALDO GAMA,,4795-001,AVES,-8.406327783631681,41.36528814214642
pt.ine.add.PTCONT.3549281,AL ARNALDO GAMA,149,4795-001,AVES,-8.406327783631681,41.36528814214642
pt.ine.add.PTCONT.3549282,AL ARNALDO GAMA,,4795-001,AVES,-8.406327783631681,41.36528814214642
pt.ine.add.PTCONT.3549283,R PARADA,327,4825-194,SANTO TIRSO,-8.484007826379544,41.30835176245003
pt.ine.add.PTCONT.3549284,R ROSSIO,96,4825-276,SANTO TIRSO,-8.415544675717124,41.32427931477499
pt.ine.add.PTCONT.3549304,R S TIAGO,1232,4825-159,SANTO TIRSO,-8.46912112675657,41.299878264924374
pt.ine.add.PTCONT.3549286,R ROMÃO,325,4795-110,AVES,-8.413608280216817,41.3629295738526
pt.ine.add.PTCONT.3549287,AV 4 DE ABRIL DE 1955,617,4795-024,AVES,-8.411925991357952,41.360799700987435
pt.ine.add.PTCONT.3549288,AV 4 DE ABRIL DE 1955,617,4795-024,AVES,-8.411925991357952,41.360799700987435
pt.ine.add.PTCONT.3549289,AL ARNALDO GAMA,,4795-001,AVES,-8.406327783631681,41.36528814214642
pt.ine.add.PTCONT.3549290,AL ARNALDO GAMA,,4795-001,AVES,-8.406327783631681,41.36528814214642
pt.ine.add.PTCONT.3549291,AL ARNALDO GAMA,149,4795-001,AVES,-8.406327783631681,41.36528814214642
pt.ine.add.PTCONT.3549292,R D EVA MACHADO GUIMARÃES,48,4795-060,AVES,-8.405255713864372,41.36328277892599
pt.ine.add.PTCONT.3549293,R ENCOSTA DA BELAVISTA,104,4825-442,SANTO TIRSO,-8.478966436699658,41.31021286659815
pt.ine.add.PTCONT.3549294,R GUIMAREI,4179,4825-189,SANTO TIRSO,-8.478833047382892,41.300785937675684
pt.ine.add.PTCONT.3549295,R 31 DE DEZEMBRO,31,4825-264,SANTO TIRSO,-8.419063535995297,41.32319913699603
pt.ine.add.PTCONT.3549296,R CERRADO,489,4825-497,SANTO TIRSO,-8.466441874699674,41.315364159713326
pt.ine.add.PTCONT.3549297,R PALMEIRO,592,4780-664,PALMEIRA STS,-8.491897525156304,41.36647581410635
pt.ine.add.PTCONT.3549299,R PANTANAS,22,4825-036,AGRELA STS,-8.486018967973955,41.26053348582954
pt.ine.add.PTCONT.3549300,R SOBRADELO,215,4825-118,ÁGUA LONGA,-8.493870886559108,41.26707321117826
pt.ine.add.PTCONT.3549301,R S TIAGO,446,4780-059,AREIAS STS,-8.477010733498343,41.36297367099487
pt.ine.add.PTCONT.3549302,R D EVA MACHADO GUIMARÃES,92,4795-060,AVES,-8.405768457241354,41.3630024396101
pt.ine.add.PTCONT.3549303,AV PARADELA,446,4795-005,AVES,-8.418221991019523,41.360298056299996
pt.ine.add.PTCONT.3549305,TV ESTRADA NACIONAL 105,7,4825-136,SANTO TIRSO,-8.471855844592373,41.297664234045385
pt.ine.add.PTCONT.3549306,R REAL,122,4825-199,SANTO TIRSO,-8.481493032324453,41.30477575596858
pt.ine.add.PTCONT.3549307,R SERRA,200,4825-201,SANTO TIRSO,-8.490735098772417,41.313499426557094
pt.ine.add.PTCONT.3549308,R REAL DE MOINHOS,526,4825-285,SANTO TIRSO,-8.460886417722069,41.31256182259231
pt.ine.add.PTCONT.3549312,R BOLOTA,34,4825-074,ÁGUA LONGA,-8.491958733839809,41.26657495213345
pt.ine.add.PTCONT.3549313,R LUVAZIM,217,4795-081,AVES,-8.397587318763826,41.36733447214795
pt.ine.add.PTCONT.3549314,R FONTE DO LOBO,240,4825-106,LAMELAS,-8.479491577497427,41.2853328286512
pt.ine.add.PTCONT.3549315,R CENTRAL,808,4825-264,SANTO TIRSO,-8.418650683590503,41.324388704892215
pt.ine.add.PTCONT.3549316,R 1 DE MAIO,151,4780-672,PALMEIRA STS,-8.487670236521625,41.36716421878022
pt.ine.add.PTCONT.3549317,R GABRIEL CARDOSO MIRANDA,264,4780-194,SANTO TIRSO,-8.488354378083224,41.334720469870696
pt.ine.add.PTCONT.3549323,R SANTO ANDRE,311,4795-113,AVES,-8.39932750830195,41.37201256231007
pt.ine.add.PTCONT.3549324,R NSA SRA DE FÁTIMA,51,4780-310,LAMA STS,-8.458461534247997,41.36045244841313
pt.ine.add.PTCONT.3549325,R LUIS DE CAMÕES,63,4825-288,SANTO TIRSO,-8.42058489161038,41.321493569556154
pt.ine.add.PTCONT.3549326,R MARIO BERNARDINO PEREIRA,158,4780-309,LAMA STS,-8.458541960231754,41.35980392925311
pt.ine.add.PTCONT.3549327,R MARIO BERNARDINO PEREIRA,148,4780-309,LAMA STS,-8.458541960231754,41.35980392925311
pt.ine.add.PTCONT.3549328,R LUIS DE CAMÕES,158,4825-288,SANTO TIRSO,-8.419324735450246,41.32011007575869
pt.ine.add.PTCONT.3549329,R SAMPAIO DE VIRAES,42,4795-339,RORIZ STS,-8.391117744643394,41.35739067303608
pt.ine.add.PTCONT.3549337,TV ALBERTO PIMENTEL,65,4795-126,AVES,-8.411784831760635,41.37253231611383
pt.ine.add.PTCONT.3549338,R PORTELA,85,4825-248,LAMELAS,-8.477125337142255,41.29164283740609
pt.ine.add.PTCONT.3549339,TV OUTEIRO,20,4825-247,LAMELAS,-8.473917098317578,41.2807843516778
pt.ine.add.PTCONT.3549340,R STA LUZIA,975,4825-288,SANTO TIRSO,-8.425196169865917,41.3190328401938
pt.ine.add.PTCONT.3549341,R DR MANUEL CRUZ,137,4780-665,PALMEIRA STS,-8.496934847052238,41.3631735242809
pt.ine.add.PTCONT.3549342,R DR MANUEL CRUZ,137,4780-665,PALMEIRA STS,-8.496934847052238,41.3631735242809
pt.ine.add.PTCONT.3549343,R TULIPAS,190,4795-354,RORIZ STS,-8.387587333525493,41.34689078158925
pt.ine.add.PTCONT.3549344,AV HONRA,125,4795-164,REBORDÕES,-8.43583251167484,41.361765761135025
pt.ine.add.PTCONT.3549345,R PADRAO,53,4795-220,REBORDÕES,-8.429204635246647,41.35496693261451
pt.ine.add.PTCONT.3549348,R NSA SRA LURDES,10,4825-094,ÁGUA LONGA,-8.49206806154879,41.260388726415336
pt.ine.add.PTCONT.3549349,R PADRAO,53,4795-220,REBORDÕES,-8.429204635246647,41.35496693261451
pt.ine.add.PTCONT.3549359,TV AGRA,37,4825-055,AGRELA STS,-8.476162348423728,41.25593511268973
pt.ine.add.PTCONT.3549360,TV VINHAS,36,4825-132,ÁGUA LONGA,-8.492268822751134,41.24911482576898
pt.ine.add.PTCONT.3549361,R MANUEL COSTA FARIA,141,4780-271,LAMA STS,-8.4706154211159,41.35809440110699
pt.ine.add.PTCONT.3549362,R ALMINHAS,8,4795-029,AVES,-8.393403285999547,41.37614095963568
pt.ine.add.PTCONT.3549363,R FREITAS,372,4795-205,REBORDÕES,-8.442463277585007,41.356264658134215
pt.ine.add.PTCONT.3549364,TV BITAREU,27,4825-057,AGRELA STS,-8.47359425137459,41.26229970690966
pt.ine.add.PTCONT.3549365,R NSA SRA DE LURDES,35,4825-094,ÁGUA LONGA,-8.492418643802823,41.26121601957475
pt.ine.add.PTCONT.3549366,R PONTE DA PINGUELA,280,4795-099,AVES,-8.418418246731116,41.36692455154164
pt.ine.add.PTCONT.3549367,VLA CARVALHEIRAS,55,4795-157,AVES,-8.397024169046011,41.36403127866833
pt.ine.add.PTCONT.3549368,TV NSA SRA DA ASSUNÇÃO,196,4825-261,SANTO TIRSO,-8.456617946960465,41.32119084112787
pt.ine.add.PTCONT.3549369,R PENEDO,12,4825-281,SANTO TIRSO,-8.463476214168885,41.321693599592045
pt.ine.add.PTCONT.3549375,R PROF DR EGAS MONIZ,112,4795-101,AVES,-8.413780206263768,41.36678288791755
pt.ine.add.PTCONT.3549376,R CAMPO GRANDE,12,4795-046,AVES,-8.399085549277224,41.36836648450607
pt.ine.add.PTCONT.3549377,R CAMPO GRANDE,12,4795-046,AVES,-8.399085549277224,41.36836648450607
pt.ine.add.PTCONT.3549378,R CAMPO GRANDE,12,4795-046,AVES,-8.399085549277224,41.36836648450607
pt.ine.add.PTCONT.3549379,R CAMPO GRANDE,12,4795-046,AVES,-8.399085549277224,41.36836648450607
pt.ine.add.PTCONT.3549380,R CAMPO GRANDE,12,4795-046,AVES,-8.399085549277224,41.36836648450607
pt.ine.add.PTCONT.3549381,R CAMPO GRANDE,12,4795-046,AVES,-8.399085549277224,41.36836648450607
pt.ine.add.PTCONT.3549382,R CENTRO PASTORAL DE CENSE,,4795-022,AVES,-8.42203628341991,41.36343996219118
pt.ine.add.PTCONT.3549383,TV PONTE,57,4795-146,AVES,-8.40748596754575,41.35647941942676
pt.ine.add.PTCONT.3549384,TV PONTE,93,4795-146,AVES,-8.40748596754575,41.35647941942676
pt.ine.add.PTCONT.3549385,R FERNANDO PESSOA,90,4780-328,PALMEIRA STS,-8.48516339108788,41.36552417582586
pt.ine.add.PTCONT.3549386,R FERNANDO PESSOA,90,4780-328,PALMEIRA STS,-8.48516339108788,41.36552417582586
pt.ine.add.PTCONT.3549387,R PEDRO ÁLVARES CABRAL,124,4795-222,REBORDÕES,-8.419934999699457,41.35032630090342
pt.ine.add.PTCONT.3549390,TV SANTO ANDRÉ,307,4795-152,AVES,-8.398328866233197,41.37040314482731
pt.ine.add.PTCONT.3549391,R NSA SRA DE FÁTIMA,859,4780-123,SANTO TIRSO,-8.457501712731641,41.35247756244295
pt.ine.add.PTCONT.3549392,AV RAMADA,384,4780-099,SANTO TIRSO,-8.45236867480112,41.35110529002637
pt.ine.add.PTCONT.3549393,R REPRESAS,440,4825-328,REFOJOS DE RIBA DE AVE,-8.446903179142662,41.29784300672372
pt.ine.add.PTCONT.3549394,R DEVESINHA,46,4825-303,REFOJOS DE RIBA DE AVE,-8.457546122474964,41.29640885557705
pt.ine.add.PTCONT.3549398,R PARQUE INDUSTRIAL DA BARCA,70,4795-096,AVES,-8.396898351979523,41.38318315497004
pt.ine.add.PTCONT.3549399,R RIO VIZELA,149,4795-109,AVES,-8.419403350382176,41.36261816954077
pt.ine.add.PTCONT.3549400,AV RAMADA,466,4780-099,SANTO TIRSO,-8.453059737761254,41.35069818789557
pt.ine.add.PTCONT.3549401,LG FLOR DO MATO,114,4780-124,SANTO TIRSO,-8.440338121680119,41.34651894539082
pt.ine.add.PTCONT.3549402,R MOINHOS,478,4825-316,REFOJOS DE RIBA DE AVE,-8.445220652195106,41.29052720123931
pt.ine.add.PTCONT.3549403,R TELHA,303,4825-415,REGUENGA,-8.465592698616424,41.27044487850674
pt.ine.add.PTCONT.3549406,R ALBERTO PIMENTEL,261,4795-027,AVES,-8.413011325493809,41.37143985081739
pt.ine.add.PTCONT.3549407,R AUGUSTO MARQUES,92,4795-036,AVES,-8.40579867183794,41.358788469528314
pt.ine.add.PTCONT.3549408,R 5 DE OUTUBRO,16,4825-364,REGUENGA,-8.459081875748085,41.27633422753646
pt.ine.add.PTCONT.3549409,R REGO,967,4795-332,RORIZ STS,-8.384033836307513,41.33941618805311
pt.ine.add.PTCONT.3653191,R VAU,,4795-490,SÃO MARTINHO CAMPO,-8.367867279868996,41.362113557123884
pt.ine.add.PTCONT.3550289,R PADRE CAMPOS,159,4780-210,SANTO TIRSO,-8.473259966511375,41.322025267134805
pt.ine.add.PTCONT.3550290,R SOUSA TREPA,42,4780-554,SANTO TIRSO,-8.475045621532352,41.34145081272162
pt.ine.add.PTCONT.3550291,R BOUGADO,,4795-395,SÃO MAMEDE NEGRELOS,-8.342058428559659,41.345271668862246
pt.ine.add.PTCONT.3550292,R ALTO DAS AGRAS,101,4795-818,VILARINHO STS,-8.342841212633548,41.373245873586214
pt.ine.add.PTCONT.3550301,R BARTOLOMEU DIAS,294,4780-407,SANTO TIRSO,-8.489671704713228,41.33969565504907
pt.ine.add.PTCONT.3550302,R RIBEIRO DE POUSADA,16,4795-510,SÃO MARTINHO CAMPO,-8.364303217656575,41.354629390770356
pt.ine.add.PTCONT.3550303,R LEIRINHAS,116,4795-818,VILARINHO STS,-8.342857078769875,41.37074272027823
pt.ine.add.PTCONT.3550304,ESTR PARADELA,,4795-796,VILARINHO STS,-8.328393639349207,41.350590066982214
pt.ine.add.PTCONT.3550312,R GIL EANES,108,4780-479,SANTO TIRSO,-8.493677546677633,41.35333334424037
pt.ine.add.PTCONT.3550313,R TAPADO,130,4780-555,SANTO TIRSO,-8.472517730447256,41.34010768305658
pt.ine.add.PTCONT.3550314,R SANTO ISIDRO,274,4795-429,SÃO MAMEDE NEGRELOS,-8.346073423229749,41.352728692273736
pt.ine.add.PTCONT.3550315,R RIBEIRO DE POUSADA,16,4795-510,SÃO MARTINHO CAMPO,-8.364303217656575,41.354629390770356
pt.ine.add.PTCONT.3550316,R RIBEIRO DE POUSADA,16,4795-510,SÃO MARTINHO CAMPO,-8.364303217656575,41.354629390770356
pt.ine.add.PTCONT.3550317,TV PONTE NOVA,30,4795-744,SÃO TOMÉ NEGRELOS,-8.40261663374204,41.35802161600921
pt.ine.add.PTCONT.3550318,R VALCORNEIRA,54,4795-710,SÃO TOMÉ NEGRELOS,-8.405714283817321,41.34715541226916
pt.ine.add.PTCONT.3550328,R MANUEL MONTEIRO COSTA,125,4780-202,SANTO TIRSO,-8.488811109271882,41.3308382958912
pt.ine.add.PTCONT.3550329,R SACADURA CABRAL,136,4780-422,SANTO TIRSO,-8.482672508307617,41.34450729501187
pt.ine.add.PTCONT.3550330,AV INDUSTRIA TEXTIL,508,4795-548,SÃO TOMÉ NEGRELOS,-8.40546253212847,41.35555680707899
pt.ine.add.PTCONT.3550331,R PACHECOS,73,4795-663,SÃO TOMÉ NEGRELOS,-8.397740091133496,41.35489051412746
pt.ine.add.PTCONT.3550332,AV ALDEIA NOVA,150,4780-587,SEQUEIRÓ,-8.45335509189149,41.37438701947136
pt.ine.add.PTCONT.3550337,TV NOVA DA TELHEIRA,176,4780-791,SANTO TIRSO,-8.478931895441168,41.335307420104805
pt.ine.add.PTCONT.3550338,R RIBEIRO DE POUSADA,612,4795-510,SÃO MARTINHO CAMPO,-8.358988502763658,41.35203776756793
pt.ine.add.PTCONT.3550339,AV ROSAL,251,4780-589,SEQUEIRÓ,-8.45357703496709,41.37333292995311
pt.ine.add.PTCONT.3550340,R GONDARIM,212,4780-601,SEQUEIRÓ,-8.450756559418297,41.3636073825339
pt.ine.add.PTCONT.3550341,TV AGRAS,42,4795-803,VILARINHO STS,-8.341299474359495,41.37332070544302
pt.ine.add.PTCONT.3550349,TV AGRAS,60,4780-689,SANTO TIRSO,-8.46702790994308,41.32488881357747
pt.ine.add.PTCONT.3550350,R PANORAMICA,50,4795-670,SÃO TOMÉ NEGRELOS,-8.417560362416474,41.348324286071815
pt.ine.add.PTCONT.3550353,R ESCOLA SECUNDARIA,425,4795-468,SÃO MARTINHO CAMPO,-8.368809956958268,41.35839295313896
pt.ine.add.PTCONT.3550354,R CALVÁRIO,28,4795-458,SÃO MARTINHO CAMPO,-8.365794165387156,41.35720154945999
pt.ine.add.PTCONT.3550355,ESTR BOCA,583,4795-785,VILARINHO STS,-8.345326361127475,41.36186019661786
pt.ine.add.PTCONT.3550358,AV ABADE PEDROSA,179,4780-162,SANTO TIRSO,-8.474947956066368,41.327341692944316
pt.ine.add.PTCONT.3550359,R CIDADE DE LUANDA,114,4795-592,SÃO TOMÉ NEGRELOS,-8.40037912544319,41.35442520827752
pt.ine.add.PTCONT.3550360,R FONTE,110,4795-801,VILARINHO STS,-8.338289559589793,41.37025573195463
pt.ine.add.PTCONT.3550362,AV ABADE PEDROSA,481,4780-162,SANTO TIRSO,-8.471530835540015,41.32717170872732
pt.ine.add.PTCONT.3550363,CC NARCISO MONTEIRO,51,4780-776,SANTO TIRSO,-8.486345067973017,41.34534246475267
pt.ine.add.PTCONT.3550364,CC NARCISO MONTEIRO,51,4780-776,SANTO TIRSO,-8.486345067973017,41.34534246475267
pt.ine.add.PTCONT.3550367,R OLIVEIRA,121,4780-208,SANTO TIRSO,-8.479183346390874,41.32187254843289
pt.ine.add.PTCONT.3550368,R OLIVEIRA,121,4780-208,SANTO TIRSO,-8.479183346390874,41.32187254843289
pt.ine.add.PTCONT.3550369,R GONÇALVES ZARCO,9,4780-480,SANTO TIRSO,-8.478509246908219,41.33897335216192
pt.ine.add.PTCONT.3550370,R FERREIRA DE LEMOS,388,4780-468,SANTO TIRSO,-8.476456155091276,41.334765582713075
pt.ine.add.PTCONT.3550371,R FERREIRA DE LEMOS,388,4780-468,SANTO TIRSO,-8.476456155091276,41.334765582713075
pt.ine.add.PTCONT.3550372,R FERREIRA DE LEMOS,388,4780-468,SANTO TIRSO,-8.476456155091276,41.334765582713075
pt.ine.add.PTCONT.3550373,R FERREIRA DE LEMOS,388,4780-468,SANTO TIRSO,-8.476456155091276,41.334765582713075
pt.ine.add.PTCONT.3550374,R FERREIRA DE LEMOS,388,4780-468,SANTO TIRSO,-8.476456155091276,41.334765582713075
pt.ine.add.PTCONT.3550375,R FERREIRA DE LEMOS,388,4780-468,SANTO TIRSO,-8.476456155091276,41.334765582713075
pt.ine.add.PTCONT.3550376,R FERREIRA DE LEMOS,388,4780-468,SANTO TIRSO,-8.476456155091276,41.334765582713075
pt.ine.add.PTCONT.3550377,R FERREIRA DE LEMOS,388,4780-468,SANTO TIRSO,-8.476456155091276,41.334765582713075
pt.ine.add.PTCONT.3550378,R FERREIRA DE LEMOS,388,4780-468,SANTO TIRSO,-8.476456155091276,41.334765582713075
pt.ine.add.PTCONT.3550379,R FERREIRA DE LEMOS,388,4780-468,SANTO TIRSO,-8.476456155091276,41.334765582713075
pt.ine.add.PTCONT.3550380,R FERREIRA DE LEMOS,388,4780-468,SANTO TIRSO,-8.476456155091276,41.334765582713075
pt.ine.add.PTCONT.3550381,R FERREIRA DE LEMOS,388,4780-468,SANTO TIRSO,-8.476456155091276,41.334765582713075
pt.ine.add.PTCONT.3550382,R FERREIRA DE LEMOS,388,4780-468,SANTO TIRSO,-8.476456155091276,41.334765582713075
pt.ine.add.PTCONT.3550383,R D MARIA DA CONCEIÇÃO RIBEIRO DE OLIVEIRA,100,4795-463,SÃO MARTINHO CAMPO,-8.352077554714421,41.36505299364061
pt.ine.add.PTCONT.3550384,R D MARIA DA CONCEIÇÃO RIBEIRO DE OLIVEIRA,100,4795-463,SÃO MARTINHO CAMPO,-8.352077554714421,41.36505299364061
pt.ine.add.PTCONT.3550390,R FRIAES DE BAIXO,209,4780-476,SANTO TIRSO,-8.486419701674144,41.348097481042146
pt.ine.add.PTCONT.3550391,R ESTRELA,44,4780-463,SANTO TIRSO,-8.491122893297108,41.342896601792
pt.ine.add.PTCONT.3550392,R ACÁCIAS,68,4780-385,SANTO TIRSO,-8.491001956732907,41.34044786892868
pt.ine.add.PTCONT.3550393,R MISERICÓRDIA,22,4780-501,SANTO TIRSO,-8.48276684156552,41.34203989171551
pt.ine.add.PTCONT.3550394,R FERREIRA DE LEMOS,490,4780-468,SANTO TIRSO,-8.475901962766113,41.3338758296327
pt.ine.add.PTCONT.3550395,R FERREIRA DE LEMOS,490,4780-468,SANTO TIRSO,-8.475901962766113,41.3338758296327
pt.ine.add.PTCONT.3550396,R FERREIRA DE LEMOS,490,4780-468,SANTO TIRSO,-8.475901962766113,41.3338758296327
pt.ine.add.PTCONT.3550397,R FERREIRA DE LEMOS,490,4780-468,SANTO TIRSO,-8.475901962766113,41.3338758296327
pt.ine.add.PTCONT.3550398,R FERREIRA DE LEMOS,490,4780-468,SANTO TIRSO,-8.475901962766113,41.3338758296327
pt.ine.add.PTCONT.3550399,R FERREIRA DE LEMOS,490,4780-468,SANTO TIRSO,-8.475901962766113,41.3338758296327
pt.ine.add.PTCONT.3550400,R FERREIRA DE LEMOS,490,4780-468,SANTO TIRSO,-8.475901962766113,41.3338758296327
pt.ine.add.PTCONT.3550401,R FERREIRA LEMOS,478,4780-468,SANTO TIRSO,-8.475901962766113,41.3338758296327
pt.ine.add.PTCONT.3550402,R FERREIRA DE LEMOS,490,4780-468,SANTO TIRSO,-8.475901962766113,41.3338758296327
pt.ine.add.PTCONT.3550403,R FERREIRA DE LEMOS,490,4780-468,SANTO TIRSO,-8.475901962766113,41.3338758296327
pt.ine.add.PTCONT.3550404,R FERREIRA DE LEMOS,490,4780-468,SANTO TIRSO,-8.475901962766113,41.3338758296327
pt.ine.add.PTCONT.3550405,R FERREIRA DE LEMOS,490,4780-468,SANTO TIRSO,-8.475901962766113,41.3338758296327
pt.ine.add.PTCONT.3550406,R AGRA DE MOINHOS,163,4795-386,SÃO MAMEDE NEGRELOS,-8.35842632465299,41.35187679620889
pt.ine.add.PTCONT.3550407,R DEVESA,232,4795-518,SÃO SALVADOR DO CAMPO,-8.348721775377111,41.355001791545654
pt.ine.add.PTCONT.3550408,R FONTE,136,4795-627,SÃO TOMÉ NEGRELOS,-8.400933505032713,41.34098983552036
pt.ine.add.PTCONT.3550430,R PAZ,146,4780-517,SANTO TIRSO,-8.490192559550337,41.34318762238481
pt.ine.add.PTCONT.3550411,R GIESTAL,269,4795-631,SÃO TOMÉ NEGRELOS,-8.406608674213983,41.3524476857952
pt.ine.add.PTCONT.3550413,R COLÉGIO DE LOURDES,36,4780-181,SANTO TIRSO,-8.472513817494871,41.32324302446766
pt.ine.add.PTCONT.3550414,R FREIXIEIRO,15,4780-475,SANTO TIRSO,-8.499355686487576,41.35156862707816
pt.ine.add.PTCONT.3550415,TV REGEDOR,27,4780-796,SANTO TIRSO,-8.459683120770164,41.332275241969576
pt.ine.add.PTCONT.3550416,AV IGREJA,122,4795-547,SÃO TOMÉ NEGRELOS,-8.404833245895254,41.347913838247
pt.ine.add.PTCONT.3550417,R TOCO,89,4795-838,VILARINHO STS,-8.335659854647554,41.37022437432435
pt.ine.add.PTCONT.3550427,R PADRE CAMPOS,82,4780-210,SANTO TIRSO,-8.473119777241276,41.32262895668041
pt.ine.add.PTCONT.3550428,R PADRE CAMPOS,98,4780-210,SANTO TIRSO,-8.473299169186818,41.32267344716813
pt.ine.add.PTCONT.3550429,R PADRE CAMPOS,,4780-210,SANTO TIRSO,-8.473581744630307,41.3218892541207
pt.ine.add.PTCONT.3550431,R MANGUELA,564,4795-828,VILARINHO STS,-8.329240531830054,41.35805300358681
pt.ine.add.PTCONT.3550432,R MANGUELA,564,4795-828,VILARINHO STS,-8.329240531830054,41.35805300358681
pt.ine.add.PTCONT.3550433,R D DUARTE I,129,4780-437,SANTO TIRSO,-8.492872230446505,41.348140520261516
pt.ine.add.PTCONT.3550434,R VILALVA,72,4780-563,SANTO TIRSO,-8.480566164484197,41.34609839005029
pt.ine.add.PTCONT.3550435,R VILALVA,72,4780-563,SANTO TIRSO,-8.480566164484197,41.34609839005029
pt.ine.add.PTCONT.3550436,R JUNCAL DE CIMA,291,4780-491,SANTO TIRSO,-8.491483941606065,41.33683573232883
pt.ine.add.PTCONT.3550437,R JOÃO PAULO II,31,4780-603,SEQUEIRÓ,-8.450570318515448,41.36955056484864
pt.ine.add.PTCONT.3550445,R VILALVA,72,4780-563,SANTO TIRSO,-8.480566164484197,41.34609839005029
pt.ine.add.PTCONT.3550446,R ARMANDO MARTINS FERREIRA,104,4795-884,SÃO MAMEDE NEGRELOS,-8.35888460611135,41.34617631586434
pt.ine.add.PTCONT.3550447,R JAIME LOUREIRO,45,4795-635,SÃO TOMÉ NEGRELOS,-8.415456505507839,41.35088662344783
pt.ine.add.PTCONT.3550448,R AGOEIRO,223,4795-783,VILARINHO STS,-8.334691218691557,41.36232951966497
pt.ine.add.PTCONT.3550449,TV CALVÁRIO,48,4795-787,VILARINHO STS,-8.330324673250068,41.35298185872195
pt.ine.add.PTCONT.3551374,R FONTINHA,60,4795-858,REBORDÕES,-8.425643462469603,41.34427019775227
pt.ine.add.PTCONT.3551384,R PANORAMICA,50,4795-670,SÃO TOMÉ NEGRELOS,-8.417560362416474,41.348324286071815
pt.ine.add.PTCONT.3551396,AV COMEND ABILIO FERREIRA DE OLIVEIRA,588,4795-443,SÃO MARTINHO CAMPO,-8.370398673173112,41.361487085492875
pt.ine.add.PTCONT.3551399,R TILIAS,2,4825-102,ÁGUA LONGA,-8.50021474703046,41.27470671665459
pt.ine.add.PTCONT.3551407,AV COMEND ABILIO FERREIRA DE OLIVEIRA,632,4795-443,SÃO MARTINHO CAMPO,-8.369956287895933,41.361433972434234
pt.ine.add.PTCONT.3551415,AV ABADE PEDROSA,174,4780-162,SANTO TIRSO,-8.475030298104071,41.32709833761848
pt.ine.add.PTCONT.3551440,R ENCOSTA,241,4780-186,SANTO TIRSO,-8.478529326902883,41.315634661573014
pt.ine.add.PTCONT.3551441,R BACELO,706,4795-390,SÃO MAMEDE NEGRELOS,-8.348779391621408,41.347114112182
pt.ine.add.PTCONT.3551467,R FLOR DO CAMPO,165,4795-508,SÃO MARTINHO CAMPO,-8.350192293138628,41.36599298693849
pt.ine.add.PTCONT.3551563,R SOBRADO,480,4795-121,AVES,-8.397389232820823,41.374502144412176
pt.ine.add.PTCONT.3551574,R PADRE CAMPOS,98,4780-210,SANTO TIRSO,-8.473299169186818,41.32267344716813
pt.ine.add.PTCONT.3551623,AL ARNALDO GAMA,139,4795-001,AVES,-8.406327783631681,41.36528814214642
pt.ine.add.PTCONT.3551624,R FREIXIEIRO,417,4780-033,AREIAS STS,-8.47337037623012,41.359310839943944
pt.ine.add.PTCONT.3551627,R BELA,180,4780-178,SANTO TIRSO,-8.49504150221367,41.33206143759792
pt.ine.add.PTCONT.3551672,R MONTE DOS SALTOS,266,4780-608,SEQUEIRÓ,-8.450461896133866,41.36199647071201
pt.ine.add.PTCONT.3551787,R CEREJEIRA,46,4780-180,SANTO TIRSO,-8.499976879393751,41.3281200271684
pt.ine.add.PTCONT.3551807,R VIA ROMANA,197,4825-288,SANTO TIRSO,-8.42727781768681,41.31581667526161
pt.ine.add.PTCONT.3551824,,,4795-211,REBORDÕES,-8.432660607516508,41.35028487851859
pt.ine.add.PTCONT.3551845,R CENTRAL DA MORCA,265,4825-286,SANTO TIRSO,-8.404264586345638,41.3145189605057
pt.ine.add.PTCONT.3551852,R AMÉRICO MARTINS COELHO,217,4780-175,SANTO TIRSO,-8.479546830168639,41.32059287129258
pt.ine.add.PTCONT.3551855,R CHÃOS,948,4795-287,RORIZ STS,-8.379145675740611,41.35798414625107
pt.ine.add.PTCONT.3551884,R VERGADELA,71,4795-241,REBORDÕES,-8.440845758599503,41.36043787307601
pt.ine.add.PTCONT.3551897,R SOUSA TREPA,42,4780-554,SANTO TIRSO,-8.475045621532352,41.34145081272162
pt.ine.add.PTCONT.3551898,R AREAL,91,4780-402,SANTO TIRSO,-8.465228397768751,41.335104667830166
pt.ine.add.PTCONT.3551906,R SOUSA TREPA,42,4780-554,SANTO TIRSO,-8.475045621532352,41.34145081272162
pt.ine.add.PTCONT.3552020,R TOCO,89,4795-838,VILARINHO STS,-8.335659854647554,41.37022437432435
pt.ine.add.PTCONT.3552065,R RIBEIRO DOS ASNOS,437,4795-486,SÃO MARTINHO CAMPO,-8.375777073559721,41.355155017702344
pt.ine.add.PTCONT.3552066,R RIBEIRO DOS ASNOS,437,4795-486,SÃO MARTINHO CAMPO,-8.375777073559721,41.355155017702344
pt.ine.add.PTCONT.3552138,R FERREIRA DE LEMOS,319,4780-468,SANTO TIRSO,-8.47606505188014,41.33536101865233
pt.ine.add.PTCONT.3552134,R FERREIRA DE LEMOS,319,4780-468,SANTO TIRSO,-8.47606505188014,41.33536101865233
pt.ine.add.PTCONT.3552135,R FERREIRA DE LEMOS,319,4780-468,SANTO TIRSO,-8.47606505188014,41.33536101865233
pt.ine.add.PTCONT.3552136,R FERREIRA DE LEMOS,319,4780-468,SANTO TIRSO,-8.47606505188014,41.33536101865233
pt.ine.add.PTCONT.3552137,R FERREIRA DE LEMOS,319,4780-468,SANTO TIRSO,-8.47606505188014,41.33536101865233
pt.ine.add.PTCONT.3552139,R FERREIRA DE LEMOS,319,4780-468,SANTO TIRSO,-8.47606505188014,41.33536101865233
pt.ine.add.PTCONT.3552140,R FERREIRA DE LEMOS,319,4780-468,SANTO TIRSO,-8.47606505188014,41.33536101865233
pt.ine.add.PTCONT.3552141,R FERREIRA DE LEMOS,319,4780-468,SANTO TIRSO,-8.47606505188014,41.33536101865233
pt.ine.add.PTCONT.3552142,R FERREIRA DE LEMOS,319,4780-468,SANTO TIRSO,-8.47606505188014,41.33536101865233
pt.ine.add.PTCONT.3552143,R MONTINHO,38,4780-747,SANTO TIRSO,-8.476108950687081,41.32323236731059
pt.ine.add.PTCONT.3552144,R MONTINHO,38,4780-747,SANTO TIRSO,-8.476108950687081,41.32323236731059
pt.ine.add.PTCONT.3552145,R FERREIRA DE LEMOS,319,4780-468,SANTO TIRSO,-8.47606505188014,41.33536101865233
pt.ine.add.PTCONT.3552276,TV SANTO ANDRE,72,4795-152,AVES,-8.39796618501348,41.37233984891646
pt.ine.add.PTCONT.3552277,TV SANTO ANDRE,72,4795-152,AVES,-8.39796618501348,41.37233984891646
pt.ine.add.PTCONT.3552684,R PEDREIRA,155,4825-402,REGUENGA,-8.446723139673908,41.277701176211764
pt.ine.add.PTCONT.3552722,CC FONTAÍNHAS,1,4795-825,VILARINHO STS,-8.343243975239643,41.36468228796199
pt.ine.add.PTCONT.3552817,TV GABRIEL CARDOSO MIRANDA,115,4780-227,SANTO TIRSO,-8.485270067364771,41.334315760143475
pt.ine.add.PTCONT.3552866,R BACÊLO,140,4795-805,VILARINHO STS,-8.3399883254316,41.370720901069646
pt.ine.add.PTCONT.3555795,R TORRAO,39,4825-119,ÁGUA LONGA,-8.500760607434401,41.25499478973883
pt.ine.add.PTCONT.3555796,TV LOMBA,15,4780-138,SANTO TIRSO,-8.461420948673801,41.340545055831385
pt.ine.add.PTCONT.3555797,R BACELO,476,4780-250,SANTO TIRSO,-8.43783064929669,41.33663012376621
pt.ine.add.PTCONT.3555798,R JOÃO PAULO II,154,4825-272,SANTO TIRSO,-8.417079553687389,41.31190387394475
pt.ine.add.PTCONT.3555799,R VALE DE MOURA,1520,4780-337,PALMEIRA STS,-8.499540916356217,41.35689843888262
pt.ine.add.PTCONT.3555813,R BOM PASTOR,32,4825-075,ÁGUA LONGA,-8.499121581699086,41.25848464057766
pt.ine.add.PTCONT.3555814,AV IGREJA,15,4825-063,ÁGUA LONGA,-8.497351774676202,41.257796929205945
pt.ine.add.PTCONT.3555815,R ENG JOSE GUIMARÃES,119,4780-029,AREIAS STS,-8.475723682575696,41.36595784826251
pt.ine.add.PTCONT.3555816,R GEN HUMBERTO DELGADO,27,4795-072,AVES,-8.406432954416314,41.359003062307586
pt.ine.add.PTCONT.3555817,R GEN HUMBERTO DELGADO,27,4795-072,AVES,-8.406432954416314,41.359003062307586
pt.ine.add.PTCONT.3555818,R GEN HUMBERTO DELGADO,27,4795-072,AVES,-8.406432954416314,41.359003062307586
pt.ine.add.PTCONT.3555819,R GEN HUMBERTO DELGADO,27,4795-072,AVES,-8.406432954416314,41.359003062307586
pt.ine.add.PTCONT.3555820,R GEN HUMBERTO DELGADO,27,4795-072,AVES,-8.406432954416314,41.359003062307586
pt.ine.add.PTCONT.3555821,R GEN HUMBERTO DELGADO,27,4795-072,AVES,-8.406432954416314,41.359003062307586
pt.ine.add.PTCONT.3555822,R GEN HUMBERTO DELGADO,27,4795-072,AVES,-8.406432954416314,41.359003062307586
pt.ine.add.PTCONT.3555823,R BOM JESUS DE S CRUZ,1418,4780-145,SANTO TIRSO,-8.43861860679399,41.33140565963029
pt.ine.add.PTCONT.3555824,R PRESA NOVA,191,4825-264,SANTO TIRSO,-8.416230216089753,41.330886645662154
pt.ine.add.PTCONT.3555825,R JOÃO PAULO II,248,4825-272,SANTO TIRSO,-8.416202454104138,41.310672468127635
pt.ine.add.PTCONT.3555841,R SUBSEIXO,60,4825-051,AGRELA STS,-8.475576486637001,41.25798981702506
pt.ine.add.PTCONT.3555842,R ALMINHAS,13,4825-264,SANTO TIRSO,-8.419779112352046,41.33112997622985
pt.ine.add.PTCONT.3555843,R CABOS,55,4825-264,SANTO TIRSO,-8.415455085062465,41.33119468920168
pt.ine.add.PTCONT.3555844,R S LUZIA,17,4825-288,SANTO TIRSO,-8.41932476792976,41.32284732724395
pt.ine.add.PTCONT.3555848,PC BOM NOME,7,4795-025,AVES,-8.406275231981365,41.364153756526704
pt.ine.add.PTCONT.3555849,PC BOM NOME,ENT 7,4795-025,AVES,-8.406275231981365,41.364153756526704
pt.ine.add.PTCONT.3555850,PC BOM NOME,7,4795-025,AVES,-8.406275231981365,41.364153756526704
pt.ine.add.PTCONT.3555851,PC BOM NOME,7,4795-025,AVES,-8.406275231981365,41.364153756526704
pt.ine.add.PTCONT.3555852,PC BOM NOME,7,4795-025,AVES,-8.406275231981365,41.364153756526704
pt.ine.add.PTCONT.3555853,PC BOM NOME,7,4795-025,AVES,-8.406275231981365,41.364153756526704
pt.ine.add.PTCONT.3555854,PC BOM NOME,7,4795-025,AVES,-8.406275231981365,41.364153756526704
pt.ine.add.PTCONT.3555855,R VISO,93,4825-161,SANTO TIRSO,-8.476615284272233,41.312750066316624
pt.ine.add.PTCONT.3555856,R ESTIRADA,585,4825-187,SANTO TIRSO,-8.478469276947672,41.30199358461191
pt.ine.add.PTCONT.3555857,R CENTRAL DE REDUNDO,921,4825-286,SANTO TIRSO,-8.402526990620116,41.31888103764601
pt.ine.add.PTCONT.3555858,R ANTÓNIO MARIA GOMES,636,4795-268,RORIZ STS,-8.380906208775798,41.34008026297701
pt.ine.add.PTCONT.3555859,TV QUINTAS,65,4780-086,AREIAS STS,-8.47959334353353,41.36318202148742
pt.ine.add.PTCONT.3555860,R S TIAGO,303,4780-059,AREIAS STS,-8.476434471886222,41.36248016906114
pt.ine.add.PTCONT.3555861,R LUIS DE CAMÕES,178,4780-038,AREIAS STS,-8.477270054990736,41.36228858826853
pt.ine.add.PTCONT.3555862,PC BOM NOME,7,4795-025,AVES,-8.406275231981365,41.364153756526704
pt.ine.add.PTCONT.3555863,R CASAIS,705,4825-141,SANTO TIRSO,-8.479436904811314,41.30885182860588
pt.ine.add.PTCONT.3555864,R DR EDUARDO LIMA CARNEIRO,293,4780-300,LAMA STS,-8.460842154251038,41.363308981234404
pt.ine.add.PTCONT.3555865,R DR EDUARDO LIMA CARNEIRO,261,4780-300,LAMA STS,-8.460842154251038,41.363308981234404
pt.ine.add.PTCONT.3555877,R LIBERDADE,465,4825-026,AGRELA STS,-8.484276675410513,41.2605118004971
pt.ine.add.PTCONT.3555878,TV 25 DE ABRIL,88,4825-054,AGRELA STS,-8.483916001712254,41.26000866450847
pt.ine.add.PTCONT.3555879,URB PINHEIRO TORTO,72,4780-789,LAMA STS,-8.463300926062104,41.37212591188259
pt.ine.add.PTCONT.3555880,R FONTE SECAS,166,4825-288,SANTO TIRSO,-8.42696727487508,41.31449025398038
pt.ine.add.PTCONT.3555881,R RIO,5,4825-044,AGRELA STS,-8.483804997439155,41.25933368720371
pt.ine.add.PTCONT.3555882,R FREIXIEIRO,244,4795-071,AVES,-8.40997709295947,41.37468864423702
pt.ine.add.PTCONT.3555883,TV INFANTARIO,42,4795-141,AVES,-8.401121282438666,41.369298182113326
pt.ine.add.PTCONT.3555884,R S MIGUEL,9,4795-118,AVES,-8.40551832387992,41.368936700047605
pt.ine.add.PTCONT.3555885,R MIGUEL TORGA,428,4795-086,AVES,-8.408122875151275,41.360160559927444
pt.ine.add.PTCONT.3555886,R MIGUEL TORGA,428,4795-086,AVES,-8.408122875151275,41.360160559927444
pt.ine.add.PTCONT.3555887,R VALONGUEIRO,160,4825-418,REGUENGA,-8.46504564899762,41.27318373068313
pt.ine.add.PTCONT.3555888,R MIRA RIO,21,4825-395,REGUENGA,-8.46757536254463,41.27074527818942
pt.ine.add.PTCONT.3555889,R MACABIO,,4795-303,RORIZ STS,-8.389478984294463,41.363084900655245
pt.ine.add.PTCONT.3555913,R TORRE ALTA,2,4780-069,AREIAS STS,-8.471959780698588,41.35462388892383
pt.ine.add.PTCONT.3555895,R LUIS DE CAMÕES,184,4825-288,SANTO TIRSO,-8.419084370638789,41.31976851665313
pt.ine.add.PTCONT.3555897,R CAMPO GRANDE,106,4795-046,AVES,-8.399451352227397,41.37013943516511
pt.ine.add.PTCONT.3555898,R MESTRE ESCOLA,36,4795-085,AVES,-8.399580222503943,41.36949984976482
pt.ine.add.PTCONT.3555899,R OLIVEIRAS DE VALINHAS,137,4825-289,SANTO TIRSO,-8.45243265918967,41.30549032801742
pt.ine.add.PTCONT.3555900,R ESTRADA ANTIGA,4,4825-272,SANTO TIRSO,-8.442368755176544,41.31102833638808
pt.ine.add.PTCONT.3555901,R BERNARDINO MACHADO,22,4795-275,RORIZ STS,-8.387277291307697,41.35319431943998
pt.ine.add.PTCONT.3555904,R ALDEIA NOVA,425,4780-103,SANTO TIRSO,-8.44659722241263,41.35111215140952
pt.ine.add.PTCONT.3555905,R ALDEIA NOVA,425,4780-103,SANTO TIRSO,-8.44659722241263,41.35111215140952
pt.ine.add.PTCONT.3555906,TV SOBRECAMPOS,127,4825-427,LAMELAS,-8.475172852192633,41.283535904060315
pt.ine.add.PTCONT.3555907,AV HONRA,99,4795-164,REBORDÕES,-8.435798327399057,41.362126013127025
pt.ine.add.PTCONT.3555908,R S BENTO,89,4795-232,REBORDÕES,-8.433475258736609,41.35334413841149
pt.ine.add.PTCONT.3555909,AV JOAO PAULO II,650,4795-166,REBORDÕES,-8.443459048578593,41.35960248245841
pt.ine.add.PTCONT.3555910,AV JOAO PAULO II,699,4795-166,REBORDÕES,-8.443459048578593,41.35960248245841
pt.ine.add.PTCONT.3555911,TV ALBINO SOUSA CRUZ,,4780-071,AREIAS STS,-8.483482985827065,41.36642070418422
pt.ine.add.PTCONT.3555912,R FREIXIEIRO,578,4780-033,AREIAS STS,-8.473808039046032,41.35844515607965
pt.ine.add.PTCONT.3555914,R 25 DE ABRIL,1852,4780-008,AREIAS STS,-8.48332115792931,41.35630064754913
pt.ine.add.PTCONT.3555915,R 25 DE ABRIL,1852,4780-008,AREIAS STS,-8.48332115792931,41.35630064754913
pt.ine.add.PTCONT.3555916,R DR GERMANO PIMENTA,98,4795-062,AVES,-8.398424579792817,41.36454128959929
pt.ine.add.PTCONT.3555917,R CORPILHEIRAS,70,4825-264,SANTO TIRSO,-8.409629075284835,41.33201019844355
pt.ine.add.PTCONT.3555918,R FERVENCA,76,4795-202,REBORDÕES,-8.446742643183011,41.35651419328031
pt.ine.add.PTCONT.3555919,R CAPELA,66,4795-186,REBORDÕES,-8.422794023035216,41.353740686277625
pt.ine.add.PTCONT.3555934,R FONTE,214,4825-024,AGRELA STS,-8.469702676806822,41.255053756752986
pt.ine.add.PTCONT.3555935,R INDUSTRIA,228,4780-034,AREIAS STS,-8.476094518276948,41.35463865290963
pt.ine.add.PTCONT.3555936,R PONTE DA PINGUELA,260,4795-099,AVES,-8.418274940505613,41.36695191887494
pt.ine.add.PTCONT.3555937,TV RAMADA,256,4780-130,SANTO TIRSO,-8.451404965452301,41.35196334566433
pt.ine.add.PTCONT.3555938,R CRUZEIRO,123,4825-288,SANTO TIRSO,-8.425475887013679,41.31748342117197
pt.ine.add.PTCONT.3555939,R ALDEIA NOVA,48,4780-794,SANTO TIRSO,-8.443957801646627,41.353910571000185
pt.ine.add.PTCONT.3555940,R ALDEIA NOVA,48,4780-794,SANTO TIRSO,-8.443957801646627,41.353910571000185
pt.ine.add.PTCONT.3555944,AV ESTADIO,41,4780-002,AREIAS STS,-8.474854830877169,41.36665374281745
pt.ine.add.PTCONT.3555945,CC AZENHA DO PISCO,7,4795-007,AVES,-8.395540916057568,41.36371952874944
pt.ine.add.PTCONT.3555946,R CORREIOS,90,4795-054,AVES,-8.408550362720257,41.35667496627456
pt.ine.add.PTCONT.3555947,R CORREIOS,95,4795-054,AVES,-8.408550362720257,41.35667496627456
pt.ine.add.PTCONT.3555948,R CAMILO CASTELO BRANCO,1007,4825-284,SANTO TIRSO,-8.432097885692414,41.318690971398404
pt.ine.add.PTCONT.3555949,AV S TIAGO,253,4795-167,REBORDÕES,-8.420276060738876,41.35452134629987
pt.ine.add.PTCONT.3555950,R D MANUEL II,218,4795-194,REBORDÕES,-8.419821217418216,41.34890394089943
pt.ine.add.PTCONT.3555951,R 10 DE JUNHO,741,4795-173,REBORDÕES,-8.426170177663556,41.344493959787776
pt.ine.add.PTCONT.3555955,R PASSAL,130,4825-100,ÁGUA LONGA,-8.50090424602473,41.263584342242346
pt.ine.add.PTCONT.3555956,R NSA SRA FATIMA,783,4780-123,SANTO TIRSO,-8.456678368307271,41.35271398588393
pt.ine.add.PTCONT.3555957,R TRES HEROIS,37,4795-174,REBORDÕES,-8.419095114020717,41.34680779783362
pt.ine.add.PTCONT.3555958,TV REPRESAS,10,4825-354,REFOJOS DE RIBA DE AVE,-8.445985182050567,41.29812463410968
pt.ine.add.PTCONT.3555959,R VISC DE CANTIM,1037,4825-420,REGUENGA,-8.460554399039708,41.2748353541872
pt.ine.add.PTCONT.3555960,R BOM PASTOR,,4825-512,REGUENGA,-8.459987742204557,41.273693432804244
pt.ine.add.PTCONT.3555961,R TRELEIRA,11,4825-053,AGRELA STS,-8.476034033250144,41.261058889922495
pt.ine.add.PTCONT.3555962,R S CRISTÓVÃO,260,4780-061,AREIAS STS,-8.477253505576833,41.36368426481937
pt.ine.add.PTCONT.3555963,R RINGE,351,4795-106,AVES,-8.398069603965963,41.36836882809503
pt.ine.add.PTCONT.3555964,R RINGE,121,4795-106,AVES,-8.39653462159476,41.37007411638803
pt.ine.add.PTCONT.3555965,R RINGE,121,4795-106,AVES,-8.39653462159476,41.37007411638803
pt.ine.add.PTCONT.3555966,TV CRUZEIRO,76,4795-899,AVES,-8.414315177138754,41.36611528245236
pt.ine.add.PTCONT.3555967,R NSA SRA DA SAÚDE,235,4780-334,PALMEIRA STS,-8.491943433480584,41.363954539700735
pt.ine.add.PTCONT.3555968,R BELA VISTA,26,4825-294,REFOJOS DE RIBA DE AVE,-8.44570366462663,41.28917526613455
pt.ine.add.PTCONT.3555969,R AMEIXIEIRA,365,4825-367,REGUENGA,-8.44793210578075,41.27841821107744
pt.ine.add.PTCONT.3555982,R MOUTELA,568,4825-032,AGRELA STS,-8.46821848064756,41.26114493252315
pt.ine.add.PTCONT.3555983,R MOUTELA,446,4825-032,AGRELA STS,-8.46679954910492,41.261356150448364
pt.ine.add.PTCONT.3555984,R TILIAS,45,4825-102,ÁGUA LONGA,-8.499297900692802,41.27723080661551
pt.ine.add.PTCONT.3555985,R 5 DE OUTUBRO,197,4780-009,AREIAS STS,-8.482298336724217,41.36168817809818
pt.ine.add.PTCONT.3555986,R ANTÓNIO ALEIXO,115,4825-368,REGUENGA,-8.451192642816308,41.273916160585976
pt.ine.add.PTCONT.3555987,R GUARDA,,4825-391,REGUENGA,-8.465560606430167,41.278233591744794
pt.ine.add.PTCONT.3555988,R PAPA JOÃO XXIII,394,4825-401,REGUENGA,-8.461472255174726,41.276984739856665
pt.ine.add.PTCONT.3555989,R SANDIM,983,4795-341,RORIZ STS,-8.385055796029395,41.35038993338393
pt.ine.add.PTCONT.3555990,R RIBEIRA,1482,4795-333,RORIZ STS,-8.373497985081196,41.33982585156617
pt.ine.add.PTCONT.3555991,R RIBEIRA,1482,4795-333,RORIZ STS,-8.373497985081196,41.33982585156617
pt.ine.add.PTCONT.3557024,R TACHEIRO,205,4795-707,SÃO TOMÉ NEGRELOS,-8.399974303516634,41.34015468330989
pt.ine.add.PTCONT.3557025,,,4780-590,SEQUEIRÓ,-8.44348659936051,41.36540101649462
pt.ine.add.PTCONT.3557034,R PORTELA DO SOUTO,249,4795-796,VILARINHO STS,-8.33098763083068,41.350927791247564
pt.ine.add.PTCONT.3557042,R BACELO,432,4795-390,SÃO MAMEDE NEGRELOS,-8.349632909053145,41.34506858238634
pt.ine.add.PTCONT.3557043,TV MONTE DOS SALTOS,30,4780-633,SEQUEIRÓ,-8.448550984513197,41.362262841813425
pt.ine.add.PTCONT.3557046,R NOVA DE ARGEMIL,105,4780-509,SANTO TIRSO,-8.491822961371884,41.35289794080596
pt.ine.add.PTCONT.3557047,R TRINDADE,226,4795-489,SÃO MARTINHO CAMPO,-8.368557406425564,41.357952270950676
pt.ine.add.PTCONT.3557048,R VISTA ALEGRE,351,4795-530,SÃO SALVADOR DO CAMPO,-8.355594596281982,41.35897751205196
pt.ine.add.PTCONT.3557049,R LOTEAMENTO MUNICIPAL,2,4795-803,VILARINHO STS,-8.338215308168797,41.373254211396336
pt.ine.add.PTCONT.3557050,R VALINHAS,58,4795-840,VILARINHO STS,-8.339122243186326,41.36898467346888
pt.ine.add.PTCONT.3557051,R VALINHAS,58,4795-840,VILARINHO STS,-8.339122243186326,41.36898467346888
pt.ine.add.PTCONT.3557068,R VÁRZEA,,4780-559,SANTO TIRSO,-8.512547180942681,41.34735701081888
pt.ine.add.PTCONT.3557069,R VÁRZEA,114,4780-559,SANTO TIRSO,-8.512643185804523,41.347428726786134
pt.ine.add.PTCONT.3557070,R FONTISCOS,800,4780-470,SANTO TIRSO,-8.494921297619127,41.340561671818755
pt.ine.add.PTCONT.3557071,R VÁRZEA,379,4795-439,SÃO MAMEDE NEGRELOS,-8.35815476448565,41.33894746138563
pt.ine.add.PTCONT.3557072,R VÁRZEA,159,4795-439,SÃO MAMEDE NEGRELOS,-8.360235067006121,41.33938457561745
pt.ine.add.PTCONT.3557073,R TRINDADE,354,4795-489,SÃO MARTINHO CAMPO,-8.37011024225436,41.35775099418573
pt.ine.add.PTCONT.3557074,R TRINDADE,378,4795-489,SÃO MARTINHO CAMPO,-8.371093518960079,41.358667379606814
pt.ine.add.PTCONT.3557075,R AGRAS,169,4780-688,SANTO TIRSO,-8.466323133964933,41.32722291912475
pt.ine.add.PTCONT.3557076,R PACHECOS,55,4795-663,SÃO TOMÉ NEGRELOS,-8.397501568118177,41.35500811520594
pt.ine.add.PTCONT.3557077,R COMÉRCIO E INDUSTRIA,212,4795-594,SÃO TOMÉ NEGRELOS,-8.396115529837862,41.355047307303806
pt.ine.add.PTCONT.3557081,R PREGOS,8,4780-491,SANTO TIRSO,-8.492163800004223,41.3366355235737
pt.ine.add.PTCONT.3557082,R ALEGRIA,72,4780-388,SANTO TIRSO,-8.48514083938181,41.352468371122136
pt.ine.add.PTCONT.3557083,TV ESCOLA DO MONTE,25,4780-460,SANTO TIRSO,-8.488899448378438,41.3470723821432
pt.ine.add.PTCONT.3557084,R CARVOEIRA DE CIMA,174,4780-417,SANTO TIRSO,-8.49148734120216,41.34617294998351
pt.ine.add.PTCONT.3557085,R ARCO,54,4780-401,SANTO TIRSO,-8.482716264266665,41.33928479694254
pt.ine.add.PTCONT.3557086,R NSA SRA DE ESPINHO,116,4795-478,SÃO MARTINHO CAMPO,-8.378053126322033,41.36619817700487
pt.ine.add.PTCONT.3557087,R NSA SRA DE ESPINHO,116,4795-478,SÃO MARTINHO CAMPO,-8.378053126322033,41.36619817700487
pt.ine.add.PTCONT.3557088,R MANUEL DE SOUSA OLIVEIRA,730,4795-476,SÃO MARTINHO CAMPO,-8.361005979998536,41.36174917840399
pt.ine.add.PTCONT.3557092,R ALÉM RIO,241,4780-173,SANTO TIRSO,-8.47789636812339,41.32243466549561
pt.ine.add.PTCONT.3557093,R ALEGRIA,86,4780-172,SANTO TIRSO,-8.46766807960718,41.32861465342265
pt.ine.add.PTCONT.3557094,R S BENTO DA BATALHA,122,4780-547,SANTO TIRSO,-8.485053654222803,41.351811341278136
pt.ine.add.PTCONT.3557095,R D MANUEL II,70,4795-606,SÃO TOMÉ NEGRELOS,-8.416779358966128,41.35558349374807
pt.ine.add.PTCONT.3557096,R GOMARIZ,,4780-600,SEQUEIRÓ,-8.45486549022043,41.37282510884188
pt.ine.add.PTCONT.3557105,R REPUBLICA,79,4780-538,SANTO TIRSO,-8.492439794710082,41.34337871786399
pt.ine.add.PTCONT.3557106,AV ESPINHO,240,4795-444,SÃO MARTINHO CAMPO,-8.378680687512668,41.36463013452024
pt.ine.add.PTCONT.3557107,AV PONTE,200,4795-550,SÃO TOMÉ NEGRELOS,-8.409404643071918,41.35522326421121
pt.ine.add.PTCONT.3557108,R MONTE DOS SALTOS,274,4780-608,SEQUEIRÓ,-8.449983066855728,41.361835717223165
pt.ine.add.PTCONT.3557109,LG LAGE,83,4795-795,VILARINHO STS,-8.34103208459813,41.3644251878693
pt.ine.add.PTCONT.3557110,LG LAGE,83,4795-795,VILARINHO STS,-8.34103208459813,41.3644251878693
pt.ine.add.PTCONT.3557130,CC NARCISO MONTEIRO,65,4780-776,SANTO TIRSO,-8.486332536077157,41.34523445434927
pt.ine.add.PTCONT.3557131,R NSA SRA DE FÁTIMA,20,4795-479,SÃO MARTINHO CAMPO,-8.350553488254393,41.36678466168078
pt.ine.add.PTCONT.3557142,PC 25 DE ABRIL,,4780-757,SANTO TIRSO,-8.474250153596437,41.32409328162177
pt.ine.add.PTCONT.3557143,PC 25 DE ABRIL,,4780-757,SANTO TIRSO,-8.474250153596437,41.32409328162177
pt.ine.add.PTCONT.3557144,PC 25 DE ABRIL,,4780-757,SANTO TIRSO,-8.474250153596437,41.32409328162177
pt.ine.add.PTCONT.3557145,PC 25 DE ABRIL,,4780-757,SANTO TIRSO,-8.474250153596437,41.32409328162177
pt.ine.add.PTCONT.3557146,R ALEXANDRE HERCULANO,204,4780-389,SANTO TIRSO,-8.489392527557692,41.35204110069397
pt.ine.add.PTCONT.3557147,R GAGO COUTINHO,198,4780-392,SANTO TIRSO,-8.482921485424308,41.34414637557426
pt.ine.add.PTCONT.3557148,R BAIRRO DE PONTES,43,4795-501,SÃO MARTINHO CAMPO,-8.354405213660188,41.364184151934616
pt.ine.add.PTCONT.3557149,R BAIRRO DE PONTES,43,4795-501,SÃO MARTINHO CAMPO,-8.354405213660188,41.364184151934616
pt.ine.add.PTCONT.3557150,R BAIRRO DE PONTES,43,4795-501,SÃO MARTINHO CAMPO,-8.354405213660188,41.364184151934616
pt.ine.add.PTCONT.3557151,R VICTOR HAETTICH,258,4795-714,SÃO TOMÉ NEGRELOS,-8.415104949246446,41.35249020986145
pt.ine.add.PTCONT.3557163,PC 25 DE ABRIL,,4780-757,SANTO TIRSO,-8.474250153596437,41.32409328162177
pt.ine.add.PTCONT.3557164,PC 25 DE ABRIL,,4780-757,SANTO TIRSO,-8.474250153596437,41.32409328162177
pt.ine.add.PTCONT.3557165,R RECONTRO DO OUTEIRO,269,4780-220,SANTO TIRSO,-8.473115577203231,41.33101178863042
pt.ine.add.PTCONT.3557166,R D MARIA CARMO AZEVEDO,294,4780-440,SANTO TIRSO,-8.483948510540243,41.34405320869648
pt.ine.add.PTCONT.3557167,R DR JOAQUIM COUTO,116,4795-465,SÃO MARTINHO CAMPO,-8.370342024305002,41.36234258781145
pt.ine.add.PTCONT.3557182,R AMÉRICO MARTINS COELHO,512,4780-175,SANTO TIRSO,-8.482385242227801,41.31980993968093
pt.ine.add.PTCONT.3557183,TV TELHEIRAS,7,4780-727,SANTO TIRSO,-8.508548733703707,41.35018839569997
pt.ine.add.PTCONT.3557184,TV ALCAIDE,104,4780-567,SANTO TIRSO,-8.48523210980437,41.338358711000325
pt.ine.add.PTCONT.3557185,TV ALDEIA DO MONTE,,4795-493,SÃO MARTINHO CAMPO,-8.374522554912117,41.36168560199912
pt.ine.add.PTCONT.3557186,R S BENTO,4,4780-616,SEQUEIRÓ,-8.458924139091264,41.36933813181158
pt.ine.add.PTCONT.3557189,R TELHEIRAS,648,4780-727,SANTO TIRSO,-8.506594598952953,41.34697129879475
pt.ine.add.PTCONT.3557190,R FREIXIEIRO,22,4780-475,SANTO TIRSO,-8.499139745146843,41.351416245034734
pt.ine.add.PTCONT.3557191,R ANTÓNIO JOSE BORGES DA SILVA TELES,28,4780-566,SANTO TIRSO,-8.479134407568562,41.34874089599207
pt.ine.add.PTCONT.3557192,R ANTÓNIO JOSE BORGES DA SILVA TELES,38,4780-566,SANTO TIRSO,-8.479434697592023,41.3490371269803
pt.ine.add.PTCONT.3557193,R LARANJEIRAS,5,4780-494,SANTO TIRSO,-8.491747658320604,41.339175972420925
pt.ine.add.PTCONT.3557194,R FORMIGA,343,4780-472,SANTO TIRSO,-8.468220200220173,41.338454520594205
pt.ine.add.PTCONT.3557195,R FORMIGA,151,4780-472,SANTO TIRSO,-8.469276097811456,41.33934284573221
pt.ine.add.PTCONT.3557196,R FORMIGA,151,4780-472,SANTO TIRSO,-8.469276097811456,41.33934284573221
pt.ine.add.PTCONT.3557197,R FONTISCOS,384,4780-470,SANTO TIRSO,-8.489777989555735,41.34165821492679
pt.ine.add.PTCONT.3557198,R JUNCAL,39,4780-490,SANTO TIRSO,-8.486991103090801,41.33887555285712
pt.ine.add.PTCONT.3557199,R VELHOS,88,4795-440,SÃO MAMEDE NEGRELOS,-8.358230482734943,41.350526568057134
pt.ine.add.PTCONT.3557200,R PADRE LUIS GONZAGA MARTINS PINHEIRO,66,4780-256,SANTO TIRSO,-8.457072602819117,41.33340813120471
pt.ine.add.PTCONT.3557201,R BELA VISTA,306 A,4795-577,SÃO TOMÉ NEGRELOS,-8.39437916310604,41.35414185146593
pt.ine.add.PTCONT.3557207,R PADRE CAMPOS,208,4780-210,SANTO TIRSO,-8.473291911354996,41.32127783154058
pt.ine.add.PTCONT.3557208,R FRANCISCO MOREIRA,41,4780-474,SANTO TIRSO,-8.473406871775746,41.34401745134852
pt.ine.add.PTCONT.3557209,R FRANCISCO MOREIRA,59,4780-474,SANTO TIRSO,-8.473406871775746,41.34401745134852
pt.ine.add.PTCONT.3557210,R FRANCISCO MOREIRA,59,4780-474,SANTO TIRSO,-8.473406871775746,41.34401745134852
pt.ine.add.PTCONT.3557211,R FRANCISCO MOREIRA,59,4780-474,SANTO TIRSO,-8.473406871775746,41.34401745134852
pt.ine.add.PTCONT.3557212,R FRANCISCO MOREIRA,59,4780-474,SANTO TIRSO,-8.473406871775746,41.34401745134852
pt.ine.add.PTCONT.3557213,R FRANCISCO MOREIRA,59,4780-474,SANTO TIRSO,-8.473406871775746,41.34401745134852
pt.ine.add.PTCONT.3557214,R FRANCISCO MOREIRA,59,4780-474,SANTO TIRSO,-8.473406871775746,41.34401745134852
pt.ine.add.PTCONT.3557215,R FRANCISCO MOREIRA,41,4780-474,SANTO TIRSO,-8.473406871775746,41.34401745134852
pt.ine.add.PTCONT.3557216,R FRANCISCO MOREIRA,41,4780-474,SANTO TIRSO,-8.473406871775746,41.34401745134852
pt.ine.add.PTCONT.3557217,R FRANCISCO MOREIRA,41,4780-474,SANTO TIRSO,-8.473406871775746,41.34401745134852
pt.ine.add.PTCONT.3557218,R S BENTO,17,4780-546,SANTO TIRSO,-8.47278843069254,41.34374778375555
pt.ine.add.PTCONT.3557219,R S JOÃO DE DEUS,24,4780-549,SANTO TIRSO,-8.478503668314941,41.34243993979844
pt.ine.add.PTCONT.3557220,R S JOÃO DE DEUS,24,4780-549,SANTO TIRSO,-8.478503668314941,41.34243993979844
pt.ine.add.PTCONT.3557221,R EIRA NOVA,7,4795-880,SÃO MAMEDE NEGRELOS,-8.35677986840543,41.34913376426505
pt.ine.add.PTCONT.3557222,R BOEIROS,174,4795-819,VILARINHO STS,-8.332196483350018,41.371184847069465
pt.ine.add.PTCONT.3557223,TV BAIRRO DA BAIONA,60,4795-784,VILARINHO STS,-8.330953384838221,41.37118699091651
pt.ine.add.PTCONT.3557244,R FERREIRA LEMOS,27,4780-468,SANTO TIRSO,-8.475827869215555,41.337972910345464
pt.ine.add.PTCONT.3557245,R PADERNE,67,4795-481,SÃO MARTINHO CAMPO,-8.35906248597422,41.35961004409566
pt.ine.add.PTCONT.3557246,R AREAL,414,4780-247,SANTO TIRSO,-8.462957404176457,41.332500011581686
pt.ine.add.PTCONT.3557247,R AREAL,414,4780-247,SANTO TIRSO,-8.462957404176457,41.332500011581686
pt.ine.add.PTCONT.3557248,R MANUEL SILVA REIS,15,4780-606,SEQUEIRÓ,-8.451372476902932,41.37227657216117
pt.ine.add.PTCONT.3557258,R SANTO ANDRE,25,4780-222,SANTO TIRSO,-8.49494722154571,41.33013485808437
pt.ine.add.PTCONT.3557259,TV GABRIEL CARDOSO MIRANDA,15,4780-227,SANTO TIRSO,-8.484203342171748,41.33588573041114
pt.ine.add.PTCONT.3557260,R DR JOAQUIM AUGUSTO PIRES LIMA,26,4780-449,SANTO TIRSO,-8.476028272405282,41.33973711378671
pt.ine.add.PTCONT.3557261,TV RUA DE VALVERDE,,4795-438,SÃO MAMEDE NEGRELOS,-8.360070987107763,41.34718243971471
pt.ine.add.PTCONT.3557262,R AREAL,414,4780-247,SANTO TIRSO,-8.462957404176457,41.332500011581686
pt.ine.add.PTCONT.3557263,R AREAL,414,4780-247,SANTO TIRSO,-8.462957404176457,41.332500011581686
pt.ine.add.PTCONT.3557264,R AREAL,414,4780-247,SANTO TIRSO,-8.462957404176457,41.332500011581686
pt.ine.add.PTCONT.3557265,R AREAL,414,4780-247,SANTO TIRSO,-8.462957404176457,41.332500011581686
pt.ine.add.PTCONT.3557266,AV 27 MAIO,91,4795-545,SÃO TOMÉ NEGRELOS,-8.397432125346056,41.35851985962801
pt.ine.add.PTCONT.3557267,TV ROSAL,55,4780-627,SEQUEIRÓ,-8.450596760434395,41.372530827837586
pt.ine.add.PTCONT.3558149,R PADERNE,67,4795-481,SÃO MARTINHO CAMPO,-8.35906248597422,41.35961004409566
pt.ine.add.PTCONT.3558156,R PAGAL,134,4825-099,ÁGUA LONGA,-8.489041819806568,41.25465343632523
pt.ine.add.PTCONT.3558161,R JOÃO PAULO II,154,4825-272,SANTO TIRSO,-8.417079553687389,41.31190387394475
pt.ine.add.PTCONT.3558163,AV ESPINHO,240,4795-444,SÃO MARTINHO CAMPO,-8.378680687512668,41.36463013452024
pt.ine.add.PTCONT.3558208,R NOVA DOS CASTANHEIROS,35,4825-288,SANTO TIRSO,-8.421338537836634,41.31905156867178
pt.ine.add.PTCONT.3558223,R DR ALEXANDRE LIMA CARNEIRO,1133,4780-023,AREIAS STS,-8.475843668699122,41.35693543475623
pt.ine.add.PTCONT.3558239,R ALDEIA NOVA,336,4780-794,SANTO TIRSO,-8.446159333197075,41.35199574190457
pt.ine.add.PTCONT.3558241,R ROSADOURO,266,4795-229,REBORDÕES,-8.435716530899521,41.35478792146867
pt.ine.add.PTCONT.3558314,R PLAINO,213,4795-323,RORIZ STS,-8.385357002046103,41.33864794786086
pt.ine.add.PTCONT.3558315,R ALDEIA NOVA,336,4780-794,SANTO TIRSO,-8.446159333197075,41.35199574190457
pt.ine.add.PTCONT.3558326,R RIOBERTO,106,4795-108,AVES,-8.414096420097302,41.368051686697704
pt.ine.add.PTCONT.3558332,R ETELVINA GOMES MARTINS,77,4780-304,LAMA STS,-8.45929437466308,41.36449290865832
pt.ine.add.PTCONT.3558338,R FRANCISCO MOREIRA,59,4780-474,SANTO TIRSO,-8.473406871775746,41.34401745134852
pt.ine.add.PTCONT.3558344,TV OLIVEIRA,51,4780-208,SANTO TIRSO,-8.478595061199123,41.321298052641616
pt.ine.add.PTCONT.3558373,R GEN HUMBERTO DELGADO,27,4795-072,AVES,-8.406432954416314,41.359003062307586
pt.ine.add.PTCONT.3558392,R BEIRA RIO,20,4780-632,SEQUEIRÓ,-8.443363936632991,41.362222918247575
pt.ine.add.PTCONT.3558402,R S BENTO DA BATALHA,126,4780-547,SANTO TIRSO,-8.485245180609024,41.35187378385729
pt.ine.add.PTCONT.3558411,R COUTADA,152,4795-256,RORIZ STS,-8.386547433252138,41.34987342603132
pt.ine.add.PTCONT.3558455,R NOVA DOS CASTANHEIROS,256,4825-288,SANTO TIRSO,-8.420876891753585,41.31727891169402
pt.ine.add.PTCONT.3558490,R BAIRRO DE PONTES,43,4795-501,SÃO MARTINHO CAMPO,-8.354405213660188,41.364184151934616
pt.ine.add.PTCONT.3558545,R RIBEIRA,1229,4795-333,RORIZ STS,-8.375925453585198,41.34041502598699
pt.ine.add.PTCONT.3558550,R ANTÓNIO MARTINS,50,4795-448,SÃO MARTINHO CAMPO,-8.377922773770505,41.363308153329676
pt.ine.add.PTCONT.3558552,R AMÉRICO MARTINS COELHO,512,4780-175,SANTO TIRSO,-8.482385242227801,41.31980993968093
pt.ine.add.PTCONT.3558663,R LOTEAMENTO DO CARREIRO,88,4795-171,REBORDÕES,-8.426032926955818,41.35652374784279
pt.ine.add.PTCONT.3558792,R SILVA ARAÚJO,1352,4795-120,AVES,-8.415718523929488,41.364500120043814
pt.ine.add.PTCONT.3558793,R JOAQUIM ARAÚJO,186,4780-753,SANTO TIRSO,-8.486416664014198,41.332061223448605
pt.ine.add.PTCONT.3558802,R LOTEAMENTO MUNICIPAL,2,4795-803,VILARINHO STS,-8.338215308168797,41.373254211396336
pt.ine.add.PTCONT.3558999,R PORTELADA,236,4825-249,LAMELAS,-8.480866518330561,41.2902359521578
pt.ine.add.PTCONT.3559000,R PORTELADA,236,4825-249,LAMELAS,-8.480866518330561,41.2902359521578
pt.ine.add.PTCONT.3558879,R FREITAS,387,4795-205,REBORDÕES,-8.442008452467025,41.35611281078954
pt.ine.add.PTCONT.3558880,R FREITAS,387,4795-205,REBORDÕES,-8.442008452467025,41.35611281078954
pt.ine.add.PTCONT.3558881,R FREITAS,387,4795-205,REBORDÕES,-8.442008452467025,41.35611281078954
pt.ine.add.PTCONT.3558882,R FREITAS,387,4795-205,REBORDÕES,-8.442008452467025,41.35611281078954
pt.ine.add.PTCONT.3558883,R GIL EANES,81,4780-479,SANTO TIRSO,-8.493353224061998,41.353028221882894
pt.ine.add.PTCONT.3558884,R GIL EANES,81,4780-479,SANTO TIRSO,-8.493353224061998,41.353028221882894
pt.ine.add.PTCONT.3558885,LG DR JOAQUIM ANTÓNIO CARDOSO DE ANDRADE,3,4780-702,SANTO TIRSO,-8.463142490903344,41.33130193626075
pt.ine.add.PTCONT.3558886,LG DR JOAQUIM ANTÓNIO CARDOSO DE ANDRADE,3,4780-702,SANTO TIRSO,-8.463142490903344,41.33130193626075
pt.ine.add.PTCONT.3558887,LG DR JOAQUIM ANTÓNIO CARDOSO DE ANDRADE,3,4780-702,SANTO TIRSO,-8.463142490903344,41.33130193626075
pt.ine.add.PTCONT.3558888,LG DR JOAQUIM ANTÓNIO CARDOSO DE ANDRADE,3,4780-702,SANTO TIRSO,-8.463142490903344,41.33130193626075
pt.ine.add.PTCONT.3558889,LG DR JOAQUIM ANTÓNIO CARDOSO DE ANDRADE,3,4780-702,SANTO TIRSO,-8.463142490903344,41.33130193626075
pt.ine.add.PTCONT.3558890,LG DR JOAQUIM ANTÓNIO CARDOSO DE ANDRADE,3,4780-702,SANTO TIRSO,-8.463142490903344,41.33130193626075
pt.ine.add.PTCONT.3558891,LG DR JOAQUIM ANTÓNIO CARDOSO DE ANDRADE,3,4780-702,SANTO TIRSO,-8.463142490903344,41.33130193626075
pt.ine.add.PTCONT.3558892,LG DR JOAQUIM ANTÓNIO CARDOSO DE ANDRADE,3,4780-702,SANTO TIRSO,-8.463142490903344,41.33130193626075
pt.ine.add.PTCONT.3559268,R VISO,9,4825-288,SANTO TIRSO,-8.427972454293736,41.31758510233356
pt.ine.add.PTCONT.3559269,R VISO,9,4825-288,SANTO TIRSO,-8.427972454293736,41.31758510233356
pt.ine.add.PTCONT.3559378,R PLÁCIDO CARVALHO,155,4780-216,SANTO TIRSO,-8.469188281284788,41.32923150753074
pt.ine.add.PTCONT.3559379,R PLÁCIDO CARVALHO,155,4780-216,SANTO TIRSO,-8.469188281284788,41.32923150753074
pt.ine.add.PTCONT.3559384,R BAIRRO DE PONTES,43,4795-501,SÃO MARTINHO CAMPO,-8.354405213660188,41.364184151934616
pt.ine.add.PTCONT.3559423,R ESPÍRITO SANTO,67,4795-618,SÃO TOMÉ NEGRELOS,-8.40845092906321,41.35576579377968
pt.ine.add.PTCONT.3559464,R ACÁCIAS,94,4780-385,SANTO TIRSO,-8.491275901084354,41.34029394740685
pt.ine.add.PTCONT.3559470,R CENTRAL DE REDUNDO,921,4825-286,SANTO TIRSO,-8.402526990620116,41.31888103764601
pt.ine.add.PTCONT.3559484,R VISC DE CANTIM,191,4825-420,REGUENGA,-8.451248863908171,41.275662817441365
pt.ine.add.PTCONT.3559486,R DIOGO CÃO,52,4780-433,SANTO TIRSO,-8.48884574819698,41.33940107623655
pt.ine.add.PTCONT.3559492,R ALBINO SOUSA CRUZ,477,4780-011,AREIAS STS,-8.484713347251915,41.3662908951148
pt.ine.add.PTCONT.3559511,R STA EULÁLIA,105,4825-244,LAMELAS,-8.472480670103813,41.289216496391546
pt.ine.add.PTCONT.3562308,AV PERLONGA,189,4780-098,SANTO TIRSO,-8.457458016003708,41.348488883718765
pt.ine.add.PTCONT.3562309,AV PERLONGA,189,4780-098,SANTO TIRSO,-8.457458016003708,41.348488883718765
pt.ine.add.PTCONT.3562310,R JOSE DIAS DA COSTA,36,4780-279,LAMA STS,-8.470034962364796,41.359086547796245
pt.ine.add.PTCONT.3562313,R MESTRA,115,4825-147,SANTO TIRSO,-8.476617205990104,41.31084118593414
pt.ine.add.PTCONT.3562314,R CASAIS,575,4825-141,SANTO TIRSO,-8.47789737411238,41.30902752871955
pt.ine.add.PTCONT.3562315,R PARADA,32,4825-194,SANTO TIRSO,-8.482664526274718,41.3094903698007
pt.ine.add.PTCONT.3562316,R AGRA,154,4780-271,LAMA STS,-8.468458813718476,41.357020218894476
pt.ine.add.PTCONT.3562317,R VALE DAS VINHAS,368,4780-312,LAMA STS,-8.466584666101507,41.35273973240913
pt.ine.add.PTCONT.3562318,R OLIVEIRAS,139,4780-280,LAMA STS,-8.469201390382626,41.355019151949335
pt.ine.add.PTCONT.3562323,R ROMÃO,,4795-110,AVES,-8.414909339025236,41.362548225129515
pt.ine.add.PTCONT.3562324,R PEDREIRAS,40,4780-145,SANTO TIRSO,-8.435655091772038,41.333772561249546
pt.ine.add.PTCONT.3562325,R FACHO,101,4825-144,SANTO TIRSO,-8.462318658763422,41.30765048440699
pt.ine.add.PTCONT.3562326,R CASAL,119,4825-142,SANTO TIRSO,-8.46578340694281,41.30095044821027
pt.ine.add.PTCONT.3562331,R SANTO ANDRÉ,354,4795-113,AVES,-8.399805222343241,41.371912411755986
pt.ine.add.PTCONT.3562332,R PARADA,96,4825-152,SANTO TIRSO,-8.469869690295221,41.30381088757288
pt.ine.add.PTCONT.3562334,R 25 DE ABRIL,1173,4825-010,AGRELA STS,-8.48277380251209,41.260633429207566
pt.ine.add.PTCONT.3562335,R SERRA,,4825-117,ÁGUA LONGA,-8.489124843223328,41.26554826762578
pt.ine.add.PTCONT.3562336,TV DOCEIRAS,9,4795-135,AVES,-8.398175344110998,41.37380702557521
pt.ine.add.PTCONT.3562337,R VERMOIM,59,4825-160,SANTO TIRSO,-8.475146200691988,41.308144327465385
pt.ine.add.PTCONT.3562338,R PADRAO,125,4825-151,SANTO TIRSO,-8.471835260075002,41.30060865038503
pt.ine.add.PTCONT.3562339,R DR EDUARDO LIMA CARNEIRO,263,4780-300,LAMA STS,-8.4609496708017,41.36329967095099
pt.ine.add.PTCONT.3562340,R CASA CABO,46,4825-068,LAMELAS,-8.476137550482253,41.285396896496145
pt.ine.add.PTCONT.3562341,R QUINTAES,155,4795-330,RORIZ STS,-8.363284095823435,41.34009884583793
pt.ine.add.PTCONT.3562342,TV PLAINO,12,4795-323,RORIZ STS,-8.38497702618062,41.33925205422983
pt.ine.add.PTCONT.3562347,R AGRELO,98,4825-260,SANTO TIRSO,-8.426242460464007,41.312646255703996
pt.ine.add.PTCONT.3562348,R AGRELO,98,4825-260,SANTO TIRSO,-8.426242460464007,41.312646255703996
pt.ine.add.PTCONT.3562349,R TOPA,117,4795-353,RORIZ STS,-8.378770888038526,41.33776178435243
pt.ine.add.PTCONT.3562351,R SENHORA DE FÁTIMA,98,4795-091,AVES,-8.400275861882518,41.3642398729869
pt.ine.add.PTCONT.3562352,R DR MANUEL DE FONTELA,239,4780-302,LAMA STS,-8.45977837172935,41.36089892063146
pt.ine.add.PTCONT.3562353,R DR EDUARDO LIMA CARNEIRO,469,4780-300,LAMA STS,-8.461994358553222,41.36190106273078
pt.ine.add.PTCONT.3562354,TV VAU DAS VINHAS,78,4780-312,LAMA STS,-8.465374575324523,41.35211294792836
pt.ine.add.PTCONT.3562355,TV VAU DAS VINHAS,78,4780-312,LAMA STS,-8.465374575324523,41.35211294792836
pt.ine.add.PTCONT.3562356,R SOUTO,64,4825-257,LAMELAS,-8.478772371893738,41.282507681300885
pt.ine.add.PTCONT.3562357,R BOUCAINHAS,142,4825-263,SANTO TIRSO,-8.457575661476527,41.31200394253673
pt.ine.add.PTCONT.3562362,R DR JOAQUIM COUTO,23,4825-021,AGRELA STS,-8.486224781037343,41.25886707668831
pt.ine.add.PTCONT.3562363,R SENHORA DA CONCEIÇÃO,3,4795-090,AVES,-8.409570954265561,41.363461578505856
pt.ine.add.PTCONT.3562364,R CENTRAL DE REDUNDO,1261,4825-286,SANTO TIRSO,-8.40533581829619,41.31652435253285
pt.ine.add.PTCONT.3562365,R SOUTINHOS,170,4795-349,RORIZ STS,-8.38286794710079,41.35321297692578
pt.ine.add.PTCONT.3562366,R ALEXANDRE HERCULANO,33,4795-265,RORIZ STS,-8.383502618334317,41.35356275658951
pt.ine.add.PTCONT.3562367,R ALEXANDRE HERCULANO,25,4795-265,RORIZ STS,-8.383491048253582,41.353661826532495
pt.ine.add.PTCONT.3562368,R URBANIZAÇÃO DA QUINTA DE S JOÃO,32,4795-906,RORIZ STS,-8.377283265774047,41.35528689297587
pt.ine.add.PTCONT.3562371,R NSA SRA ROSÁRIO,22,4825-095,ÁGUA LONGA,-8.490121777822354,41.25577561926931
pt.ine.add.PTCONT.3562372,R FERNANDO PIRES LIMA,1304,4780-031,AREIAS STS,-8.471291538135304,41.3594250161232
pt.ine.add.PTCONT.3562373,R S CLARA CASA FERREIRA,138,4795-112,AVES,-8.410444369530564,41.37213037267154
pt.ine.add.PTCONT.3562374,R S CLARA CASA FERREIRA,138,4795-112,AVES,-8.410444369530564,41.37213037267154
pt.ine.add.PTCONT.3562375,R NSA SRA DAS VALINHAS,159,4825-289,SANTO TIRSO,-8.442995867282747,41.3123232445331
pt.ine.add.PTCONT.3562376,R MONTINHO,74,4795-215,REBORDÕES,-8.431062685834137,41.35886089533908
pt.ine.add.PTCONT.3562378,R PROF HERMANO PADRAO,142,4795-102,AVES,-8.40443598707351,41.3673455409508
pt.ine.add.PTCONT.3562379,R 16 DE OUTUBRO,48,4825-282,SANTO TIRSO,-8.440808788640012,41.30942978137294
pt.ine.add.PTCONT.3562380,R PONTE,328,4795-191,REBORDÕES,-8.43473783771246,41.3628131054026
pt.ine.add.PTCONT.3562382,R LIBERDADE,165,4825-026,AGRELA STS,-8.482973517019976,41.26228059176119
pt.ine.add.PTCONT.3562383,TV AGRA,67,4825-055,AGRELA STS,-8.475841981196002,41.25627822687437
pt.ine.add.PTCONT.3562384,R CRUZEIRO,55,4825-288,SANTO TIRSO,-8.424864828070536,41.31704376959954
pt.ine.add.PTCONT.3562385,R S JOÃO,130,4795-233,REBORDÕES,-8.439035425404425,41.35155569160637
pt.ine.add.PTCONT.3562386,R NSA SRA DE FÁTIMA,54,4795-217,REBORDÕES,-8.439159556296433,41.360199260187464
pt.ine.add.PTCONT.3562390,R D AFONSO HENRIQUES,216,4780-020,AREIAS STS,-8.483993770979753,41.36583388533358
pt.ine.add.PTCONT.3562391,R SOBRADO,337,4795-121,AVES,-8.395155641054282,41.374930441960345
pt.ine.add.PTCONT.3562392,R RIOBERTO,216,4795-108,AVES,-8.414551070236218,41.368158624233615
pt.ine.add.PTCONT.3562393,R CAMPO GRANDE,14,4795-046,AVES,-8.399170572583262,41.36869943764219
pt.ine.add.PTCONT.3562394,R CAMPO GRANDE,14,4795-046,AVES,-8.399170572583262,41.36869943764219
pt.ine.add.PTCONT.3562395,R FERVENCA,,4795-202,REBORDÕES,-8.448107817079855,41.357104732671374
pt.ine.add.PTCONT.3562396,R S TOME,335,4825-264,SANTO TIRSO,-8.414480398077153,41.33232258872242
pt.ine.add.PTCONT.3562397,R ALBINO SOUSA CRUZ,827,4825-288,SANTO TIRSO,-8.421638769120918,41.314008506762654
pt.ine.add.PTCONT.3562398,R FERNANDO PESSOA,91,4780-328,PALMEIRA STS,-8.48482961679966,41.36568726914565
pt.ine.add.PTCONT.3562399,R FERNANDO PESSOA,91,4780-328,PALMEIRA STS,-8.48482961679966,41.36568726914565
pt.ine.add.PTCONT.3562400,R SOLHÃO,270,4795-237,REBORDÕES,-8.436135261401304,41.36004519014444
pt.ine.add.PTCONT.3562401,R SANTOSINHOS,58,4795-231,REBORDÕES,-8.423793757032234,41.3501455420595
pt.ine.add.PTCONT.3562405,R PARANHOS,195,4780-052,AREIAS STS,-8.473961758678831,41.369582703754
pt.ine.add.PTCONT.3562406,R CAMILO CASTELO BRANCO,823,4795-045,AVES,-8.399527462247079,41.37414605660502
pt.ine.add.PTCONT.3562407,R CAMILO CASTELO BRANCO,823,4795-045,AVES,-8.399527462247079,41.37414605660502
pt.ine.add.PTCONT.3562408,R CAMPO GRANDE,14,4795-046,AVES,-8.399170572583262,41.36869943764219
pt.ine.add.PTCONT.3562409,R CAMPO GRANDE,14,4795-046,AVES,-8.399170572583262,41.36869943764219
pt.ine.add.PTCONT.3562410,R CAMPO GRANDE,14,4795-046,AVES,-8.399170572583262,41.36869943764219
pt.ine.add.PTCONT.3562411,R CAMPO GRANDE,14,4795-046,AVES,-8.399170572583262,41.36869943764219
pt.ine.add.PTCONT.3562412,R CAMILO CASTELO BRANCO,627,4825-284,SANTO TIRSO,-8.437857297821804,41.316712968725035
pt.ine.add.PTCONT.3562413,AV S TIAGO,418,4795-167,REBORDÕES,-8.422297320444718,41.354912463928905
pt.ine.add.PTCONT.3562414,R CORGOS,63,4825-376,REGUENGA,-8.463448202395028,41.27828469331036
pt.ine.add.PTCONT.3562415,R VISC DE CANTIM,986,4825-420,REGUENGA,-8.459886973400685,41.27502633843661
pt.ine.add.PTCONT.3562420,R FONTE SECAS,333,4825-288,SANTO TIRSO,-8.426997925681317,41.31333764733845
pt.ine.add.PTCONT.3562424,R PARQUE INDUSTRIAL DA BARCA,138,4795-096,AVES,-8.39769977571097,41.38328936329519
pt.ine.add.PTCONT.3562425,TV CORGOS,38,4825-424,REGUENGA,-8.463093167547642,41.27888899150377
pt.ine.add.PTCONT.3562426,R CENTRO,30,4795-286,RORIZ STS,-8.366662310726506,41.339299680047326
pt.ine.add.PTCONT.3562427,R CENTRO,30,4795-286,RORIZ STS,-8.366662310726506,41.339299680047326
pt.ine.add.PTCONT.3562428,R CENTRO,30,4795-286,RORIZ STS,-8.366662310726506,41.339299680047326
pt.ine.add.PTCONT.3562429,R D AFONSO HENRIQUES,996,4795-289,RORIZ STS,-8.373938210009872,41.33608823165485
pt.ine.add.PTCONT.3563312,R JOSE NARCISO MARTINS DA COSTA,655,4795-474,SÃO MARTINHO CAMPO,-8.364967838270193,41.35670799353484
pt.ine.add.PTCONT.3563313,R IDANHA,35,4795-793,VILARINHO STS,-8.338973656961643,41.359764785202245
pt.ine.add.PTCONT.3563314,R IDANHA,35,4795-793,VILARINHO STS,-8.338973656961643,41.359764785202245
pt.ine.add.PTCONT.3563319,R CLIPAL,83,4795-818,VILARINHO STS,-8.342955507622225,41.371615933282904
pt.ine.add.PTCONT.3563325,R CEREJEIRA,30,4780-180,SANTO TIRSO,-8.499904705476798,41.328030216218714
pt.ine.add.PTCONT.3563326,R SACADURA CABRAL,90,4780-422,SANTO TIRSO,-8.483570141070066,41.34479269552357
pt.ine.add.PTCONT.3563327,R SACADURA CABRAL,90,4780-422,SANTO TIRSO,-8.483570141070066,41.34479269552357
pt.ine.add.PTCONT.3563328,R SACADURA CABRAL,90,4780-422,SANTO TIRSO,-8.483570141070066,41.34479269552357
pt.ine.add.PTCONT.3563329,R SACADURA CABRAL,90,4780-422,SANTO TIRSO,-8.483570141070066,41.34479269552357
pt.ine.add.PTCONT.3563330,R SACADURA CABRAL,90,4780-422,SANTO TIRSO,-8.483570141070066,41.34479269552357
pt.ine.add.PTCONT.3563331,R EIRA,177,4795-408,SÃO MAMEDE NEGRELOS,-8.342837092519568,41.34962822876695
pt.ine.add.PTCONT.3563332,R LOTEAMENTO DO COUCO,138,4795-405,SÃO MAMEDE NEGRELOS,-8.349270952931995,41.34400678048529
pt.ine.add.PTCONT.3563333,R LAMEIRINHOS,115,4795-818,VILARINHO STS,-8.3430690154605,41.36974288454953
pt.ine.add.PTCONT.3563337,AV ABEL ALVES FIGUEIREDO,731,4780-163,SANTO TIRSO,-8.481009338219273,41.31711287212346
pt.ine.add.PTCONT.3563338,R SACADURA CABRAL,155,4780-422,SANTO TIRSO,-8.482815063436204,41.344353792691315
pt.ine.add.PTCONT.3563339,R SACADURA CABRAL,40,4780-422,SANTO TIRSO,-8.482555821898043,41.34502988561582
pt.ine.add.PTCONT.3563340,R ZE DA CALÇADA,125,4780-728,SANTO TIRSO,-8.464941918817257,41.33515051458037
pt.ine.add.PTCONT.3563341,AV ALDEIA NOVA,190,4780-587,SEQUEIRÓ,-8.453844559654275,41.37425959987285
pt.ine.add.PTCONT.3563359,R PADRE ANTÓNIO CARVALHO,95,4780-209,SANTO TIRSO,-8.467076901236137,41.32980491141932
pt.ine.add.PTCONT.3563360,R PADRE ANTÓNIO CARVALHO,95,4780-209,SANTO TIRSO,-8.467076901236137,41.32980491141932
pt.ine.add.PTCONT.3563361,R SACADURA CABRAL,125,4780-422,SANTO TIRSO,-8.483042650294575,41.344461149832654
pt.ine.add.PTCONT.3563362,TV 3 DA RUA DE SANTO ISIDRO,32,4795-429,SÃO MAMEDE NEGRELOS,-8.343655913973608,41.35158061865733
pt.ine.add.PTCONT.3563363,R FERNANDO PINHEIRO ROCHA,369,4795-519,SÃO SALVADOR DO CAMPO,-8.357187209355846,41.35990184066458
pt.ine.add.PTCONT.3563364,R VALINHAS,21,4795-840,VILARINHO STS,-8.338308711885404,41.36874301760474
pt.ine.add.PTCONT.3563374,R ALEGRIA,134,4780-388,SANTO TIRSO,-8.485847451504254,41.35276334156644
pt.ine.add.PTCONT.3563375,R CMDT FRANCISCO FESTA,120,4780-425,SANTO TIRSO,-8.492879027758866,41.34503409512152
pt.ine.add.PTCONT.3563376,TV RUA CIMO DE VILA,7,4795-403,SÃO MAMEDE NEGRELOS,-8.341339202939078,41.348289340575484
pt.ine.add.PTCONT.3563377,R NSA SRA DE ESPINHO,48,4795-478,SÃO MARTINHO CAMPO,-8.377887317966206,41.36660371207178
pt.ine.add.PTCONT.3563378,CC IGREJA NOVA,16,4795-795,VILARINHO STS,-8.341009757609594,41.3649204512961
pt.ine.add.PTCONT.3563379,CC IGREJA NOVA,16,4795-795,VILARINHO STS,-8.341009757609594,41.3649204512961
pt.ine.add.PTCONT.3563380,CC IGREJA NOVA,16,4795-795,VILARINHO STS,-8.341009757609594,41.3649204512961
pt.ine.add.PTCONT.3563386,R ALÉM RIO,40,4780-173,SANTO TIRSO,-8.477754228348457,41.322660193901065
pt.ine.add.PTCONT.3563387,R SOL,50,4780-553,SANTO TIRSO,-8.48454163149288,41.352146056214615
pt.ine.add.PTCONT.3563388,R FERNANDO PESSOA,76,4780-465,SANTO TIRSO,-8.48393508194831,41.350455142928325
pt.ine.add.PTCONT.3563389,R VISC DE NEGRELOS,29,4795-712,SÃO TOMÉ NEGRELOS,-8.40480747720653,41.34746369521343
pt.ine.add.PTCONT.3563390,R VISC DE NEGRELOS,29,4795-712,SÃO TOMÉ NEGRELOS,-8.40480747720653,41.34746369521343
pt.ine.add.PTCONT.3563392,R BELA,187,4780-178,SANTO TIRSO,-8.495423011451205,41.331925175912374
pt.ine.add.PTCONT.3563393,R PONTE VELHA,42,4780-526,SANTO TIRSO,-8.486276007232224,41.34582889656076
pt.ine.add.PTCONT.3563394,R A DAS PORTELAS,135,4795-421,SÃO MAMEDE NEGRELOS,-8.355972415282352,41.3506210035761
pt.ine.add.PTCONT.3563395,AV MOURINHA,307,4795-549,SÃO TOMÉ NEGRELOS,-8.39910516352155,41.34383036270356
pt.ine.add.PTCONT.3563396,AV MOURINHA,307,4795-549,SÃO TOMÉ NEGRELOS,-8.39910516352155,41.34383036270356
pt.ine.add.PTCONT.3563399,R ALTO DO PEDRO,95,4780-394,SANTO TIRSO,-8.487992570043772,41.345094286543485
pt.ine.add.PTCONT.3563400,TV IGREJA,30,4780-256,SANTO TIRSO,-8.460658423047116,41.331426085517045
pt.ine.add.PTCONT.3563401,TV D MARIA II,6,4795-726,SÃO TOMÉ NEGRELOS,-8.40720265387523,41.354463183971866
pt.ine.add.PTCONT.3563402,TV D MARIA II,6,4795-726,SÃO TOMÉ NEGRELOS,-8.40720265387523,41.354463183971866
pt.ine.add.PTCONT.3563415,R SOBREGIAO,330,4780-551,SANTO TIRSO,-8.488676684991818,41.343462437765716
pt.ine.add.PTCONT.3563416,R BERNARDINO ALVES BARBOSA SANTARÉM,100,4780-410,SANTO TIRSO,-8.493101720815547,41.34208006252037
pt.ine.add.PTCONT.3563417,TV CUBICULO,25,4795-504,SÃO MARTINHO CAMPO,-8.353063362986036,41.36321428626155
pt.ine.add.PTCONT.3563418,R PATRICIO ALVES CARNEIRO,29,4795-671,SÃO TOMÉ NEGRELOS,-8.40285452539392,41.34617170166387
pt.ine.add.PTCONT.3563426,R PADRE LUIS GONZAGA PINHEIRO,,4780-213,SANTO TIRSO,-8.474774660175566,41.32389363553927
pt.ine.add.PTCONT.3563427,R FONTISCOS,520,4780-470,SANTO TIRSO,-8.491239260814451,41.342328982986245
pt.ine.add.PTCONT.3563428,R ESCOLA,329,4795-878,SÃO MAMEDE NEGRELOS,-8.357451766663567,41.353418396655464
pt.ine.add.PTCONT.3563430,R ESCOLA,180,4795-878,SÃO MAMEDE NEGRELOS,-8.356156538119434,41.35205229496147
pt.ine.add.PTCONT.3563431,TV BOAVISTA,71,4795-824,VILARINHO STS,-8.34590774391393,41.36056253824749
pt.ine.add.PTCONT.3563432,TV BOAVISTA,71,4795-824,VILARINHO STS,-8.34590774391393,41.36056253824749
pt.ine.add.PTCONT.3563434,LG DOMINGOS MOREIRA,15,4780-371,SANTO TIRSO,-8.480212873009032,41.342569858935164
pt.ine.add.PTCONT.3563435,R NOVA DA TELHEIRA,347,4780-510,SANTO TIRSO,-8.477578658369934,41.33468119187713
pt.ine.add.PTCONT.3563436,R NOVA DA TELHEIRA,347,4780-510,SANTO TIRSO,-8.477578658369934,41.33468119187713
pt.ine.add.PTCONT.3563437,R NOVA DA TELHEIRA,347,4780-510,SANTO TIRSO,-8.477578658369934,41.33468119187713
pt.ine.add.PTCONT.3563438,R NOVA DA TELHEIRA,347,4780-510,SANTO TIRSO,-8.477578658369934,41.33468119187713
pt.ine.add.PTCONT.3563439,R NOVA DA TELHEIRA,347,4780-510,SANTO TIRSO,-8.477578658369934,41.33468119187713
pt.ine.add.PTCONT.3563440,R NOVA DA TELHEIRA,347,4780-510,SANTO TIRSO,-8.477578658369934,41.33468119187713
pt.ine.add.PTCONT.3563441,R COVELOS,84,4795-406,SÃO MAMEDE NEGRELOS,-8.352745948822628,41.35056417764599
pt.ine.add.PTCONT.3563442,R BOAVISTA,3UI,4795-578,SÃO TOMÉ NEGRELOS,-8.395390369485307,41.34408199844869
pt.ine.add.PTCONT.3563443,R PADRE JOSE NUNES MONTEIRO,295,4780-612,SEQUEIRÓ,-8.454920763356965,41.3670623704214
pt.ine.add.PTCONT.3563453,R ALF GIAO,144,4780-390,SANTO TIRSO,-8.48882569165585,41.34449744581871
pt.ine.add.PTCONT.3563454,R ALF GIAO,144,4780-390,SANTO TIRSO,-8.48882569165585,41.34449744581871
pt.ine.add.PTCONT.3563455,R ALF GIAO,144,4780-390,SANTO TIRSO,-8.48882569165585,41.34449744581871
pt.ine.add.PTCONT.3563456,R ALF GIAO,144,4780-390,SANTO TIRSO,-8.48882569165585,41.34449744581871
pt.ine.add.PTCONT.3563466,R STO ANDRE,87,4780-222,SANTO TIRSO,-8.496221357980932,41.32941051790709
pt.ine.add.PTCONT.3563467,R OLIVEIRAS,271,4780-774,SANTO TIRSO,-8.49227225728291,41.336806262787995
pt.ine.add.PTCONT.3563468,R MAJOR DE DINIZ,270,4780-200,SANTO TIRSO,-8.48238959607896,41.33404541065151
pt.ine.add.PTCONT.3563469,R JOÃO PAULO II,11,4780-603,SEQUEIRÓ,-8.45187221349122,41.3693578812418
pt.ine.add.PTCONT.3563470,R JOÃO PAULO II,11,4780-603,SEQUEIRÓ,-8.45187221349122,41.3693578812418
pt.ine.add.PTCONT.3563471,ESTR PARADELA,138,4795-796,VILARINHO STS,-8.329784423544691,41.352145404160055
pt.ine.add.PTCONT.3563475,R PEDRO ÁLVARES CABRAL,418,4780-518,SANTO TIRSO,-8.490155238022751,41.34072962519545
pt.ine.add.PTCONT.3563476,R MADRUGADA,73,4795-697,SÃO TOMÉ NEGRELOS,-8.39069119038457,41.35831904699428
pt.ine.add.PTCONT.3563477,R PITANCA,181,4795-787,VILARINHO STS,-8.325358670162588,41.354692031361296
pt.ine.add.PTCONT.3564552,R BARROCO,,4795-027,AVES,-8.414062788458605,41.37134724818552
pt.ine.add.PTCONT.3564478,R VÁRZEA,223,4795-439,SÃO MAMEDE NEGRELOS,-8.359529100644082,41.33907082327582
pt.ine.add.PTCONT.3564493,R PASSAL,130,4825-100,ÁGUA LONGA,-8.501011289758228,41.26352097085255
pt.ine.add.PTCONT.3564528,R PROF FRANCISCO DOS SANTOS NEVES,82,4825-278,SANTO TIRSO,-8.429077074409042,41.31887886079347
pt.ine.add.PTCONT.3564581,R PONTE NOVA,841,4795-100,AVES,-8.401486043045196,41.35916777377107
pt.ine.add.PTCONT.3564586,R MANUEL FERREIRA LAGOA,175,4795-180,REBORDÕES,-8.424464463169977,41.350495004865564
pt.ine.add.PTCONT.3564659,R NOVA DA TELHEIRA,347,4780-510,SANTO TIRSO,-8.477578658369934,41.33468119187713
pt.ine.add.PTCONT.3564680,R CENTRAL,1882 A,4825-264,SANTO TIRSO,-8.418995413617711,41.324009676447446
pt.ine.add.PTCONT.3564683,R PRESEIRO,572,4780-725,SANTO TIRSO,-8.50422342399905,41.346024537977435
pt.ine.add.PTCONT.3564686,R 25 DE ABRIL,1412,4825-010,AGRELA STS,-8.485119436068182,41.259680840037866
pt.ine.add.PTCONT.3564727,R PRESA NOVA,61,4825-264,SANTO TIRSO,-8.414763720624768,41.33153853896493
pt.ine.add.PTCONT.3564749,R SACADURA CABRAL,90,4780-422,SANTO TIRSO,-8.483570141070066,41.34479269552357
pt.ine.add.PTCONT.3564781,PCT DE VILA BOA,4,4795-801,VILARINHO STS,-8.336535826730692,41.37025544726524
pt.ine.add.PTCONT.3564782,PCT DE VILA BOA,4,4795-801,VILARINHO STS,-8.336535826730692,41.37025544726524
pt.ine.add.PTCONT.3564931,R CHÃOS,1260,4795-287,RORIZ STS,-8.37966133440708,41.35529082705544
pt.ine.add.PTCONT.3564954,R MONTINHO,74,4795-215,REBORDÕES,-8.431062685834137,41.35886089533908
pt.ine.add.PTCONT.3564955,R MONTINHO,74,4795-215,REBORDÕES,-8.431062685834137,41.35886089533908
pt.ine.add.PTCONT.3564980,R JOSE DIAS DA COSTA,731,4780-279,LAMA STS,-8.466375685217841,41.353937877995314
pt.ine.add.PTCONT.3565073,R SILVA ARAÚJO,1015 10,4795-120,AVES,-8.414522982293647,41.36163976109666
pt.ine.add.PTCONT.3565074,R SILVA ARAÚJO,1015 10,4795-120,AVES,-8.414522982293647,41.36163976109666
pt.ine.add.PTCONT.3565121,R VALINHAS,21,4795-840,VILARINHO STS,-8.338308711885404,41.36874301760474
pt.ine.add.PTCONT.3565122,R VILA BOA,60,4795-801,VILARINHO STS,-8.336831948651875,41.37045641060353
pt.ine.add.PTCONT.3565123,R VILA BOA,60,4795-801,VILARINHO STS,-8.336831948651875,41.37045641060353
pt.ine.add.PTCONT.3565134,R VILA BOA,60,4795-801,VILARINHO STS,-8.336831948651875,41.37045641060353
pt.ine.add.PTCONT.3565166,R JOSE NARCISO MARTINS DA COSTA,1162,4795-474,SÃO MARTINHO CAMPO,-8.36532402188726,41.35269146021094
pt.ine.add.PTCONT.3565167,R JOSE NARCISO MARTINS DA COSTA,1162,4795-474,SÃO MARTINHO CAMPO,-8.36532402188726,41.35269146021094
pt.ine.add.PTCONT.3565168,R JOSE NARCISO MARTINS DA COSTA,1162,4795-474,SÃO MARTINHO CAMPO,-8.36532402188726,41.35269146021094
pt.ine.add.PTCONT.3565718,R PLÁCIDO CARVALHO,137,4780-216,SANTO TIRSO,-8.469211292203592,41.329060362449276
pt.ine.add.PTCONT.3565772,R DR ALEXANDRE LIMA CARNEIRO,280,4780-442,SANTO TIRSO,-8.471731438984204,41.34976236692976
pt.ine.add.PTCONT.3568684,R PADRE AMERICO,114,4825-035,AGRELA STS,-8.465109971327086,41.259965382810755
pt.ine.add.PTCONT.3568685,R PROF MÁRIO FIGUEIREDO,82,4795-103,AVES,-8.409611971208427,41.36750429798864
pt.ine.add.PTCONT.3568686,R PROF MÁRIO FIGUEIREDO,82,4795-103,AVES,-8.409611971208427,41.36750429798864
pt.ine.add.PTCONT.3568687,R NARCISO JOSE MACHADO GUIMARÃES,627,4795-089,AVES,-8.40148944181938,41.36581275808164
pt.ine.add.PTCONT.3568688,R CASAL,177,4780-253,SANTO TIRSO,-8.45067324340714,41.339089538384
pt.ine.add.PTCONT.3568689,R VERMOIM,296,4825-160,SANTO TIRSO,-8.47554113092668,41.30602718199734
pt.ine.add.PTCONT.3568690,R ENCOSTA DA BELAVISTA,332,4825-189,SANTO TIRSO,-8.480872065380074,41.309261691690324
pt.ine.add.PTCONT.3568691,R JAIME SAMPAIO,300,4780-276,LAMA STS,-8.468161003036357,41.36186526637822
pt.ine.add.PTCONT.3568696,R OLIVEIRAS,52,4780-280,LAMA STS,-8.468236737225126,41.35566125318005
pt.ine.add.PTCONT.3568697,R PRESA NOVA,181,4825-264,SANTO TIRSO,-8.416410645726726,41.3311743329745
pt.ine.add.PTCONT.3568698,R AMÉRICO GONÇALVES,183,4825-261,SANTO TIRSO,-8.452213341302471,41.31928525978334
pt.ine.add.PTCONT.3568702,R PADRE JOAQUIM CARLOS LEMOS,,4795-094,AVES,-8.405796282167264,41.37539193768177
pt.ine.add.PTCONT.3568703,R ENCOSTA DA BELAVISTA,15 B,4825-442,SANTO TIRSO,-8.4796450089038,41.309814644122916
pt.ine.add.PTCONT.3568704,R S TIAGO,931,4825-159,SANTO TIRSO,-8.4667553579274,41.30189307024138
pt.ine.add.PTCONT.3568727,R S TIAGO,75,4780-059,AREIAS STS,-8.474723999772348,41.36220613372328
pt.ine.add.PTCONT.3568706,R CARVALHINHOS,24,4825-451,ÁGUA LONGA,-8.487851601676846,41.25740339407604
pt.ine.add.PTCONT.3568707,R PADROEIRO,26,4825-098,ÁGUA LONGA,-8.48974985833403,41.25759562236444
pt.ine.add.PTCONT.3568708,R QUINTÃO,49,4795-104,AVES,-8.401471899991822,41.37026980167365
pt.ine.add.PTCONT.3568709,TV RIBEIRA,61,4825-158,SANTO TIRSO,-8.47347621075212,41.310787487541816
pt.ine.add.PTCONT.3568710,R ENCOSTA DA BELAVISTA,110,4825-442,SANTO TIRSO,-8.47898827355891,41.309825623473216
pt.ine.add.PTCONT.3568711,R EIRO,1193,4825-185,SANTO TIRSO,-8.480978571105922,41.29335105173615
pt.ine.add.PTCONT.3568712,R EMIGRANTES,,4780-274,LAMA STS,-8.469433070891272,41.355918880955834
pt.ine.add.PTCONT.3568713,TV 30 DE JUNHO,5,4825-264,SANTO TIRSO,-8.417625715533477,41.33039698299987
pt.ine.add.PTCONT.3568714,R 31 DE DEZEMBRO,151,4825-264,SANTO TIRSO,-8.41765527735785,41.32346374627852
pt.ine.add.PTCONT.3568715,R MANUEL DE SOUSA RIBEIRO,193,4780-201,SANTO TIRSO,-8.488684364000877,41.33608807216447
pt.ine.add.PTCONT.3568716,R AREEIRO,,4825-072,ÁGUA LONGA,-8.486755416701309,41.25769490097478
pt.ine.add.PTCONT.3568717,R ARCOZELO,16,4825-071,ÁGUA LONGA,-8.486844217363751,41.256461051419265
pt.ine.add.PTCONT.3568718,R PAZ,183,4795-097,AVES,-8.428272405295544,41.36022769803336
pt.ine.add.PTCONT.3568719,R CABO,157,4825-237,LAMELAS,-8.476296506441573,41.28611675606236
pt.ine.add.PTCONT.3568728,R SEM NOME,,4780-039,AREIAS STS,-8.479595718949263,41.356870175359006
pt.ine.add.PTCONT.3568729,URB PINHEIRO TORTO,94,4780-789,LAMA STS,-8.462859350206806,41.37226223853315
pt.ine.add.PTCONT.3568730,R GABRIEL CARDOSO MIRANDA,99,4780-194,SANTO TIRSO,-8.48904984638559,41.33519553787284
pt.ine.add.PTCONT.3568731,R NOVA,187,4780-207,SANTO TIRSO,-8.485573084943049,41.335125200591506
pt.ine.add.PTCONT.3568732,R CONDE DE S BENTO,70,4780-232,SANTO TIRSO,-8.476431950033348,41.33015555909686
pt.ine.add.PTCONT.3568741,R 25 DE ABRIL,849,4780-008,AREIAS STS,-8.482613401770356,41.360264582097166
