id,street,house,postcode,city,lon,lat
pt.ine.add.PTCONT.4396420,,,2025-084,ALCANEDE,-8.803775206502731,39.38810137939775
pt.ine.add.PTCONT.4402666,,,2025-507,TREMÊS,-8.731169023015436,39.32389828956636
pt.ine.add.PTCONT.4434238,EN 362,,2025-251,ALCANEDE,-8.853252202102581,39.40002816965117
pt.ine.add.PTCONT.4394402,R MINA,5,2025-209,ALCANEDE,-8.861527483412102,39.46896978752992
pt.ine.add.PTCONT.4396639,EN 3,,2000-691,SÃO VICENTE DO PAUL,-8.652391213585627,39.361394830743805
pt.ine.add.PTCONT.4398518,R MINA,,2000-343,ACHETE,-8.695303085128044,39.363348138574224
pt.ine.add.PTCONT.4404815,BC FORNO,,2025-103,ALCANEDE,-8.80523188596354,39.41531215214342
pt.ine.add.PTCONT.4404816,TV JUSTAS,,2025-158,ALCANEDE,-8.843200378243795,39.42653443707655
pt.ine.add.PTCONT.4413816,,,2000-328,ACHETE,-8.702528762654236,39.34294791557387
pt.ine.add.PTCONT.4391245,R DR TANORA GONÇALVES,158,2005-259,SANTARÉM,-8.701642790256413,39.23633384374961
pt.ine.add.PTCONT.4391246,R DR TANORA GONÇALVES,158,2005-259,SANTARÉM,-8.701642790256413,39.23633384374961
pt.ine.add.PTCONT.4391247,R DR TANORA GONÇALVES,158,2005-259,SANTARÉM,-8.701642790256413,39.23633384374961
pt.ine.add.PTCONT.4391248,R DR TANORA GONÇALVES,158,2005-259,SANTARÉM,-8.701642790256413,39.23633384374961
pt.ine.add.PTCONT.4391249,R DR TANORA GONÇALVES,158,2005-259,SANTARÉM,-8.701642790256413,39.23633384374961
pt.ine.add.PTCONT.4391250,R DR TANORA GONÇALVES,158,2005-259,SANTARÉM,-8.701642790256413,39.23633384374961
pt.ine.add.PTCONT.4391251,R DR TANORA GONÇALVES,158,2005-259,SANTARÉM,-8.701642790256413,39.23633384374961
pt.ine.add.PTCONT.4391252,R DR TANORA GONÇALVES,158,2005-259,SANTARÉM,-8.701642790256413,39.23633384374961
pt.ine.add.PTCONT.4391253,R DR TANORA GONÇALVES,158,2005-259,SANTARÉM,-8.701642790256413,39.23633384374961
pt.ine.add.PTCONT.4391254,R DR TANORA GONÇALVES,158,2005-259,SANTARÉM,-8.701642790256413,39.23633384374961
pt.ine.add.PTCONT.4391255,R 1 DE MAIO,1,2000-748,VALE DE FIGUEIRA STR,-8.62869923556927,39.30572574814617
pt.ine.add.PTCONT.4391256,R PAPONAS,42,2005-393,VALE DE SANTARÉM,-8.745259354994708,39.20004750693575
pt.ine.add.PTCONT.4391257,R PAPONAS,44,2005-393,VALE DE SANTARÉM,-8.74559497586637,39.20003673566207
pt.ine.add.PTCONT.4391258,R MARECOS,,2005-389,VALE DE SANTARÉM,-8.755154568796131,39.191879480014954
pt.ine.add.PTCONT.4391343,R EIRAS,,2025-157,ALCANEDE,-8.87270656112402,39.43162863884695
pt.ine.add.PTCONT.4391344,TV 1 DEZEMBRO,1,2025-252,ALCANEDE,-8.857725439257782,39.43178597992444
pt.ine.add.PTCONT.4391345,R LADEIRINHA,1,2025-206,ALCANEDE,-8.857453449246083,39.461591571113814
pt.ine.add.PTCONT.4391346,R DR TANORA GONÇALVES,158,2005-259,SANTARÉM,-8.701642790256413,39.23633384374961
pt.ine.add.PTCONT.4391347,R CAP MARECOS,,2005-389,VALE DE SANTARÉM,-8.7543573266099,39.20255743083227
pt.ine.add.PTCONT.4391348,R BAIRRO NOVO,28,2005-373,VALE DE SANTARÉM,-8.740398232002814,39.193434534152324
pt.ine.add.PTCONT.4391349,R POMBAL,4,2005-395,VALE DE SANTARÉM,-8.738087373581624,39.19392394575291
pt.ine.add.PTCONT.4391350,R TORRE,19,2005-404,VALE DE SANTARÉM,-8.73773217757498,39.19299803243791
pt.ine.add.PTCONT.4391351,R DR MANUEL BRANCO,,2005-388,VALE DE SANTARÉM,-8.73252771515394,39.192151211042805
pt.ine.add.PTCONT.4391352,EN 3,,2005-044,VALE DE SANTARÉM,-8.720954644276105,39.19794786092963
pt.ine.add.PTCONT.4391438,R EDUARDO BARREIRO,2,2025-161,ALCANEDE,-8.833090003755895,39.45258073855623
pt.ine.add.PTCONT.4391439,R VALE PREZAS,10,2025-156,ALCANEDE,-8.782981996950902,39.40889048844615
pt.ine.add.PTCONT.4391440,R DR ANTÓNIO MARIA GALHORDAS,7,2005-149,SANTARÉM,-8.689974810133092,39.23429151100487
pt.ine.add.PTCONT.4391441,R DR ANTÓNIO MARIA GALHORDAS,7,2005-149,SANTARÉM,-8.689974810133092,39.23429151100487
pt.ine.add.PTCONT.4391442,R DR ANTÓNIO MARIA GALHORDAS,7,2005-149,SANTARÉM,-8.689974810133092,39.23429151100487
pt.ine.add.PTCONT.4391443,R DR ANTÓNIO MARIA GALHORDAS,7,2005-149,SANTARÉM,-8.689974810133092,39.23429151100487
pt.ine.add.PTCONT.4391444,R 19 DE MARCO,45,2005-455,SANTARÉM,-8.698271098629846,39.27802687164366
pt.ine.add.PTCONT.4391445,R JOSEFA DE OBIDOS,20,2005-456,SANTARÉM,-8.697413485866939,39.276580866131894
pt.ine.add.PTCONT.4391446,R ESTRADA REAL,,2005-420,VALE DE SANTARÉM,-8.73268047311914,39.18697119391828
pt.ine.add.PTCONT.4391447,R ESTRADA REAL,,2005-420,VALE DE SANTARÉM,-8.733362172874855,39.18683257356658
pt.ine.add.PTCONT.4391544,R 12 JANEIRO,87,2025-251,ALCANEDE,-8.86303925311842,39.41009102394265
pt.ine.add.PTCONT.4391545,R COMÉRCIO,45,2025-040,ALCANEDE,-8.825443029185072,39.418319043575615
pt.ine.add.PTCONT.4391546,R ENCOSTA DO CASTELO,,2025-051,ALCANEDE,-8.822881166827806,39.41641577626087
pt.ine.add.PTCONT.4391547,R PRINCIPAL,17,2025-250,ALCANEDE,-8.83884214463216,39.40089107565947
pt.ine.add.PTCONT.4391548,R VALE LOURENÇO,58,2025-175,ALCANEDE,-8.833958230943274,39.397777155879474
pt.ine.add.PTCONT.4391549,R JOSE DUARTE CASAL,20,2005-272,SANTARÉM,-8.694586508959114,39.265056249719656
pt.ine.add.PTCONT.4391550,R TEÓFILO BRAGA,9,2005-438,SANTARÉM,-8.695160732381808,39.264413964552396
pt.ine.add.PTCONT.4391551,R ZAMBUJEIRO,60,2005-034,VALE DE SANTARÉM,-8.730922488160598,39.191222693430085
pt.ine.add.PTCONT.4391552,R BARROCA,13,2005-030,VALE DE SANTARÉM,-8.72823102058558,39.18912875001455
pt.ine.add.PTCONT.4391553,R 25 DE ABRIL,12,2000-791,VAQUEIROS STR,-8.65230827545755,39.41285264665179
pt.ine.add.PTCONT.4391658,R COMBATENTES,,2025-143,ALCANEDE,-8.786300503730779,39.35636083646178
pt.ine.add.PTCONT.4391659,R JOSE RELVAS,29,2005-469,SANTARÉM,-8.692139782527766,39.25898812026116
pt.ine.add.PTCONT.4391660,R RAFAEL BORDALO PINHEIRO,,2005-338,SANTARÉM,-8.688915270799551,39.25706699177229
pt.ine.add.PTCONT.4391661,R MAIO,9,2005-523,VÁRZEA STR,-8.756692794638456,39.28462818208677
pt.ine.add.PTCONT.4391662,R NARCISA,,2005-009,VÁRZEA STR,-8.759515503663513,39.30094306800778
pt.ine.add.PTCONT.4391663,R VALDONZELAS,,2005-010,VÁRZEA STR,-8.747595275704088,39.278092276993846
pt.ine.add.PTCONT.4391664,CANTO DA TAIPA,19,2005-008,VÁRZEA STR,-8.742910830843208,39.26711907868403
pt.ine.add.PTCONT.4391665,R CHARRUADA,66,2005-027,VÁRZEA STR,-8.74798437000411,39.26161599897812
pt.ine.add.PTCONT.4391748,R 21 DE MARCO DE 1928,17,2000-396,ALCANHÕES,-8.670089824296648,39.30430820766757
pt.ine.add.PTCONT.4391749,R PERDIGAO,6,2005-316,SANTARÉM,-8.68991941724434,39.2565848098435
pt.ine.add.PTCONT.4391750,R CIDADE D AGEN,63,2005-503,SANTARÉM,-8.683427529458308,39.25312084535439
pt.ine.add.PTCONT.4391751,EN 114,,2005-325,SANTARÉM,-8.700051481923673,39.25591442463396
pt.ine.add.PTCONT.4391752,R PORTO MAU,6,2005-008,VÁRZEA STR,-8.741285342053391,39.26003887986258
pt.ine.add.PTCONT.4391753,URB VILA MOCHO,,2005-606,VÁRZEA STR,-8.725122657013607,39.26142821742728
pt.ine.add.PTCONT.4391754,R CEE,,2005-017,VÁRZEA STR,-8.73049194883787,39.268813759389374
pt.ine.add.PTCONT.4391755,R SENHORA DA SAÚDE,26,2025-601,GANÇARIA,-8.880963499534802,39.40545567924876
pt.ine.add.PTCONT.4391756,R SENHORA DA SAÚDE,2,2025-601,GANÇARIA,-8.883470284560774,39.40427763821328
pt.ine.add.PTCONT.4391757,R S MARTA,5,2025-601,GANÇARIA,-8.879784311977133,39.40375192822737
pt.ine.add.PTCONT.4391846,R ANTÓNIO CAETANO RODRIGUES,N 12,2000-351,ALCANHÕES,-8.663304679642199,39.29008989190546
pt.ine.add.PTCONT.4391847,ESTR MARMELEIRA,,2005-104,ALMOSTER STR,-8.805579169234834,39.260243811917434
pt.ine.add.PTCONT.4391848,R S VITÓRIA,,2005-101,ALMOSTER STR,-8.811045509598555,39.24435938523349
pt.ine.add.PTCONT.4391849,R COMÉRCIO,192,2005-095,MOÇARRIA,-8.776384253578394,39.29218617747622
pt.ine.add.PTCONT.4391850,R 16 DE ABRIL,5,2005-337,SANTARÉM,-8.694651434886556,39.2514099296495
pt.ine.add.PTCONT.4391851,R D DINIS,5,2005-547,SANTARÉM,-8.68441314406146,39.253233278450836
pt.ine.add.PTCONT.4391852,R D XIMENES BELO,55,2005-282,SANTARÉM,-8.684502082742632,39.252755471746006
pt.ine.add.PTCONT.4391853,R S MARTINHO,5,2025-601,GANÇARIA,-8.871706035224154,39.40616332336874
pt.ine.add.PTCONT.4391917,R OUTEIRO DAS MOS,20,2005-104,ALMOSTER STR,-8.80449777062228,39.261051694416835
pt.ine.add.PTCONT.4391918,R PEDREIRAS,,2005-107,ALMOSTER STR,-8.77867985015708,39.2530911645613
pt.ine.add.PTCONT.4391919,ESTR 365,,2005-260,ALMOSTER STR,-8.744190494649688,39.235668026635814
pt.ine.add.PTCONT.4391920,R OLIVEIRA DO CABO,7,2005-108,ALMOSTER STR,-8.769693700613056,39.23045132801805
pt.ine.add.PTCONT.4391921,R FONTE,37,2005-113,ALMOSTER STR,-8.866156130548354,39.24396250571554
pt.ine.add.PTCONT.4391922,,,2005-112,ALMOSTER STR,-8.8342062176068,39.23905211087582
pt.ine.add.PTCONT.4391923,R BREJO,,2005-095,MOÇARRIA,-8.778911092200726,39.2782921003287
pt.ine.add.PTCONT.4391924,R ESCOLA,11,2005-094,MOÇARRIA,-8.764881339999759,39.26592108768706
pt.ine.add.PTCONT.4391925,R ESCOLA,20,2005-094,MOÇARRIA,-8.764598088172562,39.26534616127054
pt.ine.add.PTCONT.4391926,R ESCOLA,88,2005-094,MOÇARRIA,-8.761153133910323,39.2623473678727
pt.ine.add.PTCONT.4391927,R VILA NOVA DA BABECA,12,2005-093,MOÇARRIA,-8.779082060901851,39.27293186169331
pt.ine.add.PTCONT.4391928,R 16 DE ABRIL,98,2005-337,SANTARÉM,-8.691661569289192,39.25566673308065
pt.ine.add.PTCONT.4391929,R DR JOSE HENRIQUE BARATA,47,2005-345,SANTARÉM,-8.69159779327289,39.25346926458799
pt.ine.add.PTCONT.4391930,R DR JOSE HENRIQUE BARATA,45,2005-345,SANTARÉM,-8.69159779327289,39.25346926458799
pt.ine.add.PTCONT.4391931,R NSA SRA DA CONCEIÇÃO,4,2005-352,SANTARÉM,-8.691069476362893,39.24820253938968
pt.ine.add.PTCONT.4392041,R SUPICOS,,2005-101,ALMOSTER STR,-8.808842938600549,39.2405621182573
pt.ine.add.PTCONT.4392042,R VAL D ARGACA,16,2005-109,ALMOSTER STR,-8.802404071410582,39.22728655806883
pt.ine.add.PTCONT.4392043,R ARROTEIAS,19,2005-109,ALMOSTER STR,-8.7993953455523,39.22140403767236
pt.ine.add.PTCONT.4392044,R BREJO,25,2025-403,AMIAIS DE BAIXO,-8.728607028081143,39.44555177364584
pt.ine.add.PTCONT.4392045,R FERREIROS,8,2025-317,AMIAIS DE BAIXO,-8.732629886894365,39.444594382475934
pt.ine.add.PTCONT.4392046,R D JOÃO IV,132,2025-391,AMIAIS DE BAIXO,-8.732275302542032,39.44388465921615
pt.ine.add.PTCONT.4392047,R 5 DE OUTUBRO,,2000-500,PERNES,-8.686727592640047,39.4029303128897
pt.ine.add.PTCONT.4392048,R JOSE GONÇALVES LEAL,22,2000-493,PERNES,-8.661101579647235,39.38558473197643
pt.ine.add.PTCONT.4392049,R COMEND JOSE GONÇALVES PEREIRA,63,2000-493,PERNES,-8.662007350660787,39.384103457121434
pt.ine.add.PTCONT.4392050,R SABUGUEIROS,90,2000-493,PERNES,-8.661049658675614,39.38331518309057
pt.ine.add.PTCONT.4392051,R EDUARDO S MARTA,14,2000-495,PERNES,-8.65915130996521,39.38399931204865
pt.ine.add.PTCONT.4392052,R ENG ANTÓNIO TORRES,92,2000-495,PERNES,-8.660071553033411,39.38289628392646
pt.ine.add.PTCONT.4392053,R ENG ANTÓNIO TORRES,,2000-495,PERNES,-8.660984308997937,39.379262290812264
pt.ine.add.PTCONT.4392054,R CABINE,31,2005-264,SANTARÉM,-8.69224959379415,39.2450983740948
pt.ine.add.PTCONT.4392168,R DR ANTÓNIO MARIA GALHORDAS,63,2025-333,AMIAIS DE BAIXO,-8.728923000619497,39.44446031235116
pt.ine.add.PTCONT.4392169,R MACAU,35,2025-323,AMIAIS DE BAIXO,-8.730154938759906,39.443165998409405
pt.ine.add.PTCONT.4392170,R MOUZINHO DE ALBUQUERQUE,24,2025-353,AMIAIS DE BAIXO,-8.737325821126829,39.4435703088772
pt.ine.add.PTCONT.4392171,R D MARIA II,62,2025-303,AMIAIS DE BAIXO,-8.740112681298243,39.43808856693384
pt.ine.add.PTCONT.4392172,R CASTELINO,,2000-698,PERNES,-8.66277248129114,39.37784005186954
pt.ine.add.PTCONT.4392173,R 5 DE OUTUBRO,37,2150-083,POMBALINHO GLG,-8.551264531367242,39.34473356845824
pt.ine.add.PTCONT.4392174,R JOAQUIM PIEDADE DA SILVA,9,2150-086,POMBALINHO GLG,-8.552361151377255,39.34382890633325
pt.ine.add.PTCONT.4392175,R BARÃO DE ALMEIRIM,62,2150-081,POMBALINHO GLG,-8.555947610657366,39.342239677086425
pt.ine.add.PTCONT.4392176,R 1 DE DEZEMBRO,51 53,2150-088,POMBALINHO GLG,-8.552389361516406,39.34078437984506
pt.ine.add.PTCONT.4392177,R OLIVEIRA DO CABO,8,2005-607,PÓVOA DA ISENTA,-8.76967406369878,39.22955971424479
pt.ine.add.PTCONT.4392178,R D MARIA INÊS SCHALLER DIAS,1,2005-191,SANTARÉM,-8.679243051704816,39.24088162504715
pt.ine.add.PTCONT.4392179,R D MARIA INÊS SCHALLER DIAS,1,2005-191,SANTARÉM,-8.679243051704816,39.24088162504715
pt.ine.add.PTCONT.4392180,R D MARIA INÊS SCHALLER DIAS,1,2005-191,SANTARÉM,-8.679243051704816,39.24088162504715
pt.ine.add.PTCONT.4392298,R LUIS DE CAMÕES,3,2025-349,AMIAIS DE BAIXO,-8.73297901789841,39.44331359288448
pt.ine.add.PTCONT.4392299,R PEDRO SANTARÉM,2,2025-357,AMIAIS DE BAIXO,-8.734402985345632,39.441396762387065
pt.ine.add.PTCONT.4392300,R S LOURENÇO,,2000-433,ARNEIRO DAS MILHARIÇAS,-8.707407027590923,39.40179426133116
pt.ine.add.PTCONT.4392301,R PEDRAS NEGRAS,7,2005-085,PÓVOA DA ISENTA,-8.74778836133815,39.22589419981786
pt.ine.add.PTCONT.4392302,R FONTE NOVA,8,2005-085,PÓVOA DA ISENTA,-8.747325360753479,39.219276274512936
pt.ine.add.PTCONT.4392303,TV CASA DO POVO,3,2000-531,PÓVOA DE SANTARÉM,-8.681860303319036,39.306180862526276
pt.ine.add.PTCONT.4392521,,,2000-451,CASÉVEL STR,-8.610143852755185,39.40218868493195
pt.ine.add.PTCONT.4392404,R ALEXANDRE HERCULANO,9,2000-430,ARNEIRO DAS MILHARIÇAS,-8.708228452843038,39.39437740460916
pt.ine.add.PTCONT.4392405,R CLAUDIO MANUEL LIBANIO DUARTE,15 A,2005-099,AZOIA DE BAIXO,-8.707078160723256,39.30065494948589
pt.ine.add.PTCONT.4392406,R CLAUDIO MANUEL LIBANIO DUARTE,15,2005-099,AZOIA DE BAIXO,-8.707078160723256,39.30065494948589
pt.ine.add.PTCONT.4392407,R PROF JOSE BATISTA,,2005-078,ROMEIRA,-8.72243615227889,39.30725254640927
pt.ine.add.PTCONT.4392408,R S BRÁS,,2005-078,ROMEIRA,-8.715230003060423,39.30649616994049
pt.ine.add.PTCONT.4392409,R ALEXANDRE HERCULANO,30,2005-076,ROMEIRA,-8.733803022037566,39.30780693844814
pt.ine.add.PTCONT.4392410,R RAPOSEIRAS,,2000-700,SÃO VICENTE DO PAUL,-8.627201465784996,39.35320893550997
pt.ine.add.PTCONT.4392517,CSL LUISA,,2000-460,CASÉVEL STR,-8.617012747386378,39.420075344946696
pt.ine.add.PTCONT.4392518,CSL CATARINA,,2000-467,CASÉVEL STR,-8.630911853994952,39.40846066033201
pt.ine.add.PTCONT.4392519,CSL CARVALHAS,,2000-451,CASÉVEL STR,-8.607708628516454,39.41116967761206
pt.ine.add.PTCONT.4392520,R DIREITA,,2000-464,CASÉVEL STR,-8.58741324938089,39.404180157188556
pt.ine.add.PTCONT.4392522,R MOINHO,,2000-700,SÃO VICENTE DO PAUL,-8.621409275393527,39.35778198577218
pt.ine.add.PTCONT.4392523,R MOINHO,,2000-700,SÃO VICENTE DO PAUL,-8.62043126026141,39.35729069284511
pt.ine.add.PTCONT.4392524,R S VICENTE,,2000-700,SÃO VICENTE DO PAUL,-8.623630635920865,39.348585361656795
pt.ine.add.PTCONT.4392525,R ALEXANDRE HERCULANO,,2000-700,SÃO VICENTE DO PAUL,-8.628935517929467,39.342483056393554
pt.ine.add.PTCONT.4392526,R QUINTA DA MATA ALMOXARIFE,,2000-700,SÃO VICENTE DO PAUL,-8.594279223794269,39.364287721375796
pt.ine.add.PTCONT.4392609,R SOBRAL,,2025-014,ABRÃ,-8.768430231123702,39.4711639408438
pt.ine.add.PTCONT.4392610,TV SANTIAGO,5,2000-111,SANTARÉM,-8.677041306193518,39.234757955414075
pt.ine.add.PTCONT.4392611,BR SUICO RUA 2,11,2005-519,SANTARÉM,-8.70925084400885,39.248888643394885
pt.ine.add.PTCONT.4392612,R ESCOLA REGENTES AGRICOLAS,1,2005-474,SANTARÉM,-8.697513809518341,39.24718969426745
pt.ine.add.PTCONT.4392613,R DTR JACOB PINTO CORREIA,,2025-503,TREMÊS,-8.744226657182729,39.370478307469654
pt.ine.add.PTCONT.4392614,R ESPERANÇA,,2025-503,TREMÊS,-8.748113168448317,39.369043720917084
pt.ine.add.PTCONT.4392615,CSL CAPUCHOS,,2025-558,TREMÊS,-8.76092525979101,39.3639763756836
pt.ine.add.PTCONT.4392616,R TIAGO SALGADO,,2025-578,TREMÊS,-8.762541814285903,39.36050892319402
pt.ine.add.PTCONT.4392617,R COMBATENTE JOÃO REIS,,2025-510,TREMÊS,-8.71800811805677,39.37694502170526
pt.ine.add.PTCONT.4392720,R MANUEL CAETANO,,2025-013,ABRÃ,-8.754741037727287,39.432030675159126
pt.ine.add.PTCONT.4392721,R JOAQUIM DOS SANTOS CAMÕES,,2025-011,ABRÃ,-8.776184547474703,39.420970617979506
pt.ine.add.PTCONT.4392722,BC LAGARICA,,2025-011,ABRÃ,-8.771064728910565,39.41730594138227
pt.ine.add.PTCONT.4392723,BC FIGUEIRAS,6,2025-011,ABRÃ,-8.77319945472409,39.41709606096343
pt.ine.add.PTCONT.4392724,R OUTEIRO,,2025-011,ABRÃ,-8.772106831750389,39.41570598329795
pt.ine.add.PTCONT.4392725,BC FIEIS DE DEUS,14,2000-089,SANTARÉM,-8.682622263224347,39.23455161330225
pt.ine.add.PTCONT.4392726,TV LAMEIRA,6,2000-097,SANTARÉM,-8.681394680671671,39.23456640559348
pt.ine.add.PTCONT.4392727,R NSA SRA FÁTIMA,,2025-510,TREMÊS,-8.713578356001175,39.374571320787105
pt.ine.add.PTCONT.4392728,R CÓNEGO JOÃO NUNES FERREIRA,12,2025-555,TREMÊS,-8.76034593598112,39.3575844681978
pt.ine.add.PTCONT.4392729,LG ROSSIO,,2025-553,TREMÊS,-8.761877579910955,39.36018825880791
pt.ine.add.PTCONT.4392730,R TIAGO SALGADO,,2025-578,TREMÊS,-8.762689570784685,39.36016585464857
pt.ine.add.PTCONT.4392731,R AMENDOEIRAS,,2025-504,TREMÊS,-8.774273947756553,39.3403860700045
pt.ine.add.PTCONT.4392836,R LIBERDADE,,2000-322,ACHETE,-8.709119222866729,39.35163438210286
pt.ine.add.PTCONT.4392837,MATEUS CARVALHO,,2000-328,ACHETE,-8.708845810599895,39.34517762822952
pt.ine.add.PTCONT.4392838,R CASAL DA COMENDA,,2000-334,ACHETE,-8.688090538781108,39.35074577555793
pt.ine.add.PTCONT.4392839,QTA MACHADOS,,2000-328,ACHETE,-8.707254381130278,39.34349214942775
pt.ine.add.PTCONT.4392840,QTA MACHADOS,,2000-328,ACHETE,-8.707254381130278,39.34349214942775
pt.ine.add.PTCONT.4392841,ESTR ALFANGE,,2000-475,SANTARÉM,-8.679048838501869,39.23375775944706
pt.ine.add.PTCONT.4392842,R ALMEIDA GARRETT,73,2005-359,SANTARÉM,-8.69116409607886,39.23236726318543
pt.ine.add.PTCONT.4392843,AV ANTÓNIO MARIA BAPTISTA,48,2005-160,SANTARÉM,-8.691664123404134,39.23700362722742
pt.ine.add.PTCONT.4392844,R GEN HUMBERTO DELGADO,50,2005-154,SANTARÉM,-8.69465079578789,39.235349937922294
pt.ine.add.PTCONT.4392845,R GEN HUMBERTO DELGADO,50,2005-154,SANTARÉM,-8.69465079578789,39.235349937922294
pt.ine.add.PTCONT.4392846,R GEN HUMBERTO DELGADO,50,2005-154,SANTARÉM,-8.69465079578789,39.235349937922294
pt.ine.add.PTCONT.4392941,R CASAL PEPINO,35,2000-345,ACHETE,-8.689219573648275,39.31461269708272
pt.ine.add.PTCONT.4392942,R ALECRIM,4,2025-171,ALCANEDE,-8.787508288332829,39.44965769259532
pt.ine.add.PTCONT.4392943,R VALE PEDRO E BETA,,2025-150,ALCANEDE,-8.778030765898494,39.4574746136738
pt.ine.add.PTCONT.4392944,R BARREIRINHAS,4,2025-142,ALCANEDE,-8.812715625281873,39.44698217972689
pt.ine.add.PTCONT.4392945,R 2 VISC DE SANTARÉM,37,2005-365,SANTARÉM,-8.689263703904798,39.23224124293031
pt.ine.add.PTCONT.4392946,CERCA DE S LAZARO,6,2000-220,SANTARÉM,-8.685751126477788,39.23181660342043
pt.ine.add.PTCONT.4392947,R GEN HUMBERTO DELGADO,50,2005-154,SANTARÉM,-8.69465079578789,39.235349937922294
pt.ine.add.PTCONT.4392948,R CAPELO E IVENS,3,2000-039,SANTARÉM,-8.683224648463712,39.234566784438776
pt.ine.add.PTCONT.4392956,R DR TANORA GONÇALVES,158,2005-259,SANTARÉM,-8.701642790256413,39.23633384374961
pt.ine.add.PTCONT.4392964,R PALHAGUEIRAS,5,2000-430,ARNEIRO DAS MILHARIÇAS,-8.707096777452701,39.39510355720134
pt.ine.add.PTCONT.4392969,CSL ESTRADA,,2000-465,CASÉVEL STR,-8.619726039313893,39.39442994109245
pt.ine.add.PTCONT.4392989,R DR CARLOS NUNES FERREIRA,,2025-012,ABRÃ,-8.763994255017602,39.445788533769544
pt.ine.add.PTCONT.4392995,BC 1 DE DEZEMBRO,4,2025-405,AMIAIS DE BAIXO,-8.732180675922235,39.4436869933407
pt.ine.add.PTCONT.4393008,R ANTONIO BASTOS,27,2000-366,ALCANHÕES,-8.660355010568255,39.29708388287292
pt.ine.add.PTCONT.4393013,PC 20 DE JANEIRO,23,2000-433,ARNEIRO DAS MILHARIÇAS,-8.705074669846079,39.400517744014266
pt.ine.add.PTCONT.4393014,R TANCREDO MATOS PEDROSO,,2005-085,PÓVOA DA ISENTA,-8.755072458541813,39.22194636669428
pt.ine.add.PTCONT.4393022,R IMACULADA CONCEIÇÃO VILA VISTA ALEGRE,7,2000-072,SANTARÉM,-8.679215541128052,39.225380175836456
pt.ine.add.PTCONT.4393025,R DR TANORA GONÇALVES,158,2005-259,SANTARÉM,-8.701642790256413,39.23633384374961
pt.ine.add.PTCONT.4393026,R JOSE MATIAS JUNIOR,,2005-039,VALE DE SANTARÉM,-8.736002439066747,39.193763613475184
pt.ine.add.PTCONT.4393037,R CONS HENRIQUE BARROS GOMES,34,2000-370,ALCANHÕES,-8.655554025446966,39.292169568296444
pt.ine.add.PTCONT.4393046,R CAPELO E IVENS,3,2000-039,SANTARÉM,-8.683224648463712,39.234566784438776
pt.ine.add.PTCONT.4393048,AV COMBATENTES,,2005-150,SANTARÉM,-8.69202575318832,39.23294860662123
pt.ine.add.PTCONT.4393058,R PRINCIPAL,1,2005-019,VÁRZEA STR,-8.740424310795776,39.294514009426194
pt.ine.add.PTCONT.4393063,R JOSE LOPES,31,2000-389,ALCANHÕES,-8.65544817987025,39.290404626851554
pt.ine.add.PTCONT.4393097,R SABUGUEIROS,6,2000-493,PERNES,-8.661049658675614,39.38331518309057
pt.ine.add.PTCONT.4393128,R VALE PEDRO E BETA,,2025-150,ALCANEDE,-8.778030765898494,39.4574746136738
pt.ine.add.PTCONT.4393137,R SOJO,,2025-011,ABRÃ,-8.771497178932798,39.420158786056184
pt.ine.add.PTCONT.4393138,TV DO OUTEIRO,,2025-140,ALCANEDE,-8.817250131586047,39.409369537662876
pt.ine.add.PTCONT.4393142,R CAP SALGUEIRO MAIA,,2025-510,TREMÊS,-8.715941595010184,39.376856312976265
pt.ine.add.PTCONT.4393147,R PAPONAS,,2005-393,VALE DE SANTARÉM,-8.742013834859604,39.19822701716931
pt.ine.add.PTCONT.4393157,R VALE DE SANTARÉM,11,2025-176,ALCANEDE,-8.797257018321913,39.38986811820645
pt.ine.add.PTCONT.4393158,R CIDADE DE SANTARÉM,14,2025-084,ALCANEDE,-8.800709126289831,39.389136806583764
pt.ine.add.PTCONT.4393172,,,2000-347,ACHETE,-8.679490730089269,39.3756370790914
pt.ine.add.PTCONT.4393174,BC CASAL DA FRIURA,9,2025-171,ALCANEDE,-8.785697387840719,39.44981197883871
pt.ine.add.PTCONT.4393183,R PALMEIRAS,3,2005-099,AZOIA DE BAIXO,-8.707018175445066,39.29472850702694
pt.ine.add.PTCONT.4393222,R JOSE DUARTE CASAL,9,2005-272,SANTARÉM,-8.694384292097512,39.26439969488906
pt.ine.add.PTCONT.4393250,QTA CASCATA,94,2005-102,ALMOSTER STR,-8.78505416350432,39.21206355021652
pt.ine.add.PTCONT.4393255,R MOÇAMBIQUE,,2025-324,AMIAIS DE BAIXO,-8.729893160231603,39.442437777261354
pt.ine.add.PTCONT.4394216,R ORIOL DA PENA,5,2000-493,PERNES,-8.660549167701767,39.38312830410063
pt.ine.add.PTCONT.4394217,R SABUGUEIROS,31,2000-493,PERNES,-8.66093746362431,39.38382909580037
pt.ine.add.PTCONT.4394218,R TEN COR SALGUEIROMAIA,17,2005-085,PÓVOA DA ISENTA,-8.744868388232543,39.21369566217777
pt.ine.add.PTCONT.4394219,PCT JOÃO CAETANO BRÁS,7,2005-517,SANTARÉM,-8.698661955895323,39.23869925971285
pt.ine.add.PTCONT.4394304,R PRINCIPAL,,2005-120,ABITUREIRAS,-8.765027909164875,39.32091818365683
pt.ine.add.PTCONT.4394220,PCT JOÃO CAETANO BRÁS,7,2005-517,SANTARÉM,-8.698661955895323,39.23869925971285
pt.ine.add.PTCONT.4394221,PCT JOÃO CAETANO BRÁS,7,2005-517,SANTARÉM,-8.698661955895323,39.23869925971285
pt.ine.add.PTCONT.4394222,PCT JOÃO CAETANO BRÁS,7,2005-517,SANTARÉM,-8.698661955895323,39.23869925971285
pt.ine.add.PTCONT.4394223,PCT JOÃO CAETANO BRÁS,7,2005-517,SANTARÉM,-8.698661955895323,39.23869925971285
pt.ine.add.PTCONT.4394224,PCT JOÃO CAETANO BRÁS,7,2005-517,SANTARÉM,-8.698661955895323,39.23869925971285
pt.ine.add.PTCONT.4394225,PCT JOÃO CAETANO BRÁS,7,2005-517,SANTARÉM,-8.698661955895323,39.23869925971285
pt.ine.add.PTCONT.4394226,PCT JOÃO CAETANO BRÁS,7,2005-517,SANTARÉM,-8.698661955895323,39.23869925971285
pt.ine.add.PTCONT.4394227,PCT JOÃO CAETANO BRÁS,7,2005-517,SANTARÉM,-8.698661955895323,39.23869925971285
pt.ine.add.PTCONT.4394228,PCT JOÃO CAETANO BRÁS,7,2005-517,SANTARÉM,-8.698661955895323,39.23869925971285
pt.ine.add.PTCONT.4394232,R OUTEIRO,,2025-011,ABRÃ,-8.772810756965987,39.41649473032259
pt.ine.add.PTCONT.4394233,R S SEBASTIÃO,,2025-171,ALCANEDE,-8.792991688213858,39.4508786746101
pt.ine.add.PTCONT.4394234,R PAULINO DA CUNHA E SILVA,23,2000-369,ALCANHÕES,-8.65406141267022,39.2909692880247
pt.ine.add.PTCONT.4394235,R MARTIR S SEBASTIAO,,2005-113,ALMOSTER STR,-8.862798518434593,39.24523559469689
pt.ine.add.PTCONT.4394236,R DUQUE,1,2005-109,ALMOSTER STR,-8.79768051718116,39.22129673890829
pt.ine.add.PTCONT.4394237,R D AFONSO HENRIQUES,37,2025-330,AMIAIS DE BAIXO,-8.732194956754899,39.442642111333804
pt.ine.add.PTCONT.4394238,TV BAIRRO FALCÃO,9,2000-085,SANTARÉM,-8.680082292503103,39.232608982839494
pt.ine.add.PTCONT.4394239,R ENG ANTÓNIO TORRES,74,2000-495,PERNES,-8.65997585965832,39.38251841972446
pt.ine.add.PTCONT.4394240,R DR AGOSTINHO NETO,10,2005-171,SANTARÉM,-8.695640345852233,39.241785379133525
pt.ine.add.PTCONT.4394241,R DR AGOSTINHO NETO,10,2005-171,SANTARÉM,-8.695640345852233,39.241785379133525
pt.ine.add.PTCONT.4394242,R DR AGOSTINHO NETO,10,2005-171,SANTARÉM,-8.695640345852233,39.241785379133525
pt.ine.add.PTCONT.4394243,R CIDADE SANTARÉM,,2005-118,ABITUREIRAS,-8.79394077622826,39.3163531461613
pt.ine.add.PTCONT.4394244,R PARDIEIRO,2,2025-171,ALCANEDE,-8.786726239911465,39.44677986839285
pt.ine.add.PTCONT.4394245,R AROEIRA,,2005-109,ALMOSTER STR,-8.805165953604583,39.218164293625826
pt.ine.add.PTCONT.4394246,R FRANCISCO LAURENTINO,6,2025-336,AMIAIS DE BAIXO,-8.731333529722777,39.44243037785598
pt.ine.add.PTCONT.4394247,TV CAPUCHOS,15,2000-087,SANTARÉM,-8.679757367007795,39.23103422886532
pt.ine.add.PTCONT.4394248,R S SILVESTRE,,2000-494,PERNES,-8.66279429710121,39.379191016049646
pt.ine.add.PTCONT.4394249,R BAIRRO DOS PINHAIS,,2005-085,PÓVOA DA ISENTA,-8.749421957171666,39.21273489942908
pt.ine.add.PTCONT.4394250,,,2005-073,SANTARÉM,-8.727825014641141,39.239806016067284
pt.ine.add.PTCONT.4394251,R DR AGOSTINHO NETO,10,2005-171,SANTARÉM,-8.695640345852233,39.241785379133525
pt.ine.add.PTCONT.4394252,R DR AGOSTINHO NETO,10,2005-171,SANTARÉM,-8.695640345852233,39.241785379133525
pt.ine.add.PTCONT.4394254,LG MOINHO SOBRADO,,2005-119,ABITUREIRAS,-8.790866910660048,39.30013965952613
pt.ine.add.PTCONT.4394255,R URCA,12,2025-142,ALCANEDE,-8.821991044047461,39.44748604069093
pt.ine.add.PTCONT.4394256,R PORTO DO MOINHO,9,2025-140,ALCANEDE,-8.79311547841954,39.42953149261386
pt.ine.add.PTCONT.4394257,R FAUSTO ALVES DA SILVA,14,2025-140,ALCANEDE,-8.793799404920836,39.42939250540322
pt.ine.add.PTCONT.4394258,R SUPICOS,,2005-101,ALMOSTER STR,-8.812482572195453,39.24082917717177
pt.ine.add.PTCONT.4394259,R PAZ,7,2005-109,ALMOSTER STR,-8.80231305006156,39.22136029039558
pt.ine.add.PTCONT.4394282,R OUTEIRO DA EVA,11,2005-085,PÓVOA DA ISENTA,-8.747326820113877,39.215457167000714
pt.ine.add.PTCONT.4394264,R 1 DE MAIO,8,2000-345,ACHETE,-8.686455580977439,39.31553559330038
pt.ine.add.PTCONT.4394265,R AZENHAS,5,2025-157,ALCANEDE,-8.866751345761942,39.431918546848415
pt.ine.add.PTCONT.4394266,R IGREJA DE S JOÃO EVANGELISTA,3,2000-475,SANTARÉM,-8.67465865383498,39.230661724031904
pt.ine.add.PTCONT.4394267,R PORTO DA VILA,3,2005-095,MOÇARRIA,-8.778897067386596,39.29443307004126
pt.ine.add.PTCONT.4394268,R GERMANOS,,2005-320,SANTARÉM,-8.707367128873514,39.24376379731594
pt.ine.add.PTCONT.4394275,R FREIXO,,2025-012,ABRÃ,-8.757419556063269,39.44844503499758
pt.ine.add.PTCONT.4394276,R FILARMONICA,45,2025-252,ALCANEDE,-8.86213596450129,39.43149721882467
pt.ine.add.PTCONT.4394277,R DR ANTÓNIO JOSE DE ALMEIDA,18,2025-395,AMIAIS DE BAIXO,-8.730715131713726,39.444829410644225
pt.ine.add.PTCONT.4394278,R ALEXANDRE HERCULANO,18,2000-430,ARNEIRO DAS MILHARIÇAS,-8.707765760181825,39.39457784595678
pt.ine.add.PTCONT.4394279,CSL AZINHEIRAS,,2000-455,CASÉVEL STR,-8.600777928983002,39.39049048625713
pt.ine.add.PTCONT.4394280,R 2 VISC DE SANTARÉM,63,2005-365,SANTARÉM,-8.690258407828349,39.23207435773073
pt.ine.add.PTCONT.4394281,R OUTEIRO DA EVA,9,2005-085,PÓVOA DA ISENTA,-8.747142350945724,39.215548212628114
pt.ine.add.PTCONT.4394283,URB BAIRRO TRIGOSO,24,2005-456,SANTARÉM,-8.696393433055565,39.27365845240199
pt.ine.add.PTCONT.4394284,URB BAIRRO TRIGOSO,24,2005-456,SANTARÉM,-8.696393433055565,39.27365845240199
pt.ine.add.PTCONT.4394285,URB BAIRRO TRIGOSO,24,2005-456,SANTARÉM,-8.696393433055565,39.27365845240199
pt.ine.add.PTCONT.4394286,URB BAIRRO TRIGOSO,24,2005-456,SANTARÉM,-8.696393433055565,39.27365845240199
pt.ine.add.PTCONT.4394287,URB BAIRRO TRIGOSO,24,2005-456,SANTARÉM,-8.696393433055565,39.27365845240199
pt.ine.add.PTCONT.4394288,URB BAIRRO TRIGOSO,24,2005-456,SANTARÉM,-8.696393433055565,39.27365845240199
pt.ine.add.PTCONT.4394289,URB BAIRRO TRIGOSO,24,2005-456,SANTARÉM,-8.696393433055565,39.27365845240199
pt.ine.add.PTCONT.4394290,EN 3,142,2000-473,SANTARÉM,-8.696442936676132,39.26826287302538
pt.ine.add.PTCONT.4394293,CASAIS DEL REI QTA DA CORUJA,,2000-332,ACHETE,-8.7057194813378,39.34161722028868
pt.ine.add.PTCONT.4394294,TV OUTEIRO,21,2000-345,ACHETE,-8.68700269316001,39.31433503637826
pt.ine.add.PTCONT.4394295,,,2005-111,ALMOSTER STR,-8.802309905547618,39.255164552561766
pt.ine.add.PTCONT.4394296,,,2000-451,CASÉVEL STR,-8.589063711731365,39.386627901895224
pt.ine.add.PTCONT.4394297,R BISPO D ANTÓNIO MENDONÇA,71,2000-531,PÓVOA DE SANTARÉM,-8.686927890397037,39.31220068986197
pt.ine.add.PTCONT.4394298,R LOURENÇO DE ALMEIDA,38,2000-603,STA IRIA RIBEIRA SANTARÉM,-8.679070344722545,39.23802712095808
pt.ine.add.PTCONT.4394305,LG S JOÃO CRISOSTOMO,1,2025-080,ALCANEDE,-8.806518629842216,39.38852687802995
pt.ine.add.PTCONT.4394306,R PRINCIPAL,,2005-112,ALMOSTER STR,-8.835446299609055,39.23796377006657
pt.ine.add.PTCONT.4394307,R PICARO,23,2005-092,MOÇARRIA,-8.766648029276494,39.26781201475687
pt.ine.add.PTCONT.4394308,R LOURENÇO DE ALMEIDA,38,2000-603,STA IRIA RIBEIRA SANTARÉM,-8.679070344722545,39.23802712095808
pt.ine.add.PTCONT.4394309,ESTR PONTE,12,2000-572,STA IRIA RIBEIRA SANTARÉM,-8.674139078627615,39.235392976452225
pt.ine.add.PTCONT.4394311,R COMÉRCIO,,2025-014,ABRÃ,-8.765976198234528,39.476077082119566
pt.ine.add.PTCONT.4394312,R 21 DE MARCO DE 1928,,2000-396,ALCANHÕES,-8.669511817365244,39.30452704508437
pt.ine.add.PTCONT.4394313,R PAULINO DA CUNHA E SILVA,155,2000-369,ALCANHÕES,-8.65584346479332,39.29368148273979
pt.ine.add.PTCONT.4394314,CSL POLINHO DE CIMA,,2000-458,CASÉVEL STR,-8.622122950822154,39.42348565552446
pt.ine.add.PTCONT.4394315,R MIGUEL BOMBARDA,5,2000-080,SANTARÉM,-8.68301547606147,39.23447769910697
pt.ine.add.PTCONT.4394316,R MIGUEL BOMBARDA,5,2000-080,SANTARÉM,-8.68301547606147,39.23447769910697
pt.ine.add.PTCONT.4394317,R MIGUEL BOMBARDA,5,2000-080,SANTARÉM,-8.68301547606147,39.23447769910697
pt.ine.add.PTCONT.4394318,R DR GINESTAL MACHADO,11,2005-155,SANTARÉM,-8.687932320151328,39.23524702488354
pt.ine.add.PTCONT.4394319,R DR GINESTAL MACHADO,11,2005-155,SANTARÉM,-8.687932320151328,39.23524702488354
pt.ine.add.PTCONT.4394322,ESTR CASAIS DE ESPANHA,,2000-342,ACHETE,-8.710611990902887,39.33002787832217
pt.ine.add.PTCONT.4394323,R HILARIO JOSE BARREIROS,47,2150-084,POMBALINHO GLG,-8.555377548978962,39.343890059196085
pt.ine.add.PTCONT.4394324,R GONÇALO MENDES DA MAIA,8,2005-161,SANTARÉM,-8.696609567785961,39.23697079912195
pt.ine.add.PTCONT.4394325,R GONÇALO MENDES DA MAIA,8,2005-161,SANTARÉM,-8.696609567785961,39.23697079912195
pt.ine.add.PTCONT.4394401,R CASAL,37,2000-345,ACHETE,-8.682287684880551,39.31784315373531
pt.ine.add.PTCONT.4394326,R GONÇALO MENDES DA MAIA,8,2005-161,SANTARÉM,-8.696609567785961,39.23697079912195
pt.ine.add.PTCONT.4394327,R GONÇALO MENDES DA MAIA,8,2005-161,SANTARÉM,-8.696609567785961,39.23697079912195
pt.ine.add.PTCONT.4394328,R GONÇALO MENDES DA MAIA,8,2005-161,SANTARÉM,-8.696609567785961,39.23697079912195
pt.ine.add.PTCONT.4394329,R GONÇALO MENDES DA MAIA,8,2005-161,SANTARÉM,-8.696609567785961,39.23697079912195
pt.ine.add.PTCONT.4394330,R GONÇALO MENDES DA MAIA,8,2005-161,SANTARÉM,-8.696609567785961,39.23697079912195
pt.ine.add.PTCONT.4394333,VALE DE AIRES,,2000-460,CASÉVEL STR,-8.612075332631424,39.414691552417345
pt.ine.add.PTCONT.4394334,BC CLAUDIO,7,2000-074,SANTARÉM,-8.680469514538252,39.2302742703227
pt.ine.add.PTCONT.4394335,R COMÉRCIO,116,2005-095,MOÇARRIA,-8.776287410628553,39.28413428255555
pt.ine.add.PTCONT.4394336,R COMÉRCIO,94,2005-095,MOÇARRIA,-8.775789617749579,39.28293006650098
pt.ine.add.PTCONT.4394337,R ESCOLA,115,2005-094,MOÇARRIA,-8.760815692821144,39.262187056959
pt.ine.add.PTCONT.4394338,BR 16 DE MARCO,6,2005-158,SANTARÉM,-8.696392003249285,39.23438675654059
pt.ine.add.PTCONT.4394339,R PEDRO CANAVARRO,26,2000-030,SANTARÉM,-8.685307926225953,39.235853978322844
pt.ine.add.PTCONT.4394344,R LUIS DE CAMÕES,,2025-013,ABRÃ,-8.753854289663801,39.431576054806314
pt.ine.add.PTCONT.4394345,QTA CASAS ALTAS,,2000-461,CASÉVEL STR,-8.614729675574253,39.40387212696878
pt.ine.add.PTCONT.4394346,R BARÃO DE ALMEIRIM,85,2150-081,POMBALINHO GLG,-8.555239222531897,39.342107140823025
pt.ine.add.PTCONT.4394347,R BARÃO DE ALMEIRIM,34,2150-081,POMBALINHO GLG,-8.556958625069708,39.342542243669996
pt.ine.add.PTCONT.4394348,R ESPERANÇA,140 A,2005-318,SANTARÉM,-8.703548316645822,39.24708823611821
pt.ine.add.PTCONT.4394349,R DR ANTÓNIO JOSE DE ALMEIDA,17,2005-138,SANTARÉM,-8.688773734969118,39.237665977729705
pt.ine.add.PTCONT.4394350,R DR ANTÓNIO JOSE DE ALMEIDA,17,2005-138,SANTARÉM,-8.688773734969118,39.237665977729705
pt.ine.add.PTCONT.4394351,R DR ANTÓNIO JOSE DE ALMEIDA,17,2005-138,SANTARÉM,-8.688773734969118,39.237665977729705
pt.ine.add.PTCONT.4394352,R DR ANTÓNIO JOSE DE ALMEIDA,17,2005-138,SANTARÉM,-8.688773734969118,39.237665977729705
pt.ine.add.PTCONT.4394353,R DR ANTÓNIO JOSE DE ALMEIDA,17,2005-138,SANTARÉM,-8.688773734969118,39.237665977729705
pt.ine.add.PTCONT.4394354,R DR ANTÓNIO JOSE DE ALMEIDA,17,2005-138,SANTARÉM,-8.688773734969118,39.237665977729705
pt.ine.add.PTCONT.4394355,R DR ANTÓNIO JOSE DE ALMEIDA,17,2005-138,SANTARÉM,-8.688773734969118,39.237665977729705
pt.ine.add.PTCONT.4394356,R DR ANTÓNIO JOSE DE ALMEIDA,17,2005-138,SANTARÉM,-8.688773734969118,39.237665977729705
pt.ine.add.PTCONT.4394357,R DR ANTÓNIO JOSE DE ALMEIDA,17,2005-138,SANTARÉM,-8.688773734969118,39.237665977729705
pt.ine.add.PTCONT.4394358,R DR ANTÓNIO JOSE DE ALMEIDA,17,2005-138,SANTARÉM,-8.688773734969118,39.237665977729705
pt.ine.add.PTCONT.4394359,AV ANTÓNIO MARIA BAPTISTA,,2005-160,SANTARÉM,-8.690743511436327,39.23629646169387
pt.ine.add.PTCONT.4394360,R JOAQUIM DIAS ROLA,36,2025-011,ABRÃ,-8.777391800504075,39.42217988109282
pt.ine.add.PTCONT.4394361,R PRINCIPAL,21,2025-176,ALCANEDE,-8.797602713254207,39.39449575546087
pt.ine.add.PTCONT.4394362,R JOSE PAULO,46,2000-056,SANTARÉM,-8.683097651620036,39.233135222455445
pt.ine.add.PTCONT.4394370,R VILA DE ALCANEDE,62,2025-049,ALCANEDE,-8.83605182041099,39.41783209308298
pt.ine.add.PTCONT.4394371,R ALMEIDA GARRETT,14,2005-359,SANTARÉM,-8.688748089144122,39.23294627361612
pt.ine.add.PTCONT.4394372,PCT JOÃO CAETANO BRÁS,7,2005-517,SANTARÉM,-8.698661955895323,39.23869925971285
pt.ine.add.PTCONT.4394373,PCT JOÃO CAETANO BRÁS,7,2005-517,SANTARÉM,-8.698661955895323,39.23869925971285
pt.ine.add.PTCONT.4394374,PCT JOÃO CAETANO BRÁS,7,2005-517,SANTARÉM,-8.698661955895323,39.23869925971285
pt.ine.add.PTCONT.4394375,PCT JOÃO CAETANO BRÁS,7,2005-517,SANTARÉM,-8.698661955895323,39.23869925971285
pt.ine.add.PTCONT.4394376,PCT JOÃO CAETANO BRÁS,7,2005-517,SANTARÉM,-8.698661955895323,39.23869925971285
pt.ine.add.PTCONT.4394380,ESTR PRINCIPAL,27,2025-161,ALCANEDE,-8.829057989897978,39.45019108076789
pt.ine.add.PTCONT.4394381,ESTR 5 DE OUTUBRO,13,2025-161,ALCANEDE,-8.826157333002968,39.449397778555635
pt.ine.add.PTCONT.4394382,BC LOUREIRO,3,2025-143,ALCANEDE,-8.785532546999507,39.358616914942175
pt.ine.add.PTCONT.4394383,ESTR MARINHEIRA,,2000-467,CASÉVEL STR,-8.633912200701204,39.399386682214384
pt.ine.add.PTCONT.4394384,LG PEDRO ANTÓNIO MONTEIRO,10,2000-071,SANTARÉM,-8.680685080768264,39.23267820911789
pt.ine.add.PTCONT.4394385,LG PEDRO ANTÓNIO MONTEIRO,10,2000-071,SANTARÉM,-8.680685080768264,39.23267820911789
pt.ine.add.PTCONT.4394386,ESTR POÇO DO RETO,,2000-471,SANTARÉM,-8.691082961522344,39.227972084804854
pt.ine.add.PTCONT.4394387,PCT JOÃO CAETANO BRÁS,7,2005-517,SANTARÉM,-8.698661955895323,39.23869925971285
pt.ine.add.PTCONT.4394388,PCT JOÃO CAETANO BRÁS,7,2005-517,SANTARÉM,-8.698661955895323,39.23869925971285
pt.ine.add.PTCONT.4394389,PCT JOÃO CAETANO BRÁS,7,2005-517,SANTARÉM,-8.698661955895323,39.23869925971285
pt.ine.add.PTCONT.4394390,PCT JOÃO CAETANO BRÁS,7,2005-517,SANTARÉM,-8.698661955895323,39.23869925971285
pt.ine.add.PTCONT.4394391,PCT JOÃO CAETANO BRÁS,7,2005-517,SANTARÉM,-8.698661955895323,39.23869925971285
pt.ine.add.PTCONT.4394392,PCT JOÃO CAETANO BRÁS,7,2005-517,SANTARÉM,-8.698661955895323,39.23869925971285
pt.ine.add.PTCONT.4394393,PCT JOÃO CAETANO BRÁS,7,2005-517,SANTARÉM,-8.698661955895323,39.23869925971285
pt.ine.add.PTCONT.4394394,PCT JOÃO CAETANO BRÁS,7,2005-517,SANTARÉM,-8.698661955895323,39.23869925971285
pt.ine.add.PTCONT.4394395,PCT JOÃO CAETANO BRÁS,7,2005-517,SANTARÉM,-8.698661955895323,39.23869925971285
pt.ine.add.PTCONT.4394396,PCT JOÃO CAETANO BRÁS,7,2005-517,SANTARÉM,-8.698661955895323,39.23869925971285
pt.ine.add.PTCONT.4394397,PCT JOÃO CAETANO BRÁS,7,2005-517,SANTARÉM,-8.698661955895323,39.23869925971285
pt.ine.add.PTCONT.4394398,PCT JOÃO CAETANO BRÁS,7,2005-517,SANTARÉM,-8.698661955895323,39.23869925971285
pt.ine.add.PTCONT.4394399,PCT JOÃO CAETANO BRÁS,7,2005-517,SANTARÉM,-8.698661955895323,39.23869925971285
pt.ine.add.PTCONT.4394400,PCT JOÃO CAETANO BRÁS,7,2005-517,SANTARÉM,-8.698661955895323,39.23869925971285
pt.ine.add.PTCONT.4394403,R OLIVEIRAS DE S PEDRO,10,2025-214,ALCANEDE,-8.861773710731606,39.46360914654795
pt.ine.add.PTCONT.4394404,R MARECHAL CARMONA,23,2025-351,AMIAIS DE BAIXO,-8.73143084953978,39.442943274576784
pt.ine.add.PTCONT.4394405,R CENTRO,,2025-453,AZOIA DE CIMA,-8.746999248341284,39.365077479746816
pt.ine.add.PTCONT.4394406,CC MEM RAMIREZ,36,2000-105,SANTARÉM,-8.681257505701964,39.236287446388786
pt.ine.add.PTCONT.4394407,URB BAIRRO TRIGOSO,13,2005-456,SANTARÉM,-8.69732683283476,39.27444657063708
pt.ine.add.PTCONT.4394408,URB BAIRRO TRIGOSO,13,2005-456,SANTARÉM,-8.69732683283476,39.27444657063708
pt.ine.add.PTCONT.4394409,URB BAIRRO TRIGOSO,13,2005-456,SANTARÉM,-8.69732683283476,39.27444657063708
pt.ine.add.PTCONT.4394410,URB BAIRRO TRIGOSO,13,2005-456,SANTARÉM,-8.69732683283476,39.27444657063708
pt.ine.add.PTCONT.4394411,URB BAIRRO TRIGOSO,13,2005-456,SANTARÉM,-8.69732683283476,39.27444657063708
pt.ine.add.PTCONT.4394412,URB BAIRRO TRIGOSO,13,2005-456,SANTARÉM,-8.69732683283476,39.27444657063708
pt.ine.add.PTCONT.4394413,URB BAIRRO TRIGOSO,13,2005-456,SANTARÉM,-8.69732683283476,39.27444657063708
pt.ine.add.PTCONT.4394415,R ALECRIM,,2025-014,ABRÃ,-8.776088226994982,39.467338945929384
pt.ine.add.PTCONT.4394416,R JOAQUIM DOS SANTOS CAMÕES,,2025-011,ABRÃ,-8.771943532925073,39.415625817188655
pt.ine.add.PTCONT.4394417,R VALE DO CARRO DE CIMA,42,2025-175,ALCANEDE,-8.830029665679822,39.4008000868655
pt.ine.add.PTCONT.4394418,ESTR ANTÓNIO DA PAZ PEREIRA FERREIRA,,2025-454,AZOIA DE CIMA,-8.726262086786884,39.35116997579529
pt.ine.add.PTCONT.4394427,R 16 DE ABRIL,85,2005-337,SANTARÉM,-8.691955486677408,39.25620575923837
pt.ine.add.PTCONT.4394428,R DR HUMBERTO LOPES,,2005-484,SANTARÉM,-8.698650242965373,39.26031678260798
pt.ine.add.PTCONT.4394429,R BAIRRO DO OUTEIRINHO,6,2005-326,SANTARÉM,-8.703390001109314,39.253286016603006
pt.ine.add.PTCONT.4394430,R PROF MARIA CARMINDA,,2000-700,SÃO VICENTE DO PAUL,-8.61972889423333,39.36140989078881
pt.ine.add.PTCONT.4394431,LG ROSSIO DA FRAZOA,3,2000-791,VAQUEIROS STR,-8.652159601507034,39.4131595494394
pt.ine.add.PTCONT.4394435,R RAFAEL BORDALO PINHEIRO,,2005-338,SANTARÉM,-8.689261620550512,39.2569122147124
pt.ine.add.PTCONT.4394436,R CAP SALGUEIRO MAIA,51,2005-347,SANTARÉM,-8.691688033998814,39.25462176271261
pt.ine.add.PTCONT.4394437,R VALE GATO,,2025-550,TREMÊS,-8.765595975820649,39.36208661799916
pt.ine.add.PTCONT.4394446,R BRIG LINO DIAS VALENTE,47,2005-172,SANTARÉM,-8.690316462988493,39.24234240087969
pt.ine.add.PTCONT.4394447,R BRIG LINO DIAS VALENTE,47,2005-172,SANTARÉM,-8.690316462988493,39.24234240087969
pt.ine.add.PTCONT.4394448,R BRIG LINO DIAS VALENTE,47,2005-172,SANTARÉM,-8.690316462988493,39.24234240087969
pt.ine.add.PTCONT.4394449,R BRIG LINO DIAS VALENTE,47,2005-172,SANTARÉM,-8.690316462988493,39.24234240087969
pt.ine.add.PTCONT.4394450,R BRIG LINO DIAS VALENTE,47,2005-172,SANTARÉM,-8.690316462988493,39.24234240087969
pt.ine.add.PTCONT.4394463,R ALVITEJO,7,2000-734,VALE DE FIGUEIRA STR,-8.627436880126696,39.3059202664781
pt.ine.add.PTCONT.4394464,BC ALTO DO VALE,,2005-533,VALE DE SANTARÉM,-8.742270893757823,39.1891192436249
pt.ine.add.PTCONT.4394473,,,2000-700,SÃO VICENTE DO PAUL,-8.639053323450135,39.3541217792175
pt.ine.add.PTCONT.4394474,R PORTO SOBREIRO,2,2025-569,TREMÊS,-8.760285748634248,39.35863862218119
pt.ine.add.PTCONT.4394475,R MANUEL DUARTE,54,2025-575,TREMÊS,-8.758484681674174,39.35963909445874
pt.ine.add.PTCONT.4394476,R MALPIQUE,,2005-387,VALE DE SANTARÉM,-8.743915456157769,39.18789464074678
pt.ine.add.PTCONT.4394477,R ALTO DO SOBREIRO CASA DO SOBREIRO,,2025-601,GANÇARIA,-8.882414952234841,39.40330267984869
pt.ine.add.PTCONT.4394481,R 31 JANEIRO SN,SN,2025-579,TREMÊS,-8.762102333085174,39.36196144010161
pt.ine.add.PTCONT.4394482,R PRINCIPAL,9,2005-019,VÁRZEA STR,-8.740627202314196,39.29518849049356
pt.ine.add.PTCONT.4394483,R FONTE,28,2005-019,VÁRZEA STR,-8.741409500136609,39.29449985908117
pt.ine.add.PTCONT.4394490,R JOAQUIM CAETANO FRAZAO,19,2005-506,SANTARÉM,-8.689000005827726,39.24578947584023
pt.ine.add.PTCONT.4394491,R ANTÓNIO VICENTE JUNIOR,24,2005-499,SANTARÉM,-8.68978882046434,39.245929824804655
pt.ine.add.PTCONT.4394492,R ANTÓNIO VICENTE JUNIOR,24,2005-499,SANTARÉM,-8.68978882046434,39.245929824804655
pt.ine.add.PTCONT.4394493,R ANTÓNIO VICENTE JUNIOR,24,2005-499,SANTARÉM,-8.68978882046434,39.245929824804655
pt.ine.add.PTCONT.4394494,R ANTÓNIO VICENTE JUNIOR,24,2005-499,SANTARÉM,-8.68978882046434,39.245929824804655
pt.ine.add.PTCONT.4394495,FTE OUTEIRO,,2000-692,SÃO VICENTE DO PAUL,-8.671904937445248,39.37315046444412
pt.ine.add.PTCONT.4394496,R 25 DE ABRIL,12,2005-031,VALE DE SANTARÉM,-8.725729279567302,39.190312458253636
pt.ine.add.PTCONT.4394497,R NORONHA,5,2005-425,VALE DE SANTARÉM,-8.72872768298736,39.19174735344803
pt.ine.add.PTCONT.4394498,R PRINCIPAL,60,2005-019,VÁRZEA STR,-8.740489120627968,39.296648376145704
pt.ine.add.PTCONT.4394505,CSL ALFARROBEIRA,,2025-561,TREMÊS,-8.759068860501994,39.3613923357842
pt.ine.add.PTCONT.4394506,R LATOEIRO,,2005-532,VALE DE SANTARÉM,-8.741504515109677,39.192861299539736
pt.ine.add.PTCONT.4394516,R VALE DE SALMEIRIM,,2005-441,SANTARÉM,-8.689431093941172,39.25929833106315
pt.ine.add.PTCONT.4394517,R VALE DE SALMEIRIM,,2005-441,SANTARÉM,-8.689431093941172,39.25929833106315
pt.ine.add.PTCONT.4394518,R VALE DE SALMEIRIM,,2005-441,SANTARÉM,-8.689431093941172,39.25929833106315
pt.ine.add.PTCONT.4394519,R VALE DE SALMEIRIM,,2005-441,SANTARÉM,-8.689431093941172,39.25929833106315
pt.ine.add.PTCONT.4394520,R VALE DE SALMEIRIM,,2005-441,SANTARÉM,-8.689431093941172,39.25929833106315
pt.ine.add.PTCONT.4394521,R VALE DE SALMEIRIM,,2005-441,SANTARÉM,-8.689431093941172,39.25929833106315
pt.ine.add.PTCONT.4394522,R VALE DE SALMEIRIM,,2005-441,SANTARÉM,-8.689431093941172,39.25929833106315
pt.ine.add.PTCONT.4394523,R VALE DE SALMEIRIM,,2005-441,SANTARÉM,-8.689431093941172,39.25929833106315
pt.ine.add.PTCONT.4394524,R S SIMAO,,2000-684,SÃO VICENTE DO PAUL,-8.670629236047953,39.358123501867595
pt.ine.add.PTCONT.4394525,R DR CRISTIANO ALMEIDA,3,2005-417,VALE DE SANTARÉM,-8.72906778827946,39.18816068538537
pt.ine.add.PTCONT.4394532,R PRINCIPAL,,2025-506,TREMÊS,-8.757799814983548,39.340061328293416
pt.ine.add.PTCONT.4394538,R BREJO,17,2005-442,SANTARÉM,-8.693515518589653,39.26443090070084
pt.ine.add.PTCONT.4394539,EN 3,,2000-692,SÃO VICENTE DO PAUL,-8.664578366168477,39.35120679783937
pt.ine.add.PTCONT.4394540,EN 3,,2000-692,SÃO VICENTE DO PAUL,-8.664578366168477,39.35120679783937
pt.ine.add.PTCONT.4394541,R JOSE MATIAS JUNIOR,47,2005-039,VALE DE SANTARÉM,-8.736949569785182,39.193524517474785
pt.ine.add.PTCONT.4394542,R CIDADE SANTARÉM,,2005-017,VÁRZEA STR,-8.715641182438121,39.266574135167176
pt.ine.add.PTCONT.4394563,LG GILBERTO DIONISIO,5,2005-381,VALE DE SANTARÉM,-8.735686303188247,39.19334190341203
pt.ine.add.PTCONT.4394564,R FREIXO,2,2005-016,VÁRZEA STR,-8.740008760826596,39.288003970661286
pt.ine.add.PTCONT.4394565,R FREIXO,2,2005-016,VÁRZEA STR,-8.740008760826596,39.288003970661286
pt.ine.add.PTCONT.4394571,TRANSV A,,2005-427,SANTARÉM,-8.69424491963699,39.258545647222086
pt.ine.add.PTCONT.4394572,R S VICENTE,,2000-700,SÃO VICENTE DO PAUL,-8.623603399599716,39.35630459619094
pt.ine.add.PTCONT.4394573,R NACIONAL 3,,2000-687,SÃO VICENTE DO PAUL,-8.662327391151011,39.338859257027764
pt.ine.add.PTCONT.4394574,R CAP SALGUEIRO MAIA,,2025-510,TREMÊS,-8.714231801366987,39.375000399160776
pt.ine.add.PTCONT.4394575,R VENCESLAU PINTO,8,2005-407,VALE DE SANTARÉM,-8.73854787433341,39.192282215792346
pt.ine.add.PTCONT.4394596,R PEDRO ÁLVARES CABRAL,14,2005-529,VALE DE SANTARÉM,-8.748127838759755,39.19179968779707
pt.ine.add.PTCONT.4421140,TV HORTAS,,2025-011,ABRÃ,-8.774668631049577,39.421555435670726
pt.ine.add.PTCONT.4395009,R ESTRADA VALE SOUPO,,2025-176,ALCANEDE,-8.805563414307683,39.3930088938801
pt.ine.add.PTCONT.4395013,R FRANCISCO VIEIRA,22,2005-379,VALE DE SANTARÉM,-8.74222378921372,39.19438879074728
pt.ine.add.PTCONT.4395014,R FALCÃO,2,2005-046,VALE DE SANTARÉM,-8.7516214153226,39.18760178292494
pt.ine.add.PTCONT.4395015,R D TOMASIA,23,2005-403,VALE DE SANTARÉM,-8.737083994852648,39.193001394331795
pt.ine.add.PTCONT.4395016,R DR ANTÓNIO JOSE DE ALMEIDA,17,2005-138,SANTARÉM,-8.688773734969118,39.237665977729705
pt.ine.add.PTCONT.4395019,PCT JOÃO CAETANO BRÁS,7,2005-517,SANTARÉM,-8.698661955895323,39.23869925971285
pt.ine.add.PTCONT.4395028,R GERMANOS,,2005-320,SANTARÉM,-8.707367128873514,39.24376379731594
pt.ine.add.PTCONT.4395034,URB BAIRRO TRIGOSO,13,2005-456,SANTARÉM,-8.69732683283476,39.27444657063708
pt.ine.add.PTCONT.4395038,URB BAIRRO TRIGOSO,24,2005-456,SANTARÉM,-8.696393433055565,39.27365845240199
pt.ine.add.PTCONT.4395044,R VAL MOINHOS,,2005-102,ALMOSTER STR,-8.785746241672102,39.21178044855693
pt.ine.add.PTCONT.4395054,R JOAQUIM CAETANO FRAZAO,34,2005-506,SANTARÉM,-8.689310411638207,39.24549075343913
pt.ine.add.PTCONT.4395055,PCT JOÃO CAETANO BRÁS,7,2005-517,SANTARÉM,-8.698661955895323,39.23869925971285
pt.ine.add.PTCONT.4395057,R DR AGOSTINHO NETO,10,2005-171,SANTARÉM,-8.695640345852233,39.241785379133525
pt.ine.add.PTCONT.4395058,R RIBATEJO,1S,2025-158,ALCANEDE,-8.835896537745295,39.42318317026113
pt.ine.add.PTCONT.4395060,R LOURENÇO DE ALMEIDA,38,2000-603,STA IRIA RIBEIRA SANTARÉM,-8.679070344722545,39.23802712095808
pt.ine.add.PTCONT.4395065,R DR AGOSTINHO NETO,1A,2005-171,SANTARÉM,-8.695640345852233,39.241785379133525
pt.ine.add.PTCONT.4395066,R BRIG LINO DIAS VALENTE,47,2005-172,SANTARÉM,-8.690316462988493,39.24234240087969
pt.ine.add.PTCONT.4395076,R GONÇALO MENDES DA MAIA,8,2005-161,SANTARÉM,-8.696609567785961,39.23697079912195
pt.ine.add.PTCONT.4395088,R DR AGOSTINHO NETO,10,2005-171,SANTARÉM,-8.695640345852233,39.241785379133525
pt.ine.add.PTCONT.4395095,R FRANCISCO LAURENTINO,72,2025-336,AMIAIS DE BAIXO,-8.731425300794712,39.44229480124587
pt.ine.add.PTCONT.4395096,R LUIS CAMOES,73A,2025-349,AMIAIS DE BAIXO,-8.733406431636691,39.44168112612401
pt.ine.add.PTCONT.4395097,R 12 JANEIRO,12,2025-251,ALCANEDE,-8.853460628083646,39.414645210038856
pt.ine.add.PTCONT.4395138,,,2025-014,ABRÃ,-8.764011123608116,39.47597067052708
pt.ine.add.PTCONT.4395139,R VALE DA TORGA,,2025-503,TREMÊS,-8.747666467430012,39.369712604615856
pt.ine.add.PTCONT.4395158,R DR AGOSTINHO NETO,10,2005-171,SANTARÉM,-8.695640345852233,39.241785379133525
pt.ine.add.PTCONT.4395160,R PADRE JOSE PEREIRA DOS SANTOS,,2000-504,PERNES,-8.67704429870791,39.408821559597
pt.ine.add.PTCONT.4395178,R SALVADOR,48,2005-109,ALMOSTER STR,-8.79530111615172,39.228101780513235
pt.ine.add.PTCONT.4395199,BC PORTELAS,5,2025-078,ALCANEDE,-8.808108127327367,39.39206643526631
pt.ine.add.PTCONT.4395200,QTA SAPO,7,2025-034,ALCANEDE,-8.818635953621392,39.41216255335262
pt.ine.add.PTCONT.4395201,R CIDADE DE SANTARÉM,30,2000-719,VALE DE FIGUEIRA STR,-8.623538462634675,39.31713270865502
pt.ine.add.PTCONT.4395249,TV PONDAIS,5,2025-144,ALCANEDE,-8.79349116639818,39.40903846869732
pt.ine.add.PTCONT.4395219,R CLAUDIO MANUEL LIBANIO DUARTE,2,2005-099,AZOIA DE BAIXO,-8.706758966017057,39.29847678075065
pt.ine.add.PTCONT.4395237,R SANTO ANTÓNIO,,2025-510,TREMÊS,-8.715506974922679,39.374831896500424
pt.ine.add.PTCONT.4395254,R CAP ROMEU NEVES,4,2005-157,SANTARÉM,-8.68926919673628,39.23587116028094
pt.ine.add.PTCONT.4395255,R CAP ROMEU NEVES,4,2005-157,SANTARÉM,-8.68926919673628,39.23587116028094
pt.ine.add.PTCONT.4395256,R CAP ROMEU NEVES,4,2005-157,SANTARÉM,-8.68926919673628,39.23587116028094
pt.ine.add.PTCONT.4395257,R CAP ROMEU NEVES,4,2005-157,SANTARÉM,-8.68926919673628,39.23587116028094
pt.ine.add.PTCONT.4395258,R CAP ROMEU NEVES,4,2005-157,SANTARÉM,-8.68926919673628,39.23587116028094
pt.ine.add.PTCONT.4395259,R CAP ROMEU NEVES,4,2005-157,SANTARÉM,-8.68926919673628,39.23587116028094
pt.ine.add.PTCONT.4395260,R CAP ROMEU NEVES,4,2005-157,SANTARÉM,-8.68926919673628,39.23587116028094
pt.ine.add.PTCONT.4395269,PCT JOÃO CAETANO BRÁS,7,2005-517,SANTARÉM,-8.698661955895323,39.23869925971285
pt.ine.add.PTCONT.4395270,R ARTUR,,2000-347,ACHETE,-8.682302625129925,39.36422085663116
pt.ine.add.PTCONT.4395271,R NORTON MATOS,5,2005-426,VALE DE SANTARÉM,-8.729138296888163,39.18828642778492
pt.ine.add.PTCONT.4395274,R ALEGRIA,,2005-298,SANTARÉM,-8.721456123578154,39.241396622032134
pt.ine.add.PTCONT.4395275,R ALEGRIA,,2005-298,SANTARÉM,-8.721736968308008,39.24173747975161
pt.ine.add.PTCONT.4395276,R 25 DE ABRIL,24,2005-297,SANTARÉM,-8.720244278562216,39.243312280987034
pt.ine.add.PTCONT.4395277,R 25 DE ABRIL,,2005-297,SANTARÉM,-8.722208886032972,39.2441490448432
pt.ine.add.PTCONT.4395278,R JULIO DINIS,1,2005-479,SANTARÉM,-8.69722410134563,39.25729725899992
pt.ine.add.PTCONT.4395288,TV ARNEIRO,9,2005-607,PÓVOA DA ISENTA,-8.775637915590938,39.22823892753543
pt.ine.add.PTCONT.4395305,R DR GINESTAL MACHADO,11,2005-155,SANTARÉM,-8.687932320151328,39.23524702488354
pt.ine.add.PTCONT.4395306,R ADELAIDE FÉLIX,8,2000-200,SANTARÉM,-8.686033148528809,39.228187457759496
pt.ine.add.PTCONT.4395307,R ADELAIDE FÉLIX,8,2000-200,SANTARÉM,-8.686033148528809,39.228187457759496
pt.ine.add.PTCONT.4395308,R ADELAIDE FÉLIX,8,2000-200,SANTARÉM,-8.686033148528809,39.228187457759496
pt.ine.add.PTCONT.4395309,R ADELAIDE FÉLIX,8,2000-200,SANTARÉM,-8.686033148528809,39.228187457759496
pt.ine.add.PTCONT.4395310,R ADELAIDE FÉLIX,8,2000-200,SANTARÉM,-8.686033148528809,39.228187457759496
pt.ine.add.PTCONT.4395311,R ADELAIDE FÉLIX,8,2000-200,SANTARÉM,-8.686033148528809,39.228187457759496
pt.ine.add.PTCONT.4395312,R ADELAIDE FÉLIX,8,2000-200,SANTARÉM,-8.686033148528809,39.228187457759496
pt.ine.add.PTCONT.4395313,R ANTÓNIO VICENTE JUNIOR,24,2005-499,SANTARÉM,-8.68978882046434,39.245929824804655
pt.ine.add.PTCONT.4395329,R CAP ROMEU NEVES,4,2005-157,SANTARÉM,-8.68926919673628,39.23587116028094
pt.ine.add.PTCONT.4395332,R EIRAS,,2005-128,ABITUREIRAS,-8.79662181827408,39.32152600701749
pt.ine.add.PTCONT.4404547,R SAUDADE,,2000-344,ACHETE,-8.670683395053354,39.35307926289752
pt.ine.add.PTCONT.4396331,BC CERCA DAS FREIRAS,,2000-494,PERNES,-8.658836925343914,39.38386562669177
pt.ine.add.PTCONT.4396332,EN 362,,2005-079,ROMEIRA,-8.732959838442948,39.31361190519397
pt.ine.add.PTCONT.4396333,R POCINHO,31,2000-596,STA IRIA RIBEIRA SANTARÉM,-8.674863300382782,39.237695480227714
pt.ine.add.PTCONT.4396334,PCT ALBERTINO HENRIQUES BARATA,4,2005-176,SANTARÉM,-8.692770532528916,39.24214148142311
pt.ine.add.PTCONT.4396335,PCT ALBERTINO HENRIQUES BARATA,4,2005-176,SANTARÉM,-8.692770532528916,39.24214148142311
pt.ine.add.PTCONT.4396336,PCT ALBERTINO HENRIQUES BARATA,4,2005-176,SANTARÉM,-8.692770532528916,39.24214148142311
pt.ine.add.PTCONT.4396337,PCT ALBERTINO HENRIQUES BARATA,4,2005-176,SANTARÉM,-8.692770532528916,39.24214148142311
pt.ine.add.PTCONT.4396338,PCT ALBERTINO HENRIQUES BARATA,4,2005-176,SANTARÉM,-8.692770532528916,39.24214148142311
pt.ine.add.PTCONT.4396339,PCT ALBERTINO HENRIQUES BARATA,4,2005-176,SANTARÉM,-8.692770532528916,39.24214148142311
pt.ine.add.PTCONT.4396340,PCT ALBERTINO HENRIQUES BARATA,4,2005-176,SANTARÉM,-8.692770532528916,39.24214148142311
pt.ine.add.PTCONT.4396341,PCT ALBERTINO HENRIQUES BARATA,4,2005-176,SANTARÉM,-8.692770532528916,39.24214148142311
pt.ine.add.PTCONT.4396342,PCT CÓNEGO DR MANUEL NUNES FORMIGÃO,8,2005-258,SANTARÉM,-8.700746443648262,39.23721192324668
pt.ine.add.PTCONT.4396343,PCT CÓNEGO DR MANUEL NUNES FORMIGÃO,8,2005-258,SANTARÉM,-8.700746443648262,39.23721192324668
pt.ine.add.PTCONT.4396344,PCT CÓNEGO DR MANUEL NUNES FORMIGÃO,8,2005-258,SANTARÉM,-8.700746443648262,39.23721192324668
pt.ine.add.PTCONT.4396346,R SRA DA LUZ,6,2025-157,ALCANEDE,-8.868877753839703,39.433112045057314
pt.ine.add.PTCONT.4396347,R PAULINO DA CUNHA E SILVA,8H,2000-369,ALCANHÕES,-8.65443215362754,39.29250786424269
pt.ine.add.PTCONT.4396348,ESTR AMOREIRAS,23,2000-361,ALCANHÕES,-8.654180478167973,39.28826658647452
pt.ine.add.PTCONT.4396349,R PLANALTO SANTA CLARA,3,2005-114,ALMOSTER STR,-8.787099313000478,39.247792964494394
pt.ine.add.PTCONT.4396350,QTA BOA VENTURA CARVALHOS,,2005-078,ROMEIRA,-8.706716804400653,39.30467393864083
pt.ine.add.PTCONT.4396356,,,2025-141,ALCANEDE,-8.852113890984114,39.39431576676497
pt.ine.add.PTCONT.4396357,R TIMOR,32,2025-325,AMIAIS DE BAIXO,-8.729662686639024,39.44265512689281
pt.ine.add.PTCONT.4396358,R PRINCIPAL,76,2005-096,MOÇARRIA,-8.768619336850563,39.29105788530254
pt.ine.add.PTCONT.4396359,R PRINCIPAL,96,2005-096,MOÇARRIA,-8.767641508097972,39.29444992128177
pt.ine.add.PTCONT.4396360,R VALA DO SABUGUEIRO,8,2005-085,PÓVOA DA ISENTA,-8.750617321102668,39.218340124951084
pt.ine.add.PTCONT.4396361,R FONTE DA MESTRA QTA DA AFORDA,,2005-078,ROMEIRA,-8.719459003532496,39.303385482367226
pt.ine.add.PTCONT.4396362,R CIDADE DE SANTARÉM,113,2005-076,ROMEIRA,-8.732456644913832,39.31035390115457
pt.ine.add.PTCONT.4396363,,,2005-073,SANTARÉM,-8.727673835185351,39.23973472963681
pt.ine.add.PTCONT.4396371,R PRINCIPAL,32,2025-140,ALCANEDE,-8.795206628890751,39.42836671630547
pt.ine.add.PTCONT.4396372,R NSA SRA DA ASCENSÃO,8,2025-143,ALCANEDE,-8.784597510000598,39.35663158783828
pt.ine.add.PTCONT.4396373,R JAIME COSTA LEIRIA,30,2000-386,ALCANHÕES,-8.655569510163286,39.29113366786324
pt.ine.add.PTCONT.4396374,R AMENDOEIRAS,,2005-101,ALMOSTER STR,-8.812445712219205,39.24181118251032
pt.ine.add.PTCONT.4396375,R PORTAS DO SOL CASA DA MIRAGEM,,2005-101,ALMOSTER STR,-8.811972911740007,39.24203011327666
pt.ine.add.PTCONT.4396376,R 2 VISC DE SANTARÉM,2,2005-365,SANTARÉM,-8.68811957403342,39.232552948647815
pt.ine.add.PTCONT.4396377,R ENG ANTÓNIO TORRES,26 28,2000-495,PERNES,-8.660780563066613,39.37994775368161
pt.ine.add.PTCONT.4396419,,,2025-084,ALCANEDE,-8.804842505116822,39.388041180299105
pt.ine.add.PTCONT.4396380,R PAZ,,2025-012,ABRÃ,-8.764286707657572,39.4473001152629
pt.ine.add.PTCONT.4396381,R LIBERDADE,58,2000-345,ACHETE,-8.687085118384607,39.3159649437851
pt.ine.add.PTCONT.4396382,R LUIS DE CAMÕES,13,2000-345,ACHETE,-8.685825512326565,39.316511361897014
pt.ine.add.PTCONT.4396383,R COMÉRCIO,40,2025-040,ALCANEDE,-8.8240278814069,39.41730066200944
pt.ine.add.PTCONT.4396384,R PAULINO DA CUNHA E SILVA,263,2000-369,ALCANHÕES,-8.658763341040638,39.296613697478826
pt.ine.add.PTCONT.4396385,R NOVA,67,2005-095,MOÇARRIA,-8.78250161697995,39.283081976829024
pt.ine.add.PTCONT.4396386,BC CASALINHOS,3,2005-085,PÓVOA DA ISENTA,-8.742487242593725,39.2168426881802
pt.ine.add.PTCONT.4396387,R ESPERANÇA,35,2005-318,SANTARÉM,-8.70543555124868,39.24269243083227
pt.ine.add.PTCONT.4396388,R ANTÓNIO HENRIQUES BEJA,14,2005-487,SANTARÉM,-8.698142694026833,39.27646924313353
pt.ine.add.PTCONT.4396389,R 19 DE MARCO,28,2005-455,SANTARÉM,-8.698992484969848,39.274060183962376
pt.ine.add.PTCONT.4396392,R FREIXO,LETRA D,2025-012,ABRÃ,-8.757186897984196,39.448410255829366
pt.ine.add.PTCONT.4396393,TV VIEIRAS,,2025-157,ALCANEDE,-8.871648853747333,39.43155429702481
pt.ine.add.PTCONT.4396394,R COMBATENTES DA GRANDE GUERRA,10,2000-378,ALCANHÕES,-8.65819515580851,39.295039998145704
pt.ine.add.PTCONT.4396395,R CONDE ALTO MEARIM,,2005-111,ALMOSTER STR,-8.791956933818494,39.23829896016203
pt.ine.add.PTCONT.4396396,R DR ANTÓNIO JOSE DE ALMEIDA,16,2025-395,AMIAIS DE BAIXO,-8.730714669833633,39.44477537121328
pt.ine.add.PTCONT.4396397,R NOVA,27,2005-095,MOÇARRIA,-8.778289434446696,39.28379894724627
pt.ine.add.PTCONT.4396398,R 1 DE JANEIRO,18,2005-443,SANTARÉM,-8.698280831383979,39.26481319750722
pt.ine.add.PTCONT.4396402,URB S JOÃO,,2025-030,ALCANEDE,-8.826193752460906,39.413216623154376
pt.ine.add.PTCONT.4396403,URB S JOÃO,,2025-030,ALCANEDE,-8.826193752460906,39.413216623154376
pt.ine.add.PTCONT.4396404,URB S JOÃO,,2025-030,ALCANEDE,-8.826193752460906,39.413216623154376
pt.ine.add.PTCONT.4396405,URB S JOÃO,,2025-030,ALCANEDE,-8.825856504015118,39.41316459003567
pt.ine.add.PTCONT.4396406,R PROF D AMELIA,20,2005-113,ALMOSTER STR,-8.864741831802675,39.23939572603667
pt.ine.add.PTCONT.4396407,CSL BEMPOSTA,,2000-451,CASÉVEL STR,-8.592122772314925,39.38937204521856
pt.ine.add.PTCONT.4396408,R 1 DE DEZEMBRO,26,2000-096,SANTARÉM,-8.681907570305958,39.234987333523186
pt.ine.add.PTCONT.4396409,R 1 DE DEZEMBRO,26,2000-096,SANTARÉM,-8.681907570305958,39.234987333523186
pt.ine.add.PTCONT.4396410,R 1 DE DEZEMBRO,26,2000-096,SANTARÉM,-8.681907570305958,39.234987333523186
pt.ine.add.PTCONT.4396411,R 1 DE DEZEMBRO,26,2000-096,SANTARÉM,-8.681907570305958,39.234987333523186
pt.ine.add.PTCONT.4396412,ESTR OUTEIRO DE FORA,,2000-492,PERNES,-8.680148320335055,39.38108327601426
pt.ine.add.PTCONT.4396418,R ALGAR DA AVEIA,22,2025-219,ALCANEDE,-8.86316056390585,39.47512025155479
pt.ine.add.PTCONT.4396421,ESTR GUARITA,,2005-113,ALMOSTER STR,-8.851042960527185,39.23860727029888
pt.ine.add.PTCONT.4396422,R BAIXO,3,2025-355,AMIAIS DE BAIXO,-8.735074166248449,39.44379815145749
pt.ine.add.PTCONT.4396423,AV ANTÓNIO SANTOS,62,2000-074,SANTARÉM,-8.682648635983638,39.23199341357745
pt.ine.add.PTCONT.4396424,AV ANTÓNIO SANTOS,62,2000-074,SANTARÉM,-8.682648635983638,39.23199341357745
pt.ine.add.PTCONT.4396425,R 5 OUTUBRO,143,2150-083,POMBALINHO GLG,-8.551278379970366,39.34705736827439
pt.ine.add.PTCONT.4396432,R CARRASCAL,,2000-343,ACHETE,-8.66927799608962,39.35590497615438
pt.ine.add.PTCONT.4396433,R DR TORRES PAULO,3,2025-055,ALCANEDE,-8.820745935590619,39.41537460073243
pt.ine.add.PTCONT.4396434,R DR ANTÓNIO JOSE DE ALMEIDA,5,2025-395,AMIAIS DE BAIXO,-8.730747825000167,39.444577047567805
pt.ine.add.PTCONT.4396435,R RAUL SILVA RODRIGUES,20,2025-359,AMIAIS DE BAIXO,-8.735354561704387,39.44263480100471
pt.ine.add.PTCONT.4396436,CSL LUISA,,2000-451,CASÉVEL STR,-8.617231139710954,39.41975018288968
pt.ine.add.PTCONT.4396437,QTA S GONÇALO,,2000-458,CASÉVEL STR,-8.624779372112531,39.42470842125249
pt.ine.add.PTCONT.4396438,R ANA DE MACEDO,3,2000-019,SANTARÉM,-8.685972514013914,39.22509780813616
pt.ine.add.PTCONT.4396439,R ANA DE MACEDO,3,2000-019,SANTARÉM,-8.685972514013914,39.22509780813616
pt.ine.add.PTCONT.4396440,R ANA DE MACEDO,3,2000-019,SANTARÉM,-8.685972514013914,39.22509780813616
pt.ine.add.PTCONT.4396441,R PADRE JOSE PEREIRA DOS SANTOS,,2000-504,PERNES,-8.676040457185488,39.40514236844451
pt.ine.add.PTCONT.4396442,R CALAPITADA,2,2005-076,ROMEIRA,-8.73164118387273,39.30445839497693
pt.ine.add.PTCONT.4396443,R CALAPITADA,2,2005-076,ROMEIRA,-8.73164118387273,39.30445839497693
pt.ine.add.PTCONT.4396444,R MARQUES SA DA BANDEIRA,56,2005-076,ROMEIRA,-8.733937067205042,39.30450061195216
pt.ine.add.PTCONT.4396445,R CASAL PERO BOM,87,2005-308,SANTARÉM,-8.729314452483878,39.24608548122225
pt.ine.add.PTCONT.4396446,R PADRE ANTONIO PEREIRA,4,2005-262,SANTARÉM,-8.695247305778311,39.24478670371746
pt.ine.add.PTCONT.4396447,R PADRE ANTONIO PEREIRA,4,2005-262,SANTARÉM,-8.695247305778311,39.24478670371746
pt.ine.add.PTCONT.4396448,R PADRE ANTONIO PEREIRA,4,2005-262,SANTARÉM,-8.695247305778311,39.24478670371746
pt.ine.add.PTCONT.4396449,R PADRE ANTONIO PEREIRA,4,2005-262,SANTARÉM,-8.695247305778311,39.24478670371746
pt.ine.add.PTCONT.4396450,R PADRE ANTONIO PEREIRA,4,2005-262,SANTARÉM,-8.695247305778311,39.24478670371746
pt.ine.add.PTCONT.4396451,R PADRE ANTONIO PEREIRA,2,2005-262,SANTARÉM,-8.695247305778311,39.24478670371746
pt.ine.add.PTCONT.4396455,BC VALE CENTEIO,,2000-344,ACHETE,-8.670107646424267,39.35061396759435
pt.ine.add.PTCONT.4396456,CAM CASA DO MONTE,,2000-322,ACHETE,-8.70979607005476,39.35635075769904
pt.ine.add.PTCONT.4396457,R JOSE PEREIRA NOBRE,5,2025-346,AMIAIS DE BAIXO,-8.735738352318497,39.442686854944235
pt.ine.add.PTCONT.4396458,R ALMEIDA GARRETT,31,2025-308,AMIAIS DE BAIXO,-8.735629152685858,39.4421470025153
pt.ine.add.PTCONT.4396459,R ALMEIDA GARRETT,29,2025-308,AMIAIS DE BAIXO,-8.735757702977974,39.44223640621583
pt.ine.add.PTCONT.4396460,R ANA DE MACEDO,3,2000-019,SANTARÉM,-8.685972514013914,39.22509780813616
pt.ine.add.PTCONT.4396461,R ANA DE MACEDO,3,2000-019,SANTARÉM,-8.685972514013914,39.22509780813616
pt.ine.add.PTCONT.4396462,R ANA DE MACEDO,3,2000-019,SANTARÉM,-8.685972514013914,39.22509780813616
pt.ine.add.PTCONT.4396463,R ANA DE MACEDO,3,2000-019,SANTARÉM,-8.685972514013914,39.22509780813616
pt.ine.add.PTCONT.4396464,R ANA DE MACEDO,3,2000-019,SANTARÉM,-8.685972514013914,39.22509780813616
pt.ine.add.PTCONT.4396465,R ANA DE MACEDO,3,2000-019,SANTARÉM,-8.685972514013914,39.22509780813616
pt.ine.add.PTCONT.4396466,R CORREDOURA,4,2005-095,MOÇARRIA,-8.775754833194622,39.28800131020242
pt.ine.add.PTCONT.4396469,R MONTE,CASA 2,2005-115,ABITUREIRAS,-8.77792895900897,39.30262595868189
pt.ine.add.PTCONT.4396470,R ESTRADA NOVA,,2025-013,ABRÃ,-8.751749760159605,39.43131705736974
pt.ine.add.PTCONT.4396471,R VALE NEGRO,,2000-343,ACHETE,-8.685545278660456,39.35310874434862
pt.ine.add.PTCONT.4396472,,,2000-342,ACHETE,-8.714279033055346,39.323281282858524
pt.ine.add.PTCONT.4396473,R PRINCIPAL,21,2025-159,ALCANEDE,-8.818929004597825,39.44206394704271
pt.ine.add.PTCONT.4396474,R CIDADE DE SANTARÉM,49,2025-034,ALCANEDE,-8.820447897882291,39.41340383278542
pt.ine.add.PTCONT.4396475,R 10 DE JUNHO,,2005-107,ALMOSTER STR,-8.779800234433038,39.25272465880483
pt.ine.add.PTCONT.4396476,AV D AFONSO HENRIQUES,19,2000-179,SANTARÉM,-8.686804021945944,39.23168550083289
pt.ine.add.PTCONT.4396477,AV D AFONSO HENRIQUES,19,2000-179,SANTARÉM,-8.686804021945944,39.23168550083289
pt.ine.add.PTCONT.4396478,AV D AFONSO HENRIQUES,19,2000-179,SANTARÉM,-8.686804021945944,39.23168550083289
pt.ine.add.PTCONT.4396479,ESTR S DOMINGOS,27 C,2005-324,,-8.690581401822671,39.2377654274577
pt.ine.add.PTCONT.4396480,ESTR S DOMINGOS,27 C,2005-324,,-8.690581401822671,39.2377654274577
pt.ine.add.PTCONT.4396481,R JOSE CARDOSO DA SILVA JUNIOR,33,2000-041,SANTARÉM,-8.6832669902231,39.23553937333646
pt.ine.add.PTCONT.4396482,R JOSE CARDOSO DA SILVA JUNIOR,33,2000-041,SANTARÉM,-8.6832669902231,39.23553937333646
pt.ine.add.PTCONT.4396485,R PRINCIPAL,,2000-322,ACHETE,-8.708366780494286,39.35466449444607
pt.ine.add.PTCONT.4396486,R VALE MINHOTO,1 A,2025-140,ALCANEDE,-8.795138460460246,39.42975417764501
pt.ine.add.PTCONT.4396487,R ROSSIO DA VILA,2A,2025-053,ALCANEDE,-8.822407213601213,39.41427492414356
pt.ine.add.PTCONT.4396488,R S JOÃO,39,2025-038,ALCANEDE,-8.82376922416508,39.41344721040686
pt.ine.add.PTCONT.4396489,R S JOÃO,39,2025-038,ALCANEDE,-8.82376922416508,39.41344721040686
pt.ine.add.PTCONT.4396490,CANTO DO MURO,4,2025-163,ALCANEDE,-8.773962249655597,39.400212727410114
pt.ine.add.PTCONT.4396491,R JOSE LOPES,18,2000-389,ALCANHÕES,-8.655542178507702,39.2905753424378
pt.ine.add.PTCONT.4396492,R BARÃO DE ALMEIRIM,86,2150-081,POMBALINHO GLG,-8.555377441904428,39.34194451031603
pt.ine.add.PTCONT.4396493,ESTR S DOMINGOS,27 C,2005-324,,-8.690581401822671,39.2377654274577
pt.ine.add.PTCONT.4396496,R DIGUERRA,,2005-121,ABITUREIRAS,-8.779772459369566,39.32783575244752
pt.ine.add.PTCONT.4396497,R MONTE DO VENTO,,2025-175,ALCANEDE,-8.838875140264955,39.40877199242395
pt.ine.add.PTCONT.4396498,R FREIRIA,N 39,2005-106,ALMOSTER STR,-8.809276373792894,39.262780454423584
pt.ine.add.PTCONT.4396499,R CAPELO E IVENS,66,2000-039,SANTARÉM,-8.684274182852876,39.2354805678473
pt.ine.add.PTCONT.4396500,R DR TEIXEIRA GUEDES,21,2000-029,SANTARÉM,-8.685012523293016,39.23510777224399
pt.ine.add.PTCONT.4396501,R DR TEIXEIRA GUEDES,21,2000-029,SANTARÉM,-8.685012523293016,39.23510777224399
pt.ine.add.PTCONT.4396502,R DR TEIXEIRA GUEDES,21,2000-029,SANTARÉM,-8.685012523293016,39.23510777224399
pt.ine.add.PTCONT.4396503,AV 25 DE ABRIL,34,2005-159,SANTARÉM,-8.691415992712699,39.234924130439616
pt.ine.add.PTCONT.4396508,,,2000-321,ACHETE,-8.71050213611471,39.34769141803687
pt.ine.add.PTCONT.4396509,CSL ARROÇADAS,,2000-326,ACHETE,-8.684678707932383,39.32994648949677
pt.ine.add.PTCONT.4396510,BC LES,10,2025-175,ALCANEDE,-8.837477064499362,39.40598829958627
pt.ine.add.PTCONT.4396511,BC SERRADO,8,2000-357,ALCANHÕES,-8.660131569546115,39.299751029846135
pt.ine.add.PTCONT.4396512,R PRINCIPAL,28,2005-111,ALMOSTER STR,-8.805597983859414,39.26100031007453
pt.ine.add.PTCONT.4396513,R CASAIS DE OLIVEIRA DO CABO,,2005-108,ALMOSTER STR,-8.767793966943746,39.230407651269566
pt.ine.add.PTCONT.4396514,TV ESPERANÇA,4,2000-433,ARNEIRO DAS MILHARIÇAS,-8.706900157423476,39.40086002994043
pt.ine.add.PTCONT.4396515,,,2000-461,CASÉVEL STR,-8.622476007916106,39.399237191145666
pt.ine.add.PTCONT.4396516,R VILA NOVA DA BABELA,48,2005-093,MOÇARRIA,-8.777346661347254,39.26944667526836
pt.ine.add.PTCONT.4396519,R COMÉRCIO,,2025-014,ABRÃ,-8.767808530255687,39.47180682667485
pt.ine.add.PTCONT.4396520,R ENTRECABECOS,9 11,2025-215,ALCANEDE,-8.863715046795866,39.47257683010198
pt.ine.add.PTCONT.4396521,R COMBATENTES,18,2025-143,ALCANEDE,-8.786317221817807,39.356910174742985
pt.ine.add.PTCONT.4396522,R COMBATENTES,28,2025-143,ALCANEDE,-8.786729842857524,39.356367433005026
pt.ine.add.PTCONT.4396523,R DR JOÃO DE MATOS HENRIQUES,21,2000-433,ARNEIRO DAS MILHARIÇAS,-8.704933302871547,39.40026624168936
pt.ine.add.PTCONT.4396524,CC FONTE DA JUNQUEIRA,4,2000-199,SANTARÉM,-8.685796172959884,39.230177059279015
pt.ine.add.PTCONT.4396525,R COMEND JOSE GONÇALVES PEREIRA,44,2000-493,PERNES,-8.661575130873644,39.383736130602344
pt.ine.add.PTCONT.4396528,R MARECHAL CARMONA,25,2025-351,AMIAIS DE BAIXO,-8.731268534199657,39.44298013732689
pt.ine.add.PTCONT.4396529,R D AFONSO HENRIQUES,,2025-453,AZOIA DE CIMA,-8.74774626036747,39.36425389193364
pt.ine.add.PTCONT.4396530,R COMÉRCIO,125,2005-095,MOÇARRIA,-8.776365654176049,39.28381859836536
pt.ine.add.PTCONT.4396531,PCT CÓNEGO DR MANUEL NUNES FORMIGÃO,8,2005-258,SANTARÉM,-8.700746443648262,39.23721192324668
pt.ine.add.PTCONT.4396532,PCT CÓNEGO DR MANUEL NUNES FORMIGÃO,8,2005-258,SANTARÉM,-8.700746443648262,39.23721192324668
pt.ine.add.PTCONT.4396533,PCT CÓNEGO DR MANUEL NUNES FORMIGÃO,8,2005-258,SANTARÉM,-8.700746443648262,39.23721192324668
pt.ine.add.PTCONT.4396534,PCT CÓNEGO DR MANUEL NUNES FORMIGÃO,8,2005-258,SANTARÉM,-8.700746443648262,39.23721192324668
pt.ine.add.PTCONT.4396535,PCT CÓNEGO DR MANUEL NUNES FORMIGÃO,8,2005-258,SANTARÉM,-8.700746443648262,39.23721192324668
pt.ine.add.PTCONT.4396536,PCT CÓNEGO DR MANUEL NUNES FORMIGÃO,8,2005-258,SANTARÉM,-8.700746443648262,39.23721192324668
pt.ine.add.PTCONT.4396537,PCT CÓNEGO DR MANUEL NUNES FORMIGÃO,8,2005-258,SANTARÉM,-8.700746443648262,39.23721192324668
pt.ine.add.PTCONT.4396538,R 19 DE MARCO,56,2005-455,SANTARÉM,-8.699046741463961,39.276482867252184
pt.ine.add.PTCONT.4396543,R CANTO,37,2025-221,ALCANEDE,-8.863309553655101,39.46491451907953
pt.ine.add.PTCONT.4396544,R MOINHO,10,2000-430,ARNEIRO DAS MILHARIÇAS,-8.708387869078091,39.39682653409261
pt.ine.add.PTCONT.4396545,R 5 QUINAS,14,2000-430,ARNEIRO DAS MILHARIÇAS,-8.706825240351922,39.397383680000715
pt.ine.add.PTCONT.4396549,R ENG ROSA JUNIOR,,2005-331,SANTARÉM,-8.700840902287483,39.2546765832383
pt.ine.add.PTCONT.4396550,R SOBRAL,24,2000-740,VALE DE FIGUEIRA STR,-8.622461351030749,39.308994730954694
pt.ine.add.PTCONT.4396551,R BAIRRO DO ZAMBUJEIRO,13,2005-045,VALE DE SANTARÉM,-8.734253078493218,39.19087228469889
pt.ine.add.PTCONT.4396558,R MOINHOS,5,2005-190,SANTARÉM,-8.683471218483206,39.24092477363492
pt.ine.add.PTCONT.4396559,R S BENTO,9,2005-192,SANTARÉM,-8.681215243304615,39.24276389269665
pt.ine.add.PTCONT.4396560,R S BENTO,9,2005-192,SANTARÉM,-8.681215243304615,39.24276389269665
pt.ine.add.PTCONT.4396561,R S BENTO,11,2005-192,SANTARÉM,-8.681170523528149,39.242971270879
pt.ine.add.PTCONT.4396562,R S BENTO,11,2005-192,SANTARÉM,-8.681170523528149,39.242971270879
pt.ine.add.PTCONT.4396563,R S BENTO,11,2005-192,SANTARÉM,-8.681170523528149,39.242971270879
pt.ine.add.PTCONT.4396564,TV SURRADORES,11,2000-127,SANTARÉM,-8.682973667725523,39.236540569067124
pt.ine.add.PTCONT.4396565,TV SURRADORES,9,2000-127,SANTARÉM,-8.683042526593834,39.23645917825317
pt.ine.add.PTCONT.4396566,,,2005-046,VALE DE SANTARÉM,-8.761983608391407,39.2061374591097
pt.ine.add.PTCONT.4396567,R MARECOS QTA DO MOTA,20,2005-389,VALE DE SANTARÉM,-8.750676333764796,39.197316717052715
pt.ine.add.PTCONT.4396581,R SOCIEDADE JARDIM DE CIMA,,2005-437,SANTARÉM,-8.682776876284986,39.257330314848524
pt.ine.add.PTCONT.4396582,LG POCO,,2005-274,SANTARÉM,-8.681667979350232,39.257758885105844
pt.ine.add.PTCONT.4396583,R 16 DE ABRIL,52,2005-337,SANTARÉM,-8.692846866169651,39.25320205706867
pt.ine.add.PTCONT.4396584,LG TRABALHADORES,1,2000-716,VALE DE FIGUEIRA STR,-8.627386705695521,39.307028366426984
pt.ine.add.PTCONT.4396589,R CASAIS DA ALAGOA,37,2005-328,SANTARÉM,-8.703529873888547,39.25196126273561
pt.ine.add.PTCONT.4396601,R JOSE RELVAS,21,2005-469,SANTARÉM,-8.69322961988447,39.25908196351618
pt.ine.add.PTCONT.4396602,R ESCOLA REGENTES AGRICOLAS,72,2005-474,SANTARÉM,-8.709829301607028,39.250209849652144
pt.ine.add.PTCONT.4396610,R HEROIS DO ULTRAMAR,,2025-571,TREMÊS,-8.760695120493729,39.35900570593212
pt.ine.add.PTCONT.4396621,R JEAN MONET,30,2005-279,SANTARÉM,-8.682765585237101,39.25291680398659
pt.ine.add.PTCONT.4396622,R FONTE SANTA,,2000-699,SÃO VICENTE DO PAUL,-8.605243196670736,39.37443080876907
pt.ine.add.PTCONT.4396623,R BOAVISTA,,2025-556,TREMÊS,-8.759021593447786,39.35999649151278
pt.ine.add.PTCONT.4396624,R BAIRRO NOVO,16,2005-373,VALE DE SANTARÉM,-8.739852126952206,39.193194180892476
pt.ine.add.PTCONT.4396636,URB QUINTA DAS LARANJEIRAS,,2005-394,SANTARÉM,-8.684627407857226,39.25987962998748
pt.ine.add.PTCONT.4396637,R FLORBELA ESPANCA,28,2005-343,SANTARÉM,-8.69123038380646,39.252426182063694
pt.ine.add.PTCONT.4396638,R ALVES DA CRUZ,,2000-674,SÃO VICENTE DO PAUL,-8.669473185752357,39.36474005749947
pt.ine.add.PTCONT.4396640,R S TIAGO,19,2025-562,TREMÊS,-8.760384693317782,39.3554315640534
pt.ine.add.PTCONT.4396641,BC VINDIMA CAAAL VINDIMA,,2005-289,VALE DE SANTARÉM,-8.742209012435557,39.2007210301333
pt.ine.add.PTCONT.4396642,R AZENHA,20,2005-019,VÁRZEA STR,-8.745198608248616,39.29300282057007
pt.ine.add.PTCONT.4396653,R S SIMAO,,2000-684,SÃO VICENTE DO PAUL,-8.67079939804671,39.3591315130436
pt.ine.add.PTCONT.4396676,R JOÃO PAULO II,85,2005-279,SANTARÉM,-8.681665464678257,39.25297603459386
pt.ine.add.PTCONT.4396677,R CAP SALGUEIRO MAIA,6,2025-510,TREMÊS,-8.715954772904748,39.377045395572445
pt.ine.add.PTCONT.4396678,R PRINCIPAL,,2025-506,TREMÊS,-8.757593680201108,39.34035966940029
pt.ine.add.PTCONT.4396679,R VENCESLAU PINTO,8A,2005-407,VALE DE SANTARÉM,-8.737952096688273,39.19299689097612
pt.ine.add.PTCONT.4396680,R VENCESLAU PINTO,10,2005-407,VALE DE SANTARÉM,-8.737757333981449,39.193232093022225
pt.ine.add.PTCONT.4396681,R VENCESLAU PINTO,10,2005-407,VALE DE SANTARÉM,-8.737757333981449,39.193232093022225
pt.ine.add.PTCONT.4396682,R S MARTINHO,15,2025-601,GANÇARIA,-8.873098896568008,39.40722630202016
pt.ine.add.PTCONT.4396695,R DR RAMOS HORTA,21,2005-282,SANTARÉM,-8.685049600120506,39.25166299764416
pt.ine.add.PTCONT.4396696,EN 3,,2000-005,SANTARÉM,-8.693803050211603,39.24816238957842
pt.ine.add.PTCONT.4396697,R S SIMAO,,2000-694,SÃO VICENTE DO PAUL,-8.665949363697077,39.3499485377008
pt.ine.add.PTCONT.4396698,R AZINHEIRAS,,2025-504,TREMÊS,-8.772829916723547,39.34103352086135
pt.ine.add.PTCONT.4396699,R NORTON DE MATOS,6,2005-426,VALE DE SANTARÉM,-8.729025219832545,39.18860226382422
pt.ine.add.PTCONT.4396706,R CAP SALGUEIRO MAIA,,2025-510,TREMÊS,-8.72200389968613,39.36907069399152
pt.ine.add.PTCONT.4396707,R PROF ILDA AFONSO,18A,2000-749,VALE DE FIGUEIRA STR,-8.623011494844645,39.314730005848716
pt.ine.add.PTCONT.4396716,R JULIO QUEIJEIRO,,2005-283,SANTARÉM,-8.68911855323227,39.25786766829173
pt.ine.add.PTCONT.4396717,R ANJINHO,14,2005-325,SANTARÉM,-8.70269149816537,39.25429824908575
pt.ine.add.PTCONT.4396718,PC PROF EGAS MONIZ,12,2005-194,SANTARÉM,-8.680430713840108,39.2416776994076
pt.ine.add.PTCONT.4396719,PC PROF EGAS MONIZ,12,2005-194,SANTARÉM,-8.680430713840108,39.2416776994076
pt.ine.add.PTCONT.4396720,PC PROF EGAS MONIZ,12,2005-194,SANTARÉM,-8.680430713840108,39.2416776994076
pt.ine.add.PTCONT.4396721,R JOAQUIM MENDES MONTEIRO,,2000-671,SÃO VICENTE DO PAUL,-8.642405124442563,39.34437944770203
pt.ine.add.PTCONT.4396727,R ANTÓNIO SÉRGIO,,2005-466,SANTARÉM,-8.695034318992052,39.25874000074876
pt.ine.add.PTCONT.4396728,R ANTÓNIO SÉRGIO,,2005-466,SANTARÉM,-8.695034318992052,39.25874000074876
pt.ine.add.PTCONT.4396729,R ANJINHO,11,2005-325,SANTARÉM,-8.704306870554944,39.25348869054224
pt.ine.add.PTCONT.4396730,R 5 DE OUTUBRO,,2005-410,VALE DE SANTARÉM,-8.728994237497886,39.187674664005065
pt.ine.add.PTCONT.4396738,R C,8,2005-498,SANTARÉM,-8.690015887492828,39.246811453205964
pt.ine.add.PTCONT.4396739,URB VILA MOCHO,,2005-606,VÁRZEA STR,-8.725604945358157,39.26091235134603
pt.ine.add.PTCONT.4396752,R 1 DE JANEIRO,,2025-510,TREMÊS,-8.713677725276005,39.37395834353499
pt.ine.add.PTCONT.4396753,R AGUA PENEIRA,,2025-505,TREMÊS,-8.739794050205543,39.32892467982349
pt.ine.add.PTCONT.4396754,R DR MANUEL BRANCO,15,2005-388,VALE DE SANTARÉM,-8.735171202794914,39.187237578586284
pt.ine.add.PTCONT.4396755,R COR FONSECA,71,2005-010,VÁRZEA STR,-8.749339796969396,39.277470566884915
pt.ine.add.PTCONT.4396756,R COR FONSECA,89,2005-010,VÁRZEA STR,-8.748883031467988,39.275599481594824
pt.ine.add.PTCONT.4396757,R COR FONSECA,46,2005-010,VÁRZEA STR,-8.749758504209579,39.27896354823606
pt.ine.add.PTCONT.4396758,R COR FONSECA,62,2005-010,VÁRZEA STR,-8.749637704642678,39.277081679534156
pt.ine.add.PTCONT.4396759,R MODERNO,,2005-020,VÁRZEA STR,-8.727714817291245,39.254191192115734
pt.ine.add.PTCONT.4406759,R SOBRAL,,2025-014,ABRÃ,-8.775535904667922,39.46540551078966
pt.ine.add.PTCONT.4397205,R PRINCIPAL,,2005-120,ABITUREIRAS,-8.765978719720959,39.326056096203494
pt.ine.add.PTCONT.4397214,R MALPIQUE,27,2005-387,VALE DE SANTARÉM,-8.745156044308784,39.18814033657639
pt.ine.add.PTCONT.4397218,FRANCISCO ROSA PERPETUO UERRISSIMO,,2000-342,ACHETE,-8.70668246061463,39.32886737094451
pt.ine.add.PTCONT.4397224,R DR SOUSA E SILVA,2,2005-279,SANTARÉM,-8.68271123076596,39.2518902308161
pt.ine.add.PTCONT.4397229,R VALE DAS CALDAS,,2025-173,ALCANEDE,-8.796835916579637,39.40177780170317
pt.ine.add.PTCONT.4397233,AV D AFONSO HENRIQUES,19,2000-179,SANTARÉM,-8.686804021945944,39.23168550083289
pt.ine.add.PTCONT.4397234,R FONTE DO AGASALHO,,2000-700,SÃO VICENTE DO PAUL,-8.627958347127233,39.365113144806365
pt.ine.add.PTCONT.4397236,TV MOINHO VENTO,2 A,2005-392,VALE DE SANTARÉM,-8.735258081038754,39.19199301441063
pt.ine.add.PTCONT.4397241,CSL VALE DOURADO,,2005-442,SANTARÉM,-8.685049648243089,39.26496673252149
pt.ine.add.PTCONT.4397242,R S VICENTE,,2000-700,SÃO VICENTE DO PAUL,-8.623317112091328,39.358503542958914
pt.ine.add.PTCONT.4397246,R SOC JARDIM CIMA,,2005-437,SANTARÉM,-8.685958217006236,39.25967516005758
pt.ine.add.PTCONT.4397247,R D CONSTANCA,,2025-504,TREMÊS,-8.772858003621963,39.339024780049066
pt.ine.add.PTCONT.4397251,ESTR S DOMINGOS,27 C,2005-324,,-8.690581401822671,39.2377654274577
pt.ine.add.PTCONT.4397257,R EIRAS,,2025-117,ALCANEDE,-8.804120572920585,39.41324696015629
pt.ine.add.PTCONT.4397258,R CASAL,,2005-127,ABITUREIRAS,-8.762422452763783,39.300621146930155
pt.ine.add.PTCONT.4397259,R S BENTO,9,2005-192,SANTARÉM,-8.681215243304615,39.24276389269665
pt.ine.add.PTCONT.4397264,R PADRE ANTONIO PEREIRA,4,2005-262,SANTARÉM,-8.695247305778311,39.24478670371746
pt.ine.add.PTCONT.4397268,R ANTÓNIO NUNES,,2000-700,SÃO VICENTE DO PAUL,-8.618724019781022,39.358720956284714
pt.ine.add.PTCONT.4397269,R O CARTEIRO JOÃO VIEIRA,,2000-699,SÃO VICENTE DO PAUL,-8.616849432091408,39.37794995357009
pt.ine.add.PTCONT.4397273,R PALHAGUEIRAS,15,2000-430,ARNEIRO DAS MILHARIÇAS,-8.705947724797834,39.3951272343368
pt.ine.add.PTCONT.4397274,R PADRE ANTONIO PEREIRA,4,2005-262,SANTARÉM,-8.695247305778311,39.24478670371746
pt.ine.add.PTCONT.4397275,R CAP SALGUEIRO MAIA,7,2005-347,SANTARÉM,-8.69320847513302,39.25205639469695
pt.ine.add.PTCONT.4397284,R CASAL DO GRILO,,2000-736,VALE DE FIGUEIRA STR,-8.61460783955915,39.3269968343414
pt.ine.add.PTCONT.4397288,R BRANCA LUCAS,23,2025-311,AMIAIS DE BAIXO,-8.734889382844619,39.4425741599529
pt.ine.add.PTCONT.4397294,R ARNEIROS,4,2025-128,ALCANEDE,-8.803561145690068,39.41181807388583
pt.ine.add.PTCONT.4397297,R ANA DE MACEDO,3,2000-019,SANTARÉM,-8.685972514013914,39.22509780813616
pt.ine.add.PTCONT.4397304,R COMBATENTES DA GRANDE GUERRA,68,2000-378,ALCANHÕES,-8.65818297866825,39.29340974607364
pt.ine.add.PTCONT.4397305,R ANA DE MACEDO,3,2000-019,SANTARÉM,-8.685972514013914,39.22509780813616
pt.ine.add.PTCONT.4397306,CSL CAPUCHOS,,2025-558,TREMÊS,-8.76127277928293,39.36391145075704
pt.ine.add.PTCONT.4397321,R SACADURA CABRAL,44,2025-362,AMIAIS DE BAIXO,-8.736458964166149,39.4413861154084
pt.ine.add.PTCONT.4397322,R PORTO MAU,69,2005-008,VÁRZEA STR,-8.741317086982196,39.26237159071237
pt.ine.add.PTCONT.4397334,R PAULINO DA CUNHA E SILVA,284,2000-369,ALCANHÕES,-8.660262909563514,39.29871460577912
pt.ine.add.PTCONT.4397351,R DAS PAPONAS,58,2005-039,VALE DE SANTARÉM,-8.745857234089058,39.20090906834558
pt.ine.add.PTCONT.4406821,R NOVA,,2005-095,MOÇARRIA,-8.780662218839439,39.28345250897212
pt.ine.add.PTCONT.4397388,ESTR OMNIAS,,2000-478,SANTARÉM,-8.682879546808119,39.215571976088086
pt.ine.add.PTCONT.4397404,ESTR JUNCAL,,2025-452,AZOIA DE CIMA,-8.748307167343029,39.358090078491635
pt.ine.add.PTCONT.4397405,R PAZ,12,2005-099,AZOIA DE BAIXO,-8.705744362169433,39.29773417783463
pt.ine.add.PTCONT.4397406,R ALEXANDRE HERCULANO,30,2005-099,AZOIA DE BAIXO,-8.70598250838554,39.29708448776081
pt.ine.add.PTCONT.4397428,R EUGÉNIA TORRES,,2000-700,SÃO VICENTE DO PAUL,-8.61994202940821,39.360355165301236
pt.ine.add.PTCONT.4397435,R 25 DE ABRIL,,2005-085,PÓVOA DA ISENTA,-8.746557767575915,39.213569683121925
pt.ine.add.PTCONT.4397436,R 25 ABRIL,10,2005-085,PÓVOA DA ISENTA,-8.746557767575915,39.213569683121925
pt.ine.add.PTCONT.4397437,R 25 DE ABRIL,,2005-085,PÓVOA DA ISENTA,-8.746557767575915,39.213569683121925
pt.ine.add.PTCONT.4397438,R CANTO,,2005-119,ABITUREIRAS,-8.79137393034877,39.29981253581107
pt.ine.add.PTCONT.4397439,R CASAL,3,2000-345,ACHETE,-8.68302054946815,39.31665975369892
pt.ine.add.PTCONT.4397459,TV MOINHO VENTO,4,2005-392,VALE DE SANTARÉM,-8.73513383542582,39.192353950610865
pt.ine.add.PTCONT.4397483,R DR RAMOS HORTA,12,2005-282,SANTARÉM,-8.684757871973167,39.25139416147004
pt.ine.add.PTCONT.4397488,R ESCOLA,67,2005-094,MOÇARRIA,-8.76215106947526,39.26381016106665
pt.ine.add.PTCONT.4397508,R S BENTO,9,2005-192,SANTARÉM,-8.681215243304615,39.24276389269665
pt.ine.add.PTCONT.4397509,R S BENTO,9,2005-192,SANTARÉM,-8.681215243304615,39.24276389269665
pt.ine.add.PTCONT.4397510,R NSA SRA DA CONCEIÇÃO,,2005-352,SANTARÉM,-8.692452605709706,39.2487813782058
pt.ine.add.PTCONT.4397511,R NSA SRA DA CONCEIÇÃO,,2005-352,SANTARÉM,-8.692452605709706,39.2487813782058
pt.ine.add.PTCONT.4397512,R NSA SRA DA CONCEIÇÃO,,2005-352,SANTARÉM,-8.692452605709706,39.2487813782058
pt.ine.add.PTCONT.4397513,R NSA SRA DA CONCEIÇÃO,,2005-352,SANTARÉM,-8.692452605709706,39.2487813782058
pt.ine.add.PTCONT.4397514,R NSA SRA DA CONCEIÇÃO,,2005-352,SANTARÉM,-8.692452605709706,39.2487813782058
pt.ine.add.PTCONT.4397515,R NSA SRA DA CONCEIÇÃO,,2005-352,SANTARÉM,-8.692452605709706,39.2487813782058
pt.ine.add.PTCONT.4397516,R NSA SRA DA CONCEIÇÃO,,2005-352,SANTARÉM,-8.692452605709706,39.2487813782058
pt.ine.add.PTCONT.4397517,R NSA SRA DA CONCEIÇÃO,,2005-352,SANTARÉM,-8.692452605709706,39.2487813782058
pt.ine.add.PTCONT.4397518,R NSA SRA DA CONCEIÇÃO,,2005-352,SANTARÉM,-8.692452605709706,39.2487813782058
pt.ine.add.PTCONT.4397519,R NSA SRA DA CONCEIÇÃO,,2005-352,SANTARÉM,-8.692452605709706,39.2487813782058
pt.ine.add.PTCONT.4397520,R FLORBELA ESPANCA,28,2005-343,SANTARÉM,-8.69123038380646,39.252426182063694
pt.ine.add.PTCONT.4397521,R NSA SRA DA CONCEIÇÃO,,2005-352,SANTARÉM,-8.692452605709706,39.2487813782058
pt.ine.add.PTCONT.4397535,R ARROTEIAS,13,2005-095,MOÇARRIA,-8.777598142568433,39.28930617142712
pt.ine.add.PTCONT.4423081,LG PAZ,,2000-495,PERNES,-8.658839510132735,39.385757102093315
pt.ine.add.PTCONT.4407754,R FONTE,,2000-343,ACHETE,-8.695163201272173,39.36326775032937
pt.ine.add.PTCONT.4398442,R ALMEIDA GARRETT,74,2005-359,SANTARÉM,-8.691442403003508,39.23241096600415
pt.ine.add.PTCONT.4398443,R ORQUESTRA TIPICA SCALABITANA,11,2000-010,SANTARÉM,-8.69458219742989,39.22528910530042
pt.ine.add.PTCONT.4398444,R ORIOL DA PENA,,2000-493,PERNES,-8.660728211109017,39.38378500942591
pt.ine.add.PTCONT.4398445,R SABUGUEIROS,29,2000-493,PERNES,-8.660728211109017,39.38378500942591
pt.ine.add.PTCONT.4398446,R PINHAL,,2005-539,PÓVOA DA ISENTA,-8.776343496963642,39.21926377149834
pt.ine.add.PTCONT.4398447,R MOVIMENTO DAS FORÇAS ARMADAS,47,2005-085,PÓVOA DA ISENTA,-8.739743550727626,39.218253141994516
pt.ine.add.PTCONT.4398448,TV FONTINHA,6,2005-085,PÓVOA DA ISENTA,-8.746968852197213,39.212909983481545
pt.ine.add.PTCONT.4398449,R ALFAGEME DE SANTARÉM,5,2000-584,STA IRIA RIBEIRA SANTARÉM,-8.673579339181966,39.237917620460045
pt.ine.add.PTCONT.4398452,R VÁRZEA REDONDA,,2025-011,ABRÃ,-8.782324341581573,39.430619016714026
pt.ine.add.PTCONT.4398453,R D AFONSO HENRIQUES,,2000-494,PERNES,-8.663333413752689,39.389087342812594
pt.ine.add.PTCONT.4398454,R NOVA DOS PINHAIS,46,2005-085,PÓVOA DA ISENTA,-8.751396960030318,39.212174987589336
pt.ine.add.PTCONT.4398455,R LIBERDADE,8,2000-531,PÓVOA DE SANTARÉM,-8.682855398508687,39.30741015343618
pt.ine.add.PTCONT.4398456,PCT AUGUSTO BRÁS RUIVO,3,2005-175,SANTARÉM,-8.693604856431016,39.242182505827216
pt.ine.add.PTCONT.4398457,PCT AUGUSTO BRÁS RUIVO,3,2005-175,SANTARÉM,-8.693604856431016,39.242182505827216
pt.ine.add.PTCONT.4398458,PCT AUGUSTO BRÁS RUIVO,3,2005-175,SANTARÉM,-8.693604856431016,39.242182505827216
pt.ine.add.PTCONT.4398459,PCT AUGUSTO BRÁS RUIVO,3,2005-175,SANTARÉM,-8.693604856431016,39.242182505827216
pt.ine.add.PTCONT.4398460,PCT AUGUSTO BRÁS RUIVO,3,2005-175,SANTARÉM,-8.693604856431016,39.242182505827216
pt.ine.add.PTCONT.4398461,PCT AUGUSTO BRÁS RUIVO,3,2005-175,SANTARÉM,-8.693604856431016,39.242182505827216
pt.ine.add.PTCONT.4398462,PCT AUGUSTO BRÁS RUIVO,3,2005-175,SANTARÉM,-8.693604856431016,39.242182505827216
pt.ine.add.PTCONT.4398465,R SRA DA LUZ,22,2025-157,ALCANEDE,-8.866418510606254,39.43229893707647
pt.ine.add.PTCONT.4398466,R CIDADE DE SANTARÉM,97,2025-143,ALCANEDE,-8.786754491405475,39.35527743728686
pt.ine.add.PTCONT.4398467,R FRANCISCO MARIA LOPES,6,2025-337,AMIAIS DE BAIXO,-8.73310712686813,39.441997914484766
pt.ine.add.PTCONT.4398468,R MILHARIFA,12,2000-430,ARNEIRO DAS MILHARIÇAS,-8.70888590196237,39.39527485803362
pt.ine.add.PTCONT.4398469,TV CAPUCHOS,25,2000-087,SANTARÉM,-8.679627949278897,39.230773624111656
pt.ine.add.PTCONT.4398470,R VASCO DA GAMA,6,2000-232,SANTARÉM,-8.684238431629105,39.232391231094766
pt.ine.add.PTCONT.4398471,R EÇA DE QUEIRÓS,31,2005-076,ROMEIRA,-8.732924617354515,39.30948680224134
pt.ine.add.PTCONT.4398474,R BELA VISTA,,2000-324,ACHETE,-8.698424394982359,39.33599639742244
pt.ine.add.PTCONT.4398475,R PRINCIPAL,,2025-140,ALCANEDE,-8.795321228381937,39.42820393847078
pt.ine.add.PTCONT.4398476,R JAIME COSTA LEIRIA,44,2000-386,ALCANHÕES,-8.65515136492979,39.29101844949672
pt.ine.add.PTCONT.4398477,R FONTE,32,2005-113,ALMOSTER STR,-8.865959129921546,39.24395473825318
pt.ine.add.PTCONT.4398478,R ANGOLA,31,2025-322,AMIAIS DE BAIXO,-8.735285080611956,39.441311136127965
pt.ine.add.PTCONT.4398479,R JOSE JULIO DA SILVA DELGADO,,2005-085,PÓVOA DA ISENTA,-8.747064550189034,39.21725100474813
pt.ine.add.PTCONT.4398480,R 5 DE OUTUBRO,2,2000-531,PÓVOA DE SANTARÉM,-8.681235593959302,39.30486875473956
pt.ine.add.PTCONT.4398481,R FONTE,,2000-531,PÓVOA DE SANTARÉM,-8.680350141476726,39.30580066155777
pt.ine.add.PTCONT.4398482,R OLARIA,,2005-073,SANTARÉM,-8.731078703774184,39.25058907821485
pt.ine.add.PTCONT.4398483,LG COMEND PAULINO CUNHA E SILVA,12,2005-134,SANTARÉM,-8.688750289354081,39.2346936802294
pt.ine.add.PTCONT.4398573,R NOVA,,2025-159,ALCANEDE,-8.817373780199066,39.43864146122745
pt.ine.add.PTCONT.4398488,R AZENHAS,9,2025-157,ALCANEDE,-8.865957077102642,39.431491220743254
pt.ine.add.PTCONT.4398489,BC QUINTAL,6,2025-157,ALCANEDE,-8.873119701713366,39.43115765044569
pt.ine.add.PTCONT.4398490,R PRINCIPAL,14,2025-140,ALCANEDE,-8.79617797623318,39.42669489355154
pt.ine.add.PTCONT.4398491,ESTR LIBERDADE,,2025-140,ALCANEDE,-8.794687183654741,39.42501907767606
pt.ine.add.PTCONT.4398492,R PORTO MOINHO,1,2025-140,ALCANEDE,-8.794687183654741,39.42501907767606
pt.ine.add.PTCONT.4398493,R PORTAS DA VILA,18,2025-050,ALCANEDE,-8.815793211397853,39.4171331117569
pt.ine.add.PTCONT.4398494,R I MAIO,,2005-113,ALMOSTER STR,-8.858220698020617,39.24051737545228
pt.ine.add.PTCONT.4398495,R ALEXANDRE HERCULANO,24,2005-076,ROMEIRA,-8.733251661179187,39.307053179168
pt.ine.add.PTCONT.4398496,R 5 DE OUTUBRO,52,2005-076,ROMEIRA,-8.738464417615155,39.30787286482565
pt.ine.add.PTCONT.4398497,R ANTÓNIO HENRIQUES BEJA,,2005-487,SANTARÉM,-8.697668722343666,39.27661565787261
pt.ine.add.PTCONT.4398500,R GEN NORTON DE MATOS,19,2000-345,ACHETE,-8.68532975445845,39.31687400182444
pt.ine.add.PTCONT.4398501,R GEN HUMBERTO DELGADO,,2000-345,ACHETE,-8.68500070164993,39.31631711722416
pt.ine.add.PTCONT.4398502,AV FÉLIX SILVA FIGUEIREDO,35,2000-351,ALCANHÕES,-8.660517333687247,39.29554291355405
pt.ine.add.PTCONT.4398503,R OUTEIRINHO,15,2025-328,AMIAIS DE BAIXO,-8.736915914768204,39.4431851379784
pt.ine.add.PTCONT.4398504,CSL AZINHEIRAS,,2000-455,CASÉVEL STR,-8.598910296955927,39.387183368474595
pt.ine.add.PTCONT.4398505,R TEN VALADIM,20 22 2,2000-081,SANTARÉM,-8.68069204167288,39.23208369397587
pt.ine.add.PTCONT.4398506,R CARLOS THERIAGA JUNIOR,,2000-495,PERNES,-8.658445019943551,39.38577689800784
pt.ine.add.PTCONT.4398507,R CASTELINO,20,2000-698,PERNES,-8.662692264989674,39.37797552333761
pt.ine.add.PTCONT.4398508,R OUTEIRO DA EVA,5A,2005-085,PÓVOA DA ISENTA,-8.746912038299826,39.21569354340627
pt.ine.add.PTCONT.4398509,LG PALHAES,5,2000-577,STA IRIA RIBEIRA SANTARÉM,-8.674611659524837,39.2396152056339
pt.ine.add.PTCONT.4398510,ESTR S DOMINGOS,,2005-324,,-8.707844663709398,39.239825257648796
pt.ine.add.PTCONT.4398511,R 1 DE JANEIRO,10 A,2005-443,SANTARÉM,-8.697261573699707,39.26486317602174
pt.ine.add.PTCONT.4398517,R DR CARLOS NUNES FERREIRA,,2025-012,ABRÃ,-8.766370013865027,39.44387515504452
pt.ine.add.PTCONT.4398519,TV OUTEIRO,,2000-345,ACHETE,-8.687094669903747,39.314235519717734
pt.ine.add.PTCONT.4398520,R FERREIROS,26,2025-317,AMIAIS DE BAIXO,-8.732838592900515,39.444548271663464
pt.ine.add.PTCONT.4398521,R URGEIRICA,,2000-429,ARNEIRO DAS MILHARIÇAS,-8.712613410291747,39.392608278716054
pt.ine.add.PTCONT.4398522,R ALEXANDRE HERCULANO,68,2000-430,ARNEIRO DAS MILHARIÇAS,-8.708824441757193,39.393446730659974
pt.ine.add.PTCONT.4398523,CSL BEMPOSTA,,2000-451,CASÉVEL STR,-8.592460920589316,39.38960489512517
pt.ine.add.PTCONT.4398524,R PEDRO DE SANTARÉM,74,2000-223,SANTARÉM,-8.686234636421236,39.23144500872029
pt.ine.add.PTCONT.4398525,R PEDRO DE SANTARÉM,74,2000-223,SANTARÉM,-8.686234636421236,39.23144500872029
pt.ine.add.PTCONT.4398526,R PEDRO DE SANTARÉM,74,2000-223,SANTARÉM,-8.686234636421236,39.23144500872029
pt.ine.add.PTCONT.4398527,R PEDRO DE SANTARÉM,74,2000-223,SANTARÉM,-8.686234636421236,39.23144500872029
pt.ine.add.PTCONT.4398528,R DIREITA PALHAIS,5,2000-592,STA IRIA RIBEIRA SANTARÉM,-8.674228910929454,39.23804070671785
pt.ine.add.PTCONT.4398531,EN 362,80,2025-201,ALCANEDE,-8.858375772132907,39.47208785465691
pt.ine.add.PTCONT.4398532,R TANCHOES,16,2025-092,ALCANEDE,-8.803160718375777,39.38696102687988
pt.ine.add.PTCONT.4398533,R GAGO COUTINHO,43,2025-339,AMIAIS DE BAIXO,-8.739098159980687,39.442993649304796
pt.ine.add.PTCONT.4398534,R EGAS MONIZ,10 A,2000-429,ARNEIRO DAS MILHARIÇAS,-8.709745429006151,39.39251444329296
pt.ine.add.PTCONT.4398535,R PINHEIRO MANSO,5,2000-429,ARNEIRO DAS MILHARIÇAS,-8.711222721500668,39.39288540862388
pt.ine.add.PTCONT.4398536,R 2 VISC DE SANTARÉM,117,2005-365,SANTARÉM,-8.691678254193993,39.23148208264356
pt.ine.add.PTCONT.4398537,ESTR PRINCIPAL,,2000-491,PERNES,-8.686643584933133,39.380548162144294
pt.ine.add.PTCONT.4398538,R HENRIQUE DIAS VIGÁRIO,12,2000-600,STA IRIA RIBEIRA SANTARÉM,-8.673524883377755,39.23836823826891
pt.ine.add.PTCONT.4398545,R CORREIO,8,2025-041,ALCANEDE,-8.821201605184223,39.41566012973524
pt.ine.add.PTCONT.4398546,R STA IRENE,301,2025-151,ALCANEDE,-8.83485917519081,39.38457645084416
pt.ine.add.PTCONT.4398547,EN 365,,2000-547,STA IRIA RIBEIRA SANTARÉM,-8.667323398745047,39.2606448456908
pt.ine.add.PTCONT.4398552,ESTR CASAIS DE ESPANHA,,2000-342,ACHETE,-8.71202511094321,39.33543415314782
pt.ine.add.PTCONT.4398553,R PRINCIPAL,44,2025-201,ALCANEDE,-8.859848869195135,39.46623318970388
pt.ine.add.PTCONT.4398554,R CASAL,,2025-156,ALCANEDE,-8.783686309005882,39.40971519627859
pt.ine.add.PTCONT.4398555,R COMÉRCIO,13,2025-040,ALCANEDE,-8.821730936799973,39.41517062055604
pt.ine.add.PTCONT.4398556,R JOSE ANTUNES CLAUDINO,41,2000-388,ALCANHÕES,-8.665038150444927,39.30165625843189
pt.ine.add.PTCONT.4398557,R 10 DE JUNHO,,2005-107,ALMOSTER STR,-8.778175662782806,39.25369744371247
pt.ine.add.PTCONT.4398558,R DR ANTÓNIO MARIA GALHORDAS,105,2025-333,AMIAIS DE BAIXO,-8.730858366579538,39.44391897083397
pt.ine.add.PTCONT.4398559,CSL LUIS CORREIA,,2000-460,CASÉVEL STR,-8.593171920187523,39.39888838990218
pt.ine.add.PTCONT.4398560,URB OLIVAL ARAME,2,2005-242,SANTARÉM,-8.696013062041402,39.23769426722068
pt.ine.add.PTCONT.4398561,R ACTRIZ ALDA RODRIGUES,2,2005-542,SANTARÉM,-8.696013062041402,39.23769426722068
pt.ine.add.PTCONT.4398562,R ACTRIZ ALDA RODRIGUES,2,2005-542,SANTARÉM,-8.696013062041402,39.23769426722068
pt.ine.add.PTCONT.4398563,URB OLIVAL ARAME,LOTE,2005-242,SANTARÉM,-8.696013062041402,39.23769426722068
pt.ine.add.PTCONT.4398564,R ACTRIZ ALDA RODRIGUES,2,2005-542,SANTARÉM,-8.696013062041402,39.23769426722068
pt.ine.add.PTCONT.4398565,R ACTRIZ ALDA RODRIGUES,2,2005-542,SANTARÉM,-8.696013062041402,39.23769426722068
pt.ine.add.PTCONT.4398566,R ACTRIZ ALDA RODRIGUES,2,2005-542,SANTARÉM,-8.696013062041402,39.23769426722068
pt.ine.add.PTCONT.4398567,R ACTRIZ ALDA RODRIGUES,2,2005-542,SANTARÉM,-8.696013062041402,39.23769426722068
pt.ine.add.PTCONT.4398568,R FR LUIS DE SOUSA,4 C,2005-137,SANTARÉM,-8.690799037883059,39.23745813746141
pt.ine.add.PTCONT.4398569,R FR LUIS DE SOUSA,4 C,2005-137,SANTARÉM,-8.690799037883059,39.23745813746141
pt.ine.add.PTCONT.4398574,R VALE DAS CALDAS,,2025-173,ALCANEDE,-8.79989477076653,39.40113882701982
pt.ine.add.PTCONT.4398575,R STA CLARA,,2005-114,ALMOSTER STR,-8.782788408770891,39.25013195514324
pt.ine.add.PTCONT.4398576,R COMÉRCIO,112,2005-095,MOÇARRIA,-8.776190575616889,39.28368445747786
pt.ine.add.PTCONT.4398577,R GEN HUMBERTO DELGADO,48,2005-154,SANTARÉM,-8.694558859773272,39.23544045412106
pt.ine.add.PTCONT.4398578,R GEN HUMBERTO DELGADO,48,2005-154,SANTARÉM,-8.694558859773272,39.23544045412106
pt.ine.add.PTCONT.4398583,R NSA SRA DA BOA VIAGEM,5,2025-158,ALCANEDE,-8.844286047683102,39.425942352313385
pt.ine.add.PTCONT.4398584,R FRANCISCA PARTEIRA,5,2025-158,ALCANEDE,-8.843033592653283,39.42612113512288
pt.ine.add.PTCONT.4398585,CSL CHEIRA,,2025-175,ALCANEDE,-8.823446241693123,39.40895464107757
pt.ine.add.PTCONT.4398586,R SAUDADE,16,2025-037,ALCANEDE,-8.822306876411403,39.41351893204755
pt.ine.add.PTCONT.4398587,R SAUDADE,16,2025-037,ALCANEDE,-8.822306876411403,39.41351893204755
pt.ine.add.PTCONT.4398588,R MAJOR AREOSA FEIO,15,2000-391,ALCANHÕES,-8.660196572907283,39.29759801154672
pt.ine.add.PTCONT.4398589,R ESCOLAS NOVAS,21,2000-433,ARNEIRO DAS MILHARIÇAS,-8.709967577119198,39.40257421306744
pt.ine.add.PTCONT.4398590,R COMBATENTES DA GRANDE GUERRA,34,2000-433,ARNEIRO DAS MILHARIÇAS,-8.70893603320806,39.401372379836296
pt.ine.add.PTCONT.4398591,AV ANTÓNIO SANTOS,,2000-074,SANTARÉM,-8.681078517694914,39.23114511618097
pt.ine.add.PTCONT.4398592,AV ANTÓNIO SANTOS,,2000-074,SANTARÉM,-8.681078517694914,39.23114511618097
pt.ine.add.PTCONT.4398593,AV ANTÓNIO SANTOS,,2000-074,SANTARÉM,-8.681078517694914,39.23114511618097
pt.ine.add.PTCONT.4398594,R 1 DE MAIO,8,2005-312,SANTARÉM,-8.703093775411608,39.2453160271215
pt.ine.add.PTCONT.4398595,R ALEGRIA,36,2005-321,SANTARÉM,-8.704672028706693,39.242813274939905
pt.ine.add.PTCONT.4398599,R VILA POÇO ESCADA,,2005-121,ABITUREIRAS,-8.783931432804362,39.32484922679512
pt.ine.add.PTCONT.4398600,R TERRA DA ANTONIA,5,2025-161,ALCANEDE,-8.8339850479865,39.451467496884845
pt.ine.add.PTCONT.4398601,R NOVA,8,2025-354,AMIAIS DE BAIXO,-8.735916442594807,39.441785235117976
pt.ine.add.PTCONT.4398602,CSL CRUZ CABECA GORDA SN,SN,2000-451,CASÉVEL STR,-8.637744834957175,39.41088113915983
pt.ine.add.PTCONT.4398603,AV ANTÓNIO SANTOS,,2000-074,SANTARÉM,-8.681078517694914,39.23114511618097
pt.ine.add.PTCONT.4398604,AV ANTÓNIO SANTOS,,2000-074,SANTARÉM,-8.681078517694914,39.23114511618097
pt.ine.add.PTCONT.4398605,AV ANTÓNIO SANTOS,,2000-074,SANTARÉM,-8.681078517694914,39.23114511618097
pt.ine.add.PTCONT.4398606,QTA BELA VISTA,,2000-478,SANTARÉM,-8.68193626470085,39.219341488689864
pt.ine.add.PTCONT.4398607,AV 25 DE ABRIL,36,2005-159,SANTARÉM,-8.69157870734034,39.23499540880462
pt.ine.add.PTCONT.4398614,R HORTAS,,2025-011,ABRÃ,-8.774553085759928,39.42161912178581
pt.ine.add.PTCONT.4398615,R ESTAFETA,31,2025-175,ALCANEDE,-8.837099381606377,39.40653100502139
pt.ine.add.PTCONT.4398616,R FONTE STA MARIA,42,2005-109,ALMOSTER STR,-8.806927657654736,39.228026096269716
pt.ine.add.PTCONT.4398618,TV RAIMUNDO,10,2025-242,ALCANEDE,-8.861698280320788,39.46751860904852
pt.ine.add.PTCONT.4398619,R JOAQUIM FRANCISCO PEDREIRO,20,2025-395,AMIAIS DE BAIXO,-8.729429505621793,39.44391729845564
pt.ine.add.PTCONT.4398620,R JOSE BATISTA AMADO,6,2025-344,AMIAIS DE BAIXO,-8.732780309614414,39.443170506053086
pt.ine.add.PTCONT.4398621,R JOSE BATISTA AMADO,8,2025-344,AMIAIS DE BAIXO,-8.732780309614414,39.443170506053086
pt.ine.add.PTCONT.4398622,R SOBREIROS,24,2000-433,ARNEIRO DAS MILHARIÇAS,-8.710682195962852,39.39912997783172
pt.ine.add.PTCONT.4398623,R LOPO DE SOUSA COUTINHO,15,2005-363,SANTARÉM,-8.688135128991311,39.2330572836892
pt.ine.add.PTCONT.4398624,R LOPO DE SOUSA COUTINHO,15,2005-363,SANTARÉM,-8.688135128991311,39.2330572836892
pt.ine.add.PTCONT.4398625,R LOPO DE SOUSA COUTINHO,15,2005-363,SANTARÉM,-8.688135128991311,39.2330572836892
pt.ine.add.PTCONT.4398626,R LOPO DE SOUSA COUTINHO,15,2005-363,SANTARÉM,-8.688135128991311,39.2330572836892
pt.ine.add.PTCONT.4398627,R LOPO DE SOUSA COUTINHO,15,2005-363,SANTARÉM,-8.688135128991311,39.2330572836892
pt.ine.add.PTCONT.4398628,R ALMEIDA GARRETT,38,2005-359,SANTARÉM,-8.689927535920786,39.232706451360706
pt.ine.add.PTCONT.4398629,R ALMEIDA GARRETT,38,2005-359,SANTARÉM,-8.689927535920786,39.232706451360706
pt.ine.add.PTCONT.4398630,ESTR POÇO DO RETO,,2000-473,SANTARÉM,-8.695893626279666,39.22854342397337
pt.ine.add.PTCONT.4398631,R 1 DE DEZEMBRO,88,2150-088,POMBALINHO GLG,-8.55274845700047,39.340702021138554
pt.ine.add.PTCONT.4398633,R CASAL,,2000-345,ACHETE,-8.683288790050614,39.31685664418668
pt.ine.add.PTCONT.4398634,R MOINHO FAU,,2000-210,SANTARÉM,-8.695033567707272,39.222350543055356
pt.ine.add.PTCONT.4398635,R COMEND ANTÓNIO DA SILVA NOBRE,2,2000-493,PERNES,-8.66182423161457,39.38444655842942
pt.ine.add.PTCONT.4398636,R 1 DE DEZEMBRO,43,2150-088,POMBALINHO GLG,-8.551995682094189,39.34090289061922
pt.ine.add.PTCONT.4398637,R 1 DE DEZEMBRO,27 27A,2150-088,POMBALINHO GLG,-8.551498734346834,39.34121092202013
pt.ine.add.PTCONT.4398638,AV COMBATENTES,2 PAT 50,2005-150,SANTARÉM,-8.689503508874214,39.2332759378822
pt.ine.add.PTCONT.4398641,LG LAGARTOS,4,2025-011,ABRÃ,-8.772216911260525,39.41758784091772
pt.ine.add.PTCONT.4398642,R PAULINO DA CUNHA E SILVA,90,2000-369,ALCANHÕES,-8.657243634452106,39.29490917726562
pt.ine.add.PTCONT.4398643,QTA GONÇALO EANES,,2005-111,ALMOSTER STR,-8.78885410041311,39.23221854955859
pt.ine.add.PTCONT.4398644,R DR ANTÓNIO MARIA GALHORDAS,165,2025-333,AMIAIS DE BAIXO,-8.73271130870431,39.44325192451102
pt.ine.add.PTCONT.4398645,R FUROS,,2025-453,AZOIA DE CIMA,-8.749373368619882,39.36191245125251
pt.ine.add.PTCONT.4398652,R TORRE,,2025-500,TREMÊS,-8.75716055389902,39.32686931281597
pt.ine.add.PTCONT.4398653,R RIO CADIMA,4,2005-430,VALE DE SANTARÉM,-8.726524966024664,39.19133524731424
pt.ine.add.PTCONT.4398654,BC SOBREIROS,1,2005-020,VÁRZEA STR,-8.735063865117516,39.254657845128804
pt.ine.add.PTCONT.4398667,R 8 DE DEZEMBRO,,2025-503,TREMÊS,-8.744338552640881,39.3713333920379
pt.ine.add.PTCONT.4398668,R DR VITOR HUGO C G SEMEDO,,2000-741,VALE DE FIGUEIRA STR,-8.627576134152443,39.30758600900232
pt.ine.add.PTCONT.4398669,CASA VALE DA ROSA,,2005-378,VALE DE SANTARÉM,-8.758286613281857,39.20048274012529
pt.ine.add.PTCONT.4398670,R ZAMBUJEIRO,63,2005-034,VALE DE SANTARÉM,-8.730790744295179,39.19070094261775
pt.ine.add.PTCONT.4398671,R ERMIDA,10,2000-791,VAQUEIROS STR,-8.651112262485759,39.412848971248884
pt.ine.add.PTCONT.4398672,R MODERNO,98,2005-020,VÁRZEA STR,-8.728669040742371,39.25195251521443
pt.ine.add.PTCONT.4398682,QTA S PEDRO,26,2005-351,SANTARÉM,-8.694310053136949,39.253636371897635
pt.ine.add.PTCONT.4398683,QTA S PEDRO,26,2005-351,SANTARÉM,-8.694310053136949,39.253636371897635
pt.ine.add.PTCONT.4398684,QTA S PEDRO,26,2005-351,SANTARÉM,-8.694310053136949,39.253636371897635
pt.ine.add.PTCONT.4398685,QTA S PEDRO,26,2005-351,SANTARÉM,-8.694310053136949,39.253636371897635
pt.ine.add.PTCONT.4398686,QTA S PEDRO,26,2005-351,SANTARÉM,-8.694310053136949,39.253636371897635
pt.ine.add.PTCONT.4398687,QTA S PEDRO,26,2005-351,SANTARÉM,-8.694310053136949,39.253636371897635
pt.ine.add.PTCONT.4398688,R TOJOSA,,2000-686,SÃO VICENTE DO PAUL,-8.633946442810194,39.34245259474592
pt.ine.add.PTCONT.4398689,R AMENDOEIRA,10,2005-008,VÁRZEA STR,-8.741553256587947,39.26958515490528
pt.ine.add.PTCONT.4398690,CANTO DA TAIPA,6,2005-008,VÁRZEA STR,-8.742111882971276,39.26718631036733
pt.ine.add.PTCONT.4398691,CANTO DA TAIPA,22,2005-008,VÁRZEA STR,-8.742877553253084,39.26729039042432
pt.ine.add.PTCONT.4398701,,,2000-691,SÃO VICENTE DO PAUL,-8.650916516257565,39.37381319935701
pt.ine.add.PTCONT.4398702,BC VIEIRAS,,2025-503,TREMÊS,-8.746983510787942,39.36858131757319
pt.ine.add.PTCONT.4398703,R FLORES,26,2000-731,VALE DE FIGUEIRA STR,-8.62777321793139,39.30593685230127
pt.ine.add.PTCONT.4398704,ESTR FONTE DAS HORTAS,,2000-791,VAQUEIROS STR,-8.655526975694695,39.406938623521306
pt.ine.add.PTCONT.4398705,ESTR CABECA GORDA,,2000-792,VAQUEIROS STR,-8.642854541329594,39.39982522102384
