id,street,house,postcode,city,lon,lat
pt.ine.add.PTCONT.1122970,,,3130-533,SOURE,-8.668212766515813,40.02511882780765
pt.ine.add.PTCONT.1100101,R EVANGELISTA PEREIRA,,3130-061,GESTEIRA,-8.666256154387066,40.095762194674634
pt.ine.add.PTCONT.1100102,R OUTEIRO,,3130-061,GESTEIRA,-8.666757172306097,40.09684961126111
pt.ine.add.PTCONT.1100103,R S BRÁS,,3130-080,GRANJA DO ULMEIRO,-8.61918728014107,40.16197383085266
pt.ine.add.PTCONT.1100104,R ALEGRIA,,3130-080,GRANJA DO ULMEIRO,-8.613230627943164,40.161206165378616
pt.ine.add.PTCONT.1100105,TV ARCO,4,3130-553,SOURE,-8.62645250146371,40.05797818431086
pt.ine.add.PTCONT.1100106,,,3130-386,SOURE,-8.546340379827978,40.037928864359884
pt.ine.add.PTCONT.1100107,R DR EVARISANTO CARVALHO FILHO,K,3130-240,SOURE,-8.63063965349245,40.05678048633953
pt.ine.add.PTCONT.1100223,R S JOAO,21,3130-080,GRANJA DO ULMEIRO,-8.633068660040678,40.15651118855572
pt.ine.add.PTCONT.1100224,,,3130-080,GRANJA DO ULMEIRO,-8.629309030948209,40.14632367024996
pt.ine.add.PTCONT.1100225,R HEROIS 25 DE ABRIL,,3130-243,SOURE,-8.640090928535693,40.05269579669428
pt.ine.add.PTCONT.1100226,R FERREIROS,14,3130-236,SOURE,-8.627193003270872,40.05827222840285
pt.ine.add.PTCONT.1100227,,,3130-520,SOURE,-8.57989296845892,40.0336435328283
pt.ine.add.PTCONT.1100228,R LARGO DA CAPELA NOVA,,3130-520,SOURE,-8.58061999792035,40.0337397943923
pt.ine.add.PTCONT.1100229,R STA LUZIA,,3130-513,SOURE,-8.646019988716102,40.04006121138065
pt.ine.add.PTCONT.1100336,R MARECHAL GOMES DA COSTA,,3130-092,POMBALINHO SRE,-8.486735622037246,40.00597419953775
pt.ine.add.PTCONT.1100337,R CASAL DE CIMA,,3130-095,POMBALINHO SRE,-8.489928658217902,39.99167162073915
pt.ine.add.PTCONT.1100338,R PRINCIPAL,,3130-090,POMBALINHO SRE,-8.54418633106253,39.96989504657712
pt.ine.add.PTCONT.1100339,R S JORGE,,3130-098,POMBALINHO SRE,-8.537419425023408,39.955770078769085
pt.ine.add.PTCONT.1100340,R ROSSIO DE BAIXO,6,3130-128,SAMUEL,-8.720597057087492,40.107936556221446
pt.ine.add.PTCONT.1100341,R AREIAS,,3130-502,SOURE,-8.634323338037829,40.00605131718736
pt.ine.add.PTCONT.1100342,R ALEGRIA,,3130-515,SOURE,-8.631387967916785,40.00179506778826
pt.ine.add.PTCONT.1100343,R S CRISTÓVÃO,,3130-546,SOURE,-8.628479426937888,40.01254284151849
pt.ine.add.PTCONT.1100344,R SANCHEGUEIRA,,3130-585,SOURE,-8.652018582902254,40.035342337144996
pt.ine.add.PTCONT.1100345,R PALHEIRINHOS,,3130-548,SOURE,-8.645923583746642,40.03188411750939
pt.ine.add.PTCONT.1100346,R CAPELA,,3130-585,SOURE,-8.649603349417532,40.033569923913795
pt.ine.add.PTCONT.1137670,,,3130-565,SOURE,-8.614068334950113,40.086903591971286
pt.ine.add.PTCONT.1100454,R FONTE,17,3130-112,SAMUEL,-8.730532673859038,40.08394787840531
pt.ine.add.PTCONT.1100455,R RELVEIRO,,3130-548,SOURE,-8.649055760471896,40.02931248466992
pt.ine.add.PTCONT.1100456,TV BAILARICO,,3130-387,TAPÉUS,-8.539082924850781,40.0371349638961
pt.ine.add.PTCONT.1100457,R 25 ABRIL,15,3130-400,VILA NOVA DE ANÇOS,-8.634645082581306,40.110718215048074
pt.ine.add.PTCONT.1100458,R FORNOS,42,3130-400,VILA NOVA DE ANÇOS,-8.635741903553756,40.10993894714163
pt.ine.add.PTCONT.1100459,R STA MARIA,62,3130-400,VILA NOVA DE ANÇOS,-8.636538600371209,40.109818409385326
pt.ine.add.PTCONT.1100568,R JOGO DA BOLA,10,3130-001,ALFARELOS,-8.654997761973167,40.15024472723697
pt.ine.add.PTCONT.1100569,R LIBERDADE,,3130-001,ALFARELOS,-8.659729539463985,40.151169583771974
pt.ine.add.PTCONT.1100570,R BOA UNIAO,,3130-588,SOURE,-8.597930598525654,40.11047511609776
pt.ine.add.PTCONT.1100571,R 17 DE DEZEMBRO,,3130-541,SOURE,-8.608909265309938,40.10206398034068
pt.ine.add.PTCONT.1100572,R S MARIA,16,3130-400,VILA NOVA DE ANÇOS,-8.635777084751416,40.10834473791582
pt.ine.add.PTCONT.1100573,R SRA DA PIEDADE,3,3130-400,VILA NOVA DE ANÇOS,-8.637828914942023,40.108245755151145
pt.ine.add.PTCONT.1100574,R FONTE,,3130-401,VILA NOVA DE ANÇOS,-8.5941251078444,40.12186486322727
pt.ine.add.PTCONT.1100575,R DQ DE CADAVAL,50,3130-400,VILA NOVA DE ANÇOS,-8.633766385301886,40.11405422361528
pt.ine.add.PTCONT.1100576,R 25 DE ABRIL,14,3130-400,VILA NOVA DE ANÇOS,-8.63464329659711,40.110475061667614
pt.ine.add.PTCONT.1100654,AZ QUINTAIS,,3130-001,ALFARELOS,-8.65283824281049,40.14935451005955
pt.ine.add.PTCONT.1100655,R PRINCIPAL,,3130-010,BRUNHÓS,-8.669172470635296,40.11173433031177
pt.ine.add.PTCONT.1100656,R PRINCIPAL,,3130-010,BRUNHÓS,-8.669049883528023,40.1125544396607
pt.ine.add.PTCONT.1100657,R PASSADOURO,,3130-022,DEGRACIAS,-8.52103970586412,40.008278100356705
pt.ine.add.PTCONT.1100658,R MOUROS,,3130-022,DEGRACIAS,-8.52225576776056,40.00793178974022
pt.ine.add.PTCONT.1100659,R SEM NOME,,3130-020,DEGRACIAS,-8.531953086415754,40.00591746939067
pt.ine.add.PTCONT.1100660,R PRINCIPAL,4,3130-043,FIGUEIRÓ DO CAMPO,-8.606129200878303,40.161217382501846
pt.ine.add.PTCONT.1100661,,,3130-503,SOURE,-8.60904644618717,40.09145435518052
pt.ine.add.PTCONT.1100662,R PRINCIPAL,,3130-514,SOURE,-8.624121268625698,40.090779027346116
pt.ine.add.PTCONT.1100663,R 10 DE MARCO,8,3130-400,VILA NOVA DE ANÇOS,-8.634082919423086,40.1092346632298
pt.ine.add.PTCONT.1100664,R TERREIRO,31,3130-434,VINHA DA RAINHA,-8.726728506817826,40.07252982402847
pt.ine.add.PTCONT.1100665,R TERREIRO,5,3130-434,VINHA DA RAINHA,-8.730562381069895,40.072591169052465
pt.ine.add.PTCONT.1100666,R VALE PEREIRO,1,3130-424,VINHA DA RAINHA,-8.724509322988666,40.05449311695101
pt.ine.add.PTCONT.1100732,R RIGUEIRINHO,1,3130-040,FIGUEIRÓ DO CAMPO,-8.580301760859792,40.148117348074045
pt.ine.add.PTCONT.1100733,,,3130-526,SOURE,-8.619914328030532,40.08786082656175
pt.ine.add.PTCONT.1100734,R PRINCIPAL,,3130-572,SOURE,-8.584839475607469,40.08014066321382
pt.ine.add.PTCONT.1100735,R PRINCIPAL,,3130-500,SOURE,-8.589491895851237,40.07280953100219
pt.ine.add.PTCONT.1100736,R DIANA COELHO,,3130-500,SOURE,-8.589220415247793,40.07253141306026
pt.ine.add.PTCONT.1100737,,,3130-544,SOURE,-8.602043441348485,40.063735351788345
pt.ine.add.PTCONT.1100738,R 24 DE JUNHO,51,3130-426,VINHA DA RAINHA,-8.707032808340147,40.05279781228715
pt.ine.add.PTCONT.1100739,R 24 DE JUNHO,59,3130-426,VINHA DA RAINHA,-8.70639915842291,40.05270188297552
pt.ine.add.PTCONT.1100740,R FORNOS,1,3130-423,VINHA DA RAINHA,-8.692217241320572,40.04678216769799
pt.ine.add.PTCONT.1100741,R ESTAQUAL,7,3130-420,VINHA DA RAINHA,-8.713831869478701,40.05025124836608
pt.ine.add.PTCONT.1100842,R PRINCIPAL,,3130-063,GESTEIRA,-8.65614363568134,40.079912714126195
pt.ine.add.PTCONT.1100843,LG ENG LUIS DELGADO SANTOS,,3130-539,SOURE,-8.598077490312575,40.047603469940405
pt.ine.add.PTCONT.1100844,ESTR PRINCIPAL,,3130-511,SOURE,-8.616416501193404,40.04753742985459
pt.ine.add.PTCONT.1100845,,,3130-511,SOURE,-8.611233832677872,40.043740357382546
pt.ine.add.PTCONT.1100846,ESTR RUSSA,,3130-511,SOURE,-8.60992418894196,40.03908961081355
pt.ine.add.PTCONT.1100913,AV BOMBEIROS VOLUNTARIOS,5,3130-202,SOURE,-8.62160870031218,40.064077790579475
pt.ine.add.PTCONT.1101586,PC DR DELFIM PINHEIRO,,3130-022,DEGRACIAS,-8.521869031861394,40.00788805692502
pt.ine.add.PTCONT.1101626,R PRINCIPAL,,3130-544,SOURE,-8.60486185503574,40.06280529275778
pt.ine.add.PTCONT.1101674,R STA CRUZ,53,3130-118,SAMUEL,-8.699482294338885,40.073638883810894
pt.ine.add.PTCONT.1101695,R OUTEIRINHO,11,3130-422,VINHA DA RAINHA,-8.708915585328219,40.062064681781
pt.ine.add.PTCONT.1101703,R ESTRADA LARGA,42,3130-080,GRANJA DO ULMEIRO,-8.63466531587622,40.15975541108142
pt.ine.add.PTCONT.1101705,R MO E FREIXO,31,3130-040,FIGUEIRÓ DO CAMPO,-8.577466056046875,40.14698451235348
pt.ine.add.PTCONT.1101736,ESTR PRINCIPAL,,3130-511,SOURE,-8.613936895442459,40.04487294321001
pt.ine.add.PTCONT.1101772,R CAPELA,21,3130-116,SAMUEL,-8.696536947855126,40.10883961604008
pt.ine.add.PTCONT.1101773,R VALE DE CARVALHO,3,3130-116,SAMUEL,-8.691569779148303,40.10526128951266
pt.ine.add.PTCONT.1101783,R S JOSÉ PINHEIRO,,3130-200,SOURE,-8.618649088209558,40.06160456369611
pt.ine.add.PTCONT.1101784,R S JOSÉ PINHEIRO,,3130-200,SOURE,-8.618649088209558,40.06160456369611
pt.ine.add.PTCONT.1101785,R S JOSÉ PINHEIRO,,3130-200,SOURE,-8.618649088209558,40.06160456369611
pt.ine.add.PTCONT.1101786,R S JOSÉ PINHEIRO,,3130-200,SOURE,-8.618649088209558,40.06160456369611
pt.ine.add.PTCONT.1130526,,,3130-386,SOURE,-8.55689375893774,40.0373593878607
pt.ine.add.PTCONT.1103492,R SOURE,41,3130-001,ALFARELOS,-8.646025239685194,40.14853833380584
pt.ine.add.PTCONT.1103493,R JOSE GOMES DUARTE RIBEIRO,,3130-061,GESTEIRA,-8.667311839763878,40.097297353500494
pt.ine.add.PTCONT.1103494,R BAIRRO NOVO,,3130-541,SOURE,-8.604808185679348,40.0991988376718
pt.ine.add.PTCONT.1103495,,,3130-512,SOURE,-8.600313775660474,40.09021105367566
pt.ine.add.PTCONT.1103496,ESTR PRINCIPAL,,3130-511,SOURE,-8.612983025519677,40.044201442097254
pt.ine.add.PTCONT.1103497,,,3130-511,SOURE,-8.61063818717535,40.04402200212604
pt.ine.add.PTCONT.1103498,R PRINCIPAL,,3130-010,BRUNHÓS,-8.669845038093069,40.115225525632475
pt.ine.add.PTCONT.1103499,R ALAGOAS,21,3130-040,FIGUEIRÓ DO CAMPO,-8.57906925599951,40.14628489304768
pt.ine.add.PTCONT.1103500,R FONTER GABRIELOS,,3130-080,GRANJA DO ULMEIRO,-8.627820618468284,40.157920637742464
pt.ine.add.PTCONT.1103501,R CENTRO,,3130-567,SOURE,-8.5848186477778,40.08408538230983
pt.ine.add.PTCONT.1103502,,,3130-119,SAMUEL,-8.710267961435566,40.087589971381874
pt.ine.add.PTCONT.1103503,R PRINCIPAL,,3130-572,SOURE,-8.584615469258445,40.08172659681242
pt.ine.add.PTCONT.1103504,R PRINCIPAL,,3130-544,SOURE,-8.602383534423671,40.063760992857155
pt.ine.add.PTCONT.1103505,,,3130-511,SOURE,-8.614597579286087,40.04217738296177
pt.ine.add.PTCONT.1103508,R PRINCIPAL,,3130-002,ALFARELOS,-8.637186100363476,40.13873368389958
pt.ine.add.PTCONT.1103509,R LAGOA CIMA,,3130-022,DEGRACIAS,-8.518923459180005,40.01307643472999
pt.ine.add.PTCONT.1103510,R PRINCIPAL,,3130-096,POMBALINHO SRE,-8.469892275622145,40.01265290076051
pt.ine.add.PTCONT.1103511,R DUQUES DE AVEIRO,15,3130-119,SAMUEL,-8.707612685119633,40.08555881222454
pt.ine.add.PTCONT.1103512,ESTR PRINCIPAL,,3130-514,SOURE,-8.627988874011182,40.09051040041736
pt.ine.add.PTCONT.1103513,R CANIÇO,,3130-062,GESTEIRA,-8.657881143958468,40.083273102535024
pt.ine.add.PTCONT.1103514,R VALA NOVA,,3130-509,SOURE,-8.642696040478787,40.073605395901275
pt.ine.add.PTCONT.1103516,R PRINCIPAL,35,3130-117,SAMUEL,-8.737288994900315,40.10081554339382
pt.ine.add.PTCONT.1103517,R CASAL DAS FIGUEIRAS,,3130-509,SOURE,-8.6444175078207,40.073363654125174
pt.ine.add.PTCONT.1103518,,,3130-526,SOURE,-8.618601312854105,40.08789335508585
pt.ine.add.PTCONT.1103520,R CASAL DAS FIGUEIRAS,,3130-509,SOURE,-8.644286809378983,40.07313007432077
pt.ine.add.PTCONT.1103521,R 1 MAIO,20,3130-001,ALFARELOS,-8.648598240331669,40.156677246550046
pt.ine.add.PTCONT.1103522,R ALTO,4,3130-044,FIGUEIRÓ DO CAMPO,-8.59459176899957,40.15443746648696
pt.ine.add.PTCONT.1103523,R BIQUITA,6,3130-127,SAMUEL,-8.720366572337683,40.100228627426574
pt.ine.add.PTCONT.1103524,R PADRE CURADO,,3130-127,SAMUEL,-8.718915579306284,40.099236313218086
pt.ine.add.PTCONT.1103525,R FONTE,,3130-539,SOURE,-8.597960152016544,40.049306088338604
pt.ine.add.PTCONT.1103526,R QUINTA DOS MELROS,,3130-040,FIGUEIRÓ DO CAMPO,-8.583482771417822,40.14998725675705
pt.ine.add.PTCONT.1103527,R PADRE CURADO,3,3130-127,SAMUEL,-8.716885125719742,40.09630161369733
pt.ine.add.PTCONT.1103528,,,3130-509,SOURE,-8.638730214834611,40.06996632626135
pt.ine.add.PTCONT.1103529,R MOINHOS DE VENTO,2,3130-001,ALFARELOS,-8.655433235778432,40.152593963494986
pt.ine.add.PTCONT.1103530,R FORNO,2,3130-110,SAMUEL,-8.687126156976118,40.057703936587984
pt.ine.add.PTCONT.1103531,R PRINCIPAL,,3130-518,SOURE,-8.645235290795181,40.06985669810272
pt.ine.add.PTCONT.1103532,R SEM NOME,,3130-538,SOURE,-8.622878460363376,40.0531570965225
pt.ine.add.PTCONT.1103533,R PRINCIPAL,,3130-063,GESTEIRA,-8.655336617827004,40.07709747335214
pt.ine.add.PTCONT.1103534,NAPOLES,63,3130-588,SOURE,-8.634487061013525,40.105171220872656
pt.ine.add.PTCONT.1103536,R PRINCIPAL,,3130-090,POMBALINHO SRE,-8.539561199231557,39.969632163648456
pt.ine.add.PTCONT.1103537,R 11 DE ABRIL DE 1928,,3130-001,ALFARELOS,-8.652562008939956,40.15006721585536
pt.ine.add.PTCONT.1103538,R OUTEIRO,,3130-541,SOURE,-8.6060689641351,40.10005827157936
pt.ine.add.PTCONT.1103539,,,3130-517,SOURE,-8.609775415010926,40.044646973905934
pt.ine.add.PTCONT.1103540,BR MISERICÓRDIA,,3130-210,SOURE,-8.626468227627058,40.06340876330263
pt.ine.add.PTCONT.1103541,BR MISERICÓRDIA,18,3130-210,SOURE,-8.626209264999138,40.06325676307626
pt.ine.add.PTCONT.1103542,R QUINTA DA FONTINHA,,3130-001,ALFARELOS,-8.642464052882604,40.16040581433311
pt.ine.add.PTCONT.1103543,R ESCOLA,,3130-064,GESTEIRA,-8.67200055174788,40.05538867738012
pt.ine.add.PTCONT.1103544,R BAIRRO NOVO,,3130-541,SOURE,-8.604478523702163,40.0990110538745
pt.ine.add.PTCONT.1103602,R CALDEIROS,,3130-546,SOURE,-8.630438373979787,40.01133663732499
pt.ine.add.PTCONT.1103604,R ALEXANDRE HERCULANO,76,3130-219,SOURE,-8.626276507782503,40.05795191543976
pt.ine.add.PTCONT.1103605,R ALEXANDRE HERCULANO,76,3130-219,SOURE,-8.626276507782503,40.05795191543976
pt.ine.add.PTCONT.1103606,R ALEXANDRE HERCULANO,76,3130-219,SOURE,-8.626276507782503,40.05795191543976
pt.ine.add.PTCONT.1103607,R ALEXANDRE HERCULANO,76,3130-219,SOURE,-8.626276507782503,40.05795191543976
pt.ine.add.PTCONT.1103608,R CONCELHOS,,3130-504,SOURE,-8.602645023978631,40.01474881860351
pt.ine.add.PTCONT.1103609,R ARNEIRO,,3130-381,TAPÉUS,-8.531540248623307,40.03562110119361
pt.ine.add.PTCONT.1103611,R VALE DO PORTO,,3130-505,SOURE,-8.618398862113306,39.99655457214689
pt.ine.add.PTCONT.1103614,R HEROIS 25 DE ABRIL,,3130-243,SOURE,-8.63370429708459,40.0575598177127
pt.ine.add.PTCONT.1103615,R HEROIS 25 DE ABRIL,,3130-243,SOURE,-8.63370429708459,40.0575598177127
pt.ine.add.PTCONT.1103616,R HEROIS 25 DE ABRIL,,3130-243,SOURE,-8.63370429708459,40.0575598177127
pt.ine.add.PTCONT.1103617,R HEROIS 25 DE ABRIL,,3130-243,SOURE,-8.63370429708459,40.0575598177127
pt.ine.add.PTCONT.1103621,,,3130-519,SOURE,-8.6449813759844,40.04845945902926
pt.ine.add.PTCONT.1103623,AV MARGINAL,,3130-506,SOURE,-8.62986494703971,40.05984586731507
pt.ine.add.PTCONT.1103624,,,3130-545,SOURE,-8.6334331640811,40.05894792036715
pt.ine.add.PTCONT.1103625,BC CABECA,,3130-380,TAPÉUS,-8.557312702245198,40.02744213287576
pt.ine.add.PTCONT.1103626,TV FONTE,1,3130-429,VINHA DA RAINHA,-8.709295011623817,40.03753033679413
pt.ine.add.PTCONT.1103627,R CASAL,1A,3130-429,VINHA DA RAINHA,-8.709375964192777,40.037403849361034
pt.ine.add.PTCONT.1103631,R FLORES,,3130-546,SOURE,-8.632901139200449,40.00856116258707
pt.ine.add.PTCONT.1103632,R FLORES,,3130-546,SOURE,-8.632901139200449,40.00856116258707
pt.ine.add.PTCONT.1103636,R GAGO COUTINHO,,3130-400,VILA NOVA DE ANÇOS,-8.635570145332865,40.10731895511985
pt.ine.add.PTCONT.1103637,,,3130-520,SOURE,-8.580210237038703,40.03378640666466
pt.ine.add.PTCONT.1103638,R PALHEIRINHOS,,3130-548,SOURE,-8.649621648419274,40.03133633339988
pt.ine.add.PTCONT.1103639,R BELINAS,2,3130-421,VINHA DA RAINHA,-8.699286676345437,40.048594078069875
pt.ine.add.PTCONT.1103641,R MANUEL NOGUEIRA,,3130-246,SOURE,-8.625496471457453,40.06030581196303
pt.ine.add.PTCONT.1103642,R LARGO DA CAPELA VELHA,,3130-520,SOURE,-8.580396396523891,40.03358755405354
pt.ine.add.PTCONT.1103643,R OUTEIRO,,3130-548,SOURE,-8.649542831665102,40.02865287038743
pt.ine.add.PTCONT.1103647,R LOURINHO,,3130-537,SOURE,-8.613851243077352,40.01765687996447
pt.ine.add.PTCONT.1103648,R TERREIRO,,3130-434,VINHA DA RAINHA,-8.730440516931871,40.07206044339674
pt.ine.add.PTCONT.1103649,R TERREIRO,,3130-434,VINHA DA RAINHA,-8.728058336364356,40.07177550388834
pt.ine.add.PTCONT.1103653,R FONTE,,3130-546,SOURE,-8.631127227492383,40.01426066793246
pt.ine.add.PTCONT.1103654,R PRINCIPAL,41,3130-424,VINHA DA RAINHA,-8.724318859603057,40.054151859840054
pt.ine.add.PTCONT.1103666,R LIBERDADE,8,3130-041,FIGUEIRÓ DO CAMPO,-8.598114386156066,40.156386661221255
pt.ine.add.PTCONT.1103668,R CANTO DAS FLORES,,3130-081,GRANJA DO ULMEIRO,-8.62515853769543,40.159868248273824
pt.ine.add.PTCONT.1103706,,,3130-386,SOURE,-8.546119556941123,40.03822685292329
pt.ine.add.PTCONT.1103741,R FONTE,,3130-539,SOURE,-8.597960152016544,40.049306088338604
pt.ine.add.PTCONT.1103752,R MARMELEIROS,3,3130-400,VILA NOVA DE ANÇOS,-8.634301968124321,40.11031443178196
pt.ine.add.PTCONT.1103759,R SOURE,,3130-588,SOURE,-8.59618499815987,40.1090501580891
pt.ine.add.PTCONT.1103795,R PRINCIPAL,,3130-549,SOURE,-8.656429024865515,40.04520216163513
pt.ine.add.PTCONT.1103801,R CARREIRA NOVA,19,3130-116,SAMUEL,-8.693309277566378,40.105712193225926
pt.ine.add.PTCONT.1103802,R FONTE,6,3130-116,SAMUEL,-8.694482922468902,40.10438263453397
pt.ine.add.PTCONT.1103803,R OUTAO,24,3130-116,SAMUEL,-8.692010271269348,40.10606069526936
pt.ine.add.PTCONT.1103817,BC SANTO ANTÓNIO,213,3130-001,ALFARELOS,-8.65256729172165,40.15076064655437
pt.ine.add.PTCONT.1103971,R PRINCIPAL,2,3130-041,FIGUEIRÓ DO CAMPO,-8.597471169142224,40.15845159435183
pt.ine.add.PTCONT.1144670,,,3130-540,SOURE,-8.566186956717667,40.033938733806366
pt.ine.add.PTCONT.1105582,R COBALTA,,3130-095,POMBALINHO SRE,-8.49857093605603,39.985277320248095
pt.ine.add.PTCONT.1105529,LG COMBATENTES DA GRANDEGUERRA,25,3130-001,ALFARELOS,-8.652007895630893,40.14973648190085
pt.ine.add.PTCONT.1105530,R PRINCIPAL,52,3130-043,FIGUEIRÓ DO CAMPO,-8.607527209921269,40.15801456922811
pt.ine.add.PTCONT.1105531,R OUTEIRO,9,3130-080,GRANJA DO ULMEIRO,-8.629050907106828,40.1592392412248
pt.ine.add.PTCONT.1105532,EN 347,N 18,3130-080,GRANJA DO ULMEIRO,-8.630830802880675,40.15705217746956
pt.ine.add.PTCONT.1105537,R 25 ABRIL,10A,3130-002,ALFARELOS,-8.637906592090127,40.13936996590535
pt.ine.add.PTCONT.1105538,R VIRGILIO DA SILVA PINHEIRO,,3130-002,ALFARELOS,-8.641268706413719,40.137040738929855
pt.ine.add.PTCONT.1105539,R SEM NOME,,3130-010,BRUNHÓS,-8.670069601746727,40.115440627544054
pt.ine.add.PTCONT.1105540,R SEM NOME,,3130-010,BRUNHÓS,-8.670069601746727,40.115440627544054
pt.ine.add.PTCONT.1105541,R OUTEIRO,5,3130-048,FIGUEIRÓ DO CAMPO,-8.598244290201915,40.158223343699966
pt.ine.add.PTCONT.1105542,R PRINCIPAL,12,3130-041,FIGUEIRÓ DO CAMPO,-8.59851424562274,40.1582222589521
pt.ine.add.PTCONT.1105543,R PRINCIPAL,,3130-096,POMBALINHO SRE,-8.468382433003635,40.012873426248014
pt.ine.add.PTCONT.1105544,R CASAL,,3130-544,SOURE,-8.603851883449098,40.06252120735014
pt.ine.add.PTCONT.1105545,R PRINCIPAL,,3130-544,SOURE,-8.605517597312975,40.06271256027664
pt.ine.add.PTCONT.1105546,R PRINCIPAL,32,3130-046,FIGUEIRÓ DO CAMPO,-8.603545809536802,40.13555204163061
pt.ine.add.PTCONT.1105547,ESTR PRINCIPAL,,3130-514,SOURE,-8.626265484831823,40.090553774394344
pt.ine.add.PTCONT.1105549,R OLEIROS,5,3130-002,ALFARELOS,-8.639275552581632,40.13725660427223
pt.ine.add.PTCONT.1105550,R PRINCIPAL,,3130-097,POMBALINHO SRE,-8.49417175956789,40.01252576319534
pt.ine.add.PTCONT.1105551,R PRINCIPAL,,3130-097,POMBALINHO SRE,-8.49417175956789,40.01252576319534
pt.ine.add.PTCONT.1105552,ENTRE VALAS,16,3130-049,FIGUEIRÓ DO CAMPO,-8.57779100970468,40.15722299089103
pt.ine.add.PTCONT.1105553,R DETRAS,,3130-539,SOURE,-8.598269056787762,40.04992626741479
pt.ine.add.PTCONT.1105554,R DR DELFIM PINHEIRO,84,3130-001,ALFARELOS,-8.653545290328134,40.15742061761463
pt.ine.add.PTCONT.1105555,TV FERRO VELHO,,3130-022,DEGRACIAS,-8.524163256338213,40.00766419072775
pt.ine.add.PTCONT.1105556,R GABRIEIS,,3130-591,SOURE,-8.640430337177692,40.07159799062955
pt.ine.add.PTCONT.1105557,,,3130-526,SOURE,-8.620196499795007,40.087967712459175
pt.ine.add.PTCONT.1105559,R 25 ABRIL,47,3130-001,ALFARELOS,-8.649710167616526,40.15471801202559
pt.ine.add.PTCONT.1105560,R CASAL,,3130-092,POMBALINHO SRE,-8.4863240576854,40.00565123284294
pt.ine.add.PTCONT.1105561,R ALTO,3,3130-044,FIGUEIRÓ DO CAMPO,-8.594574607295835,40.15363600898391
pt.ine.add.PTCONT.1105562,R ALTO,3,3130-044,FIGUEIRÓ DO CAMPO,-8.594574607295835,40.15363600898391
pt.ine.add.PTCONT.1105563,R CASAL DE CIMA,,3130-095,POMBALINHO SRE,-8.490899736208293,39.9915245282587
pt.ine.add.PTCONT.1105564,R CLAUDIO SÉRGIO FERNANDES JORGE,,3130-539,SOURE,-8.59249714586461,40.047256480513944
pt.ine.add.PTCONT.1105565,R OUTEIRO,,3130-020,DEGRACIAS,-8.53194564451213,40.004638621352925
pt.ine.add.PTCONT.1105566,R 17 DE SETEMBRO,14,3130-040,FIGUEIRÓ DO CAMPO,-8.577457901544598,40.14933508921368
pt.ine.add.PTCONT.1105567,R BOA UNIAO,24,3130-080,GRANJA DO ULMEIRO,-8.63359248475331,40.160714677676914
pt.ine.add.PTCONT.1105568,R GABRIELOS,24,3130-080,GRANJA DO ULMEIRO,-8.632235477901029,40.16134194169345
pt.ine.add.PTCONT.1105569,R GABRIELOS,24,3130-080,GRANJA DO ULMEIRO,-8.632235477901029,40.16134194169345
pt.ine.add.PTCONT.1105570,R PADRE CURADO,15,3130-127,SAMUEL,-8.717366116709274,40.097695113416506
pt.ine.add.PTCONT.1105571,R PRINCIPAL,6,3130-110,SAMUEL,-8.689758340510226,40.05710592752273
pt.ine.add.PTCONT.1105573,R BOA UNIAO,24,3130-080,GRANJA DO ULMEIRO,-8.63359248475331,40.160714677676914
pt.ine.add.PTCONT.1105574,R JARDIM,19,3130-080,GRANJA DO ULMEIRO,-8.636425425468076,40.16126976879482
pt.ine.add.PTCONT.1105575,R JARDIM,16,3130-080,GRANJA DO ULMEIRO,-8.636425425468076,40.16126976879482
pt.ine.add.PTCONT.1105576,,,3130-096,POMBALINHO SRE,-8.465516658933536,40.00400160854174
pt.ine.add.PTCONT.1105577,R SEM NOME,,3130-538,SOURE,-8.612467371969492,40.055902456420036
pt.ine.add.PTCONT.1105578,R 8 DE DEZEMBRO,,3130-062,GESTEIRA,-8.657978745607629,40.08071495470297
pt.ine.add.PTCONT.1105579,R GABRIELOS,70,3130-080,GRANJA DO ULMEIRO,-8.630007078368163,40.159982630894305
pt.ine.add.PTCONT.1105580,R GABRIELOS,70,3130-080,GRANJA DO ULMEIRO,-8.630007078368163,40.159982630894305
pt.ine.add.PTCONT.1105581,R GABRIELOS,70,3130-080,GRANJA DO ULMEIRO,-8.630007078368163,40.159982630894305
pt.ine.add.PTCONT.1105583,R PRINCIPAL,,3130-501,SOURE,-8.57089861766545,40.07084592185543
pt.ine.add.PTCONT.1105584,R CRUZ DO CABO,,3130-001,ALFARELOS,-8.655211227593746,40.15119004459055
pt.ine.add.PTCONT.1105585,R CRUZEIRO,,3130-001,ALFARELOS,-8.651868164211754,40.14988120241985
pt.ine.add.PTCONT.1105586,R CRUZ DO CABO,,3130-001,ALFARELOS,-8.654065553449895,40.15024057921829
pt.ine.add.PTCONT.1105587,R BARROCO,,3130-040,FIGUEIRÓ DO CAMPO,-8.576171864196843,40.14828632430236
pt.ine.add.PTCONT.1105588,R BARROCO,2,3130-040,FIGUEIRÓ DO CAMPO,-8.577344066482524,40.14807469705789
pt.ine.add.PTCONT.1105589,R PRINCIPAL,,3130-063,GESTEIRA,-8.655554150137718,40.07948308571559
pt.ine.add.PTCONT.1105590,R PRINCIPAL,,3130-063,GESTEIRA,-8.656060261203942,40.079741976354974
pt.ine.add.PTCONT.1105591,R FONTE,,3130-063,GESTEIRA,-8.654024128246322,40.08024648079997
pt.ine.add.PTCONT.1105592,R PRINCIPAL,,3130-063,GESTEIRA,-8.65503212503137,40.07867489786297
pt.ine.add.PTCONT.1105593,R PRINCIPAL,,3130-501,SOURE,-8.565634310656428,40.070703587047404
pt.ine.add.PTCONT.1105594,R LIBERDADE,38,3130-080,GRANJA DO ULMEIRO,-8.634573293605088,40.156819888414105
pt.ine.add.PTCONT.1105595,R VALE DAS ROSAS,,3130-541,SOURE,-8.608454719905417,40.10078699643111
pt.ine.add.PTCONT.1105596,R PRINCIPAL,21,3130-043,FIGUEIRÓ DO CAMPO,-8.608134652845612,40.159281910527504
pt.ine.add.PTCONT.1105606,R DR JOÃO ESTEVES SIMÕES,,3130-211,SOURE,-8.622432890969684,40.059679362227385
pt.ine.add.PTCONT.1105656,R FORNOS,13,3130-237,SOURE,-8.62670407823551,40.058733620970024
pt.ine.add.PTCONT.1105660,R CENTRAL,,3130-504,SOURE,-8.607022659668461,40.01262356637476
pt.ine.add.PTCONT.1105663,,,3130-534,SOURE,-8.640044632221107,40.063845485297726
pt.ine.add.PTCONT.1105666,R PRINCIPAL,,3130-387,TAPÉUS,-8.538491393894702,40.036173381913336
pt.ine.add.PTCONT.1105669,R CARREIROS,,3130-389,TAPÉUS,-8.548549499753683,40.02932013448669
pt.ine.add.PTCONT.1105671,R DR JOÃO ESTEVES SIMÕES,,3130-211,SOURE,-8.621990997976084,40.06016755436039
pt.ine.add.PTCONT.1105672,R CAPELA,,3130-546,SOURE,-8.636693210129167,40.01299377081627
pt.ine.add.PTCONT.1105673,R PEDREIRA,,3130-431,VINHA DA RAINHA,-8.714451852993642,40.06253236477017
pt.ine.add.PTCONT.1105677,R PEDRINHA,5,3130-422,VINHA DA RAINHA,-8.7104615467836,40.061921897512384
pt.ine.add.PTCONT.1105678,R PINHEIRO,6A,3130-425,VINHA DA RAINHA,-8.715171678333263,40.0327907941069
pt.ine.add.PTCONT.1105679,R CACADORES,2,3130-429,VINHA DA RAINHA,-8.711430263823264,40.03508806240941
pt.ine.add.PTCONT.1105681,R 10 DE MARCO,50,3130-400,VILA NOVA DE ANÇOS,-8.634870116681382,40.11101443727505
pt.ine.add.PTCONT.1105682,R CARREIRA,,3130-429,VINHA DA RAINHA,-8.711269677914666,40.03133333379971
pt.ine.add.PTCONT.1105686,CAM MUNICIPAL 1118,,3130-519,SOURE,-8.6450194989701,40.05042261153291
pt.ine.add.PTCONT.1105687,R AREIAS,,3130-546,SOURE,-8.63482983137083,40.00324821883922
pt.ine.add.PTCONT.1105688,R SALGADA,,3130-426,VINHA DA RAINHA,-8.708592177334202,40.05288013769246
pt.ine.add.PTCONT.1105690,R OUTEIRO,24,3130-234,SOURE,-8.627490428376905,40.05888337098441
pt.ine.add.PTCONT.1105691,R ALTO DA FONTE,,3130-548,SOURE,-8.644726195136947,40.029998131965996
pt.ine.add.PTCONT.1105694,R PRINCIPAL,47,3130-421,VINHA DA RAINHA,-8.695891512820477,40.0489888731343
pt.ine.add.PTCONT.1105696,R CASAL,,3130-520,SOURE,-8.578998224629137,40.032980527918184
pt.ine.add.PTCONT.1105697,R CAPELA VELHA,,3130-520,SOURE,-8.580497366734605,40.03290270071553
pt.ine.add.PTCONT.1105702,R CAPELA VELHA,,3130-520,SOURE,-8.581576981671764,40.03316871033475
pt.ine.add.PTCONT.1105703,R FONTE,,3130-537,SOURE,-8.610943265441874,40.01721860113548
pt.ine.add.PTCONT.1105704,R 13 DE JUNHO,,3130-423,VINHA DA RAINHA,-8.69397660424506,40.04554884142318
pt.ine.add.PTCONT.1105707,R PRINCIPAL,,3130-500,SOURE,-8.588261449507588,40.07287741407202
pt.ine.add.PTCONT.1105712,R ESCOLA,,3130-539,SOURE,-8.600128195258295,40.049315381906126
pt.ine.add.PTCONT.1105717,R PRINCIPAL,36,3130-043,FIGUEIRÓ DO CAMPO,-8.60823771539027,40.15891224584085
pt.ine.add.PTCONT.1105820,R AREEIRO,,3130-388,TAPÉUS,-8.560896764038569,40.03482297068738
pt.ine.add.PTCONT.1105843,R PRINCIPAL,64A,3130-046,FIGUEIRÓ DO CAMPO,-8.611212238483992,40.134502973654506
pt.ine.add.PTCONT.1105845,R OUTAO,28,3130-116,SAMUEL,-8.691412508740216,40.10610860799859
pt.ine.add.PTCONT.1105846,R ESCOLA,16,3130-116,SAMUEL,-8.688419240041956,40.10291687484947
pt.ine.add.PTCONT.1105847,R OUTAO,30,3130-116,SAMUEL,-8.691318831476945,40.10612707143198
pt.ine.add.PTCONT.1105857,R ESTAÇÃO,26,3130-080,GRANJA DO ULMEIRO,-8.638540005222616,40.16150371653809
pt.ine.add.PTCONT.1105878,R ASSOCIAÇÃO,,3130-541,SOURE,-8.605937417181835,40.09799643654223
pt.ine.add.PTCONT.1105964,R GABRIELOS,,3130-080,GRANJA DO ULMEIRO,-8.62987724455225,40.15988412318629
pt.ine.add.PTCONT.1105965,R GABRIELOS,,3130-080,GRANJA DO ULMEIRO,-8.62987724455225,40.15988412318629
pt.ine.add.PTCONT.1105966,R GABRIELOS,,3130-080,GRANJA DO ULMEIRO,-8.62987724455225,40.15988412318629
pt.ine.add.PTCONT.1106007,R AZINHAGA DA EIRA,,3130-024,DEGRACIAS,-8.530316147386749,39.99020733514698
pt.ine.add.PTCONT.1106008,R FONTE,,3130-537,SOURE,-8.610943265441874,40.01721860113548
pt.ine.add.PTCONT.1107527,R PRINCIPAL 1,,3130-083,POMBALINHO SRE,-8.49574289564828,40.01505158458258
pt.ine.add.PTCONT.1107522,R BOAVISTA,14,3130-001,ALFARELOS,-8.652862331748633,40.14943545506198
pt.ine.add.PTCONT.1107523,R FONTE,,3130-043,FIGUEIRÓ DO CAMPO,-8.608206583201456,40.15781365387206
pt.ine.add.PTCONT.1107524,R BARREIRO,,3130-083,POMBALINHO SRE,-8.498408955712884,40.02079813421547
pt.ine.add.PTCONT.1107525,,,3130-512,SOURE,-8.60208075894077,40.09139270605407
pt.ine.add.PTCONT.1107526,R PRINCIPAL,,3130-010,BRUNHÓS,-8.669729227921708,40.11541518725269
pt.ine.add.PTCONT.1107528,R 17 DE DEZEMBRO,,3130-541,SOURE,-8.60617874993925,40.100670230535144
pt.ine.add.PTCONT.1107529,R 17 DE DEZEMBRO,,3130-541,SOURE,-8.60617874993925,40.100670230535144
pt.ine.add.PTCONT.1107530,,,3130-511,SOURE,-8.612428956034158,40.04372641349529
pt.ine.add.PTCONT.1107533,R PRINCIPAL,7,3130-042,FIGUEIRÓ DO CAMPO,-8.596693532743997,40.15974255417764
pt.ine.add.PTCONT.1107534,R ESTRADA NACIONAL,7,3130-042,FIGUEIRÓ DO CAMPO,-8.596693532743997,40.15974255417764
pt.ine.add.PTCONT.1107535,R GONÇALVES FILIPE,15,3130-061,GESTEIRA,-8.669026396351146,40.09909963491967
pt.ine.add.PTCONT.1107536,R GONÇALVES FILIPE,15,3130-061,GESTEIRA,-8.669026396351146,40.09909963491967
pt.ine.add.PTCONT.1107537,R NOGUEIRAS,,3130-099,POMBALINHO SRE,-8.48503702579241,40.017291095704344
pt.ine.add.PTCONT.1107538,R CENTRO,1,3130-122,SAMUEL,-8.757922038243478,40.11733253388684
pt.ine.add.PTCONT.1107539,R PINHAL,,3130-567,SOURE,-8.583724028664342,40.08522440389938
pt.ine.add.PTCONT.1107540,R CENTRO,,3130-567,SOURE,-8.58582486452577,40.08376624358779
pt.ine.add.PTCONT.1107541,ESTR PRINCIPAL,,3130-511,SOURE,-8.615588293682453,40.046415122831604
pt.ine.add.PTCONT.1107542,BC ADRO,,3130-080,GRANJA DO ULMEIRO,-8.63465051343184,40.162529288994186
pt.ine.add.PTCONT.1107543,R CEU,1,3130-122,SAMUEL,-8.760722806275984,40.118751920022234
pt.ine.add.PTCONT.1107544,R NSA SRA DA ROSA,12,3130-131,SAMUEL,-8.694992930855163,40.08653932421151
pt.ine.add.PTCONT.1107545,,,3130-511,SOURE,-8.611870799672776,40.042666004059804
pt.ine.add.PTCONT.1107546,R PRINCIPAL,,3130-010,BRUNHÓS,-8.668737082082448,40.11155622550751
pt.ine.add.PTCONT.1107547,ESTR PRINCIPAL,,3130-528,SOURE,-8.598748677774052,40.077347757476495
pt.ine.add.PTCONT.1107548,R ALTO CALES,35,3130-080,GRANJA DO ULMEIRO,-8.629515876649256,40.160227896899464
pt.ine.add.PTCONT.1107549,R PRINCIPAL,,3130-097,POMBALINHO SRE,-8.496841075599223,40.01231027465802
pt.ine.add.PTCONT.1107550,R PRINCIPAL,,3130-514,SOURE,-8.624897877523363,40.09115398477472
pt.ine.add.PTCONT.1107551,R MOUROS,,3130-022,DEGRACIAS,-8.523053125288541,40.00810022647882
pt.ine.add.PTCONT.1107552,R BAIXO,20,3130-080,GRANJA DO ULMEIRO,-8.637032035511787,40.16234783680144
pt.ine.add.PTCONT.1107553,R PRINCIPAL,,3130-091,POMBALINHO SRE,-8.427864657182154,40.00108641525714
pt.ine.add.PTCONT.1107554,R ROSSIO,11,3130-128,SAMUEL,-8.723894971495298,40.10818095363884
pt.ine.add.PTCONT.1107555,R PRINCIPAL,,3130-535,SOURE,-8.595605150002946,40.02856548810974
pt.ine.add.PTCONT.1107556,R CRUZEIRO,4,3130-002,ALFARELOS,-8.639332683085144,40.13704921827058
pt.ine.add.PTCONT.1107557,R MOUROS,,3130-022,DEGRACIAS,-8.522831476366811,40.008254076589864
pt.ine.add.PTCONT.1107558,R PROF ARISTIDES MOTANUNES,,3130-062,GESTEIRA,-8.656935003230696,40.08373669102414
pt.ine.add.PTCONT.1107559,R CASAL,,3130-092,POMBALINHO SRE,-8.485799881289509,40.00620220494255
pt.ine.add.PTCONT.1107560,R CAPELA,,3130-509,SOURE,-8.639960367373776,40.07461706578614
pt.ine.add.PTCONT.1107561,R PRINCIPAL,,3130-526,SOURE,-8.622474453777718,40.08841741764266
pt.ine.add.PTCONT.1107562,R RIBEIRA,,3130-066,GESTEIRA,-8.680690437250119,40.08388800698254
pt.ine.add.PTCONT.1107563,R PRINCIPAL,15,3130-117,SAMUEL,-8.741380081370007,40.09998509098475
pt.ine.add.PTCONT.1107564,R SERRA DO BICANHO,2,3130-117,SAMUEL,-8.742264660256819,40.09923294786426
pt.ine.add.PTCONT.1107565,R STA CRUZ,6,3130-118,SAMUEL,-8.702987951401424,40.07791755528006
pt.ine.add.PTCONT.1107566,R PRINCIPAL,,3130-020,DEGRACIAS,-8.533033974740071,40.00449977862427
pt.ine.add.PTCONT.1107567,R 17 DE SETEMBRO,12,3130-040,FIGUEIRÓ DO CAMPO,-8.577257925428293,40.149263809060756
pt.ine.add.PTCONT.1107568,LG CAPELA,,3130-023,DEGRACIAS,-8.527834644930218,39.9964390773517
pt.ine.add.PTCONT.1107569,R CALADA,,3130-062,GESTEIRA,-8.657983448012507,40.08132734189156
pt.ine.add.PTCONT.1107570,R REQUEIXO,,3130-588,SOURE,-8.59393836715199,40.10984263875461
pt.ine.add.PTCONT.1107571,R RIGUEIRINHO,17,3130-040,FIGUEIRÓ DO CAMPO,-8.581250068939074,40.14955462911064
pt.ine.add.PTCONT.1107572,R BARROCO,,3130-095,POMBALINHO SRE,-8.499058735924796,39.986734783717814
pt.ine.add.PTCONT.1107573,R DR DELFIM PINHEIRO,19,3130-001,ALFARELOS,-8.65393128705381,40.15263675243087
pt.ine.add.PTCONT.1107574,R IGREJA,18,3130-040,FIGUEIRÓ DO CAMPO,-8.578057345160085,40.14767569790804
pt.ine.add.PTCONT.1107575,,,3130-532,SOURE,-8.655901029295935,40.06658489992826
pt.ine.add.PTCONT.1107576,R ABRUNHEIROS,,3130-501,SOURE,-8.57299701139204,40.0708559851929
pt.ine.add.PTCONT.1107577,R TEN JOSE P BEATO,9,3130-001,ALFARELOS,-8.654049306418619,40.15118627185904
pt.ine.add.PTCONT.1107578,R 1 DE MAIO,58,3130-001,ALFARELOS,-8.644429280536016,40.15481349940534
pt.ine.add.PTCONT.1107579,R PRINCIPAL,3,3130-043,FIGUEIRÓ DO CAMPO,-8.607839337281687,40.15901294474687
pt.ine.add.PTCONT.1107580,R PRINCIPAL,,3130-098,POMBALINHO SRE,-8.529721918229615,39.958309406112804
pt.ine.add.PTCONT.1107637,R CONCELHOS,,3130-504,SOURE,-8.60205261407438,40.015471707126416
pt.ine.add.PTCONT.1107638,R OUTEIRO,1,3130-428,VINHA DA RAINHA,-8.727333830737178,40.0504529681304
pt.ine.add.PTCONT.1107640,R PINHEIRO MANSO,,3130-513,SOURE,-8.642971690198543,40.04138955163222
pt.ine.add.PTCONT.1107641,R PRINCIPAL,,3130-387,TAPÉUS,-8.543707159108891,40.03648824300276
pt.ine.add.PTCONT.1107644,R NSA SRA DO BONSUCESSO,,3130-513,SOURE,-8.647450581246428,40.04176602352892
pt.ine.add.PTCONT.1107645,R PRINCIPAL,,3130-404,VILA NOVA DE ANÇOS,-8.608795472741177,40.13454894982138
pt.ine.add.PTCONT.1107648,R BELTROES,,3130-519,SOURE,-8.648017296167154,40.05167918162628
pt.ine.add.PTCONT.1107649,R D MANUEL I,30,3130-400,VILA NOVA DE ANÇOS,-8.63404868946783,40.11096395715788
pt.ine.add.PTCONT.1107650,,,3130-506,SOURE,-8.630529335519158,40.06095076035767
pt.ine.add.PTCONT.1107651,R CAPELA,,3130-546,SOURE,-8.63370975405753,40.011835901245306
pt.ine.add.PTCONT.1107652,R FONTE,16,3130-400,VILA NOVA DE ANÇOS,-8.632680745363535,40.10996119719767
pt.ine.add.PTCONT.1107655,R AREIAS,,3130-502,SOURE,-8.634495725677182,40.00720335591834
pt.ine.add.PTCONT.1107656,R ESCOLA,,3130-546,SOURE,-8.635220107815408,40.01016323480562
pt.ine.add.PTCONT.1107657,R CASAL,,3130-515,SOURE,-8.631049939459265,40.00362476599955
pt.ine.add.PTCONT.1107658,R CARREIRA,1,3130-429,VINHA DA RAINHA,-8.712120635391697,40.03221167957656
pt.ine.add.PTCONT.1107660,R FORNOS,50,3130-400,VILA NOVA DE ANÇOS,-8.63586071684413,40.1101455687239
pt.ine.add.PTCONT.1107661,R PEDREGAL,57,3130-400,VILA NOVA DE ANÇOS,-8.63569870024239,40.11044346880742
pt.ine.add.PTCONT.1107663,R OUTEIRO,21,3130-234,SOURE,-8.627771449812858,40.05884614728127
pt.ine.add.PTCONT.1107664,R PRINCIPAL,,3130-540,SOURE,-8.56794359958066,40.03381507579277
pt.ine.add.PTCONT.1107665,R 10 DE MARCO,39,3130-400,VILA NOVA DE ANÇOS,-8.634758534749015,40.11019537760684
pt.ine.add.PTCONT.1107668,R PRINCIPAL,,3130-548,SOURE,-8.644524806850042,40.03126887944053
pt.ine.add.PTCONT.1107670,R 13 DE JUNHO,14,3130-423,VINHA DA RAINHA,-8.689737148929302,40.04585747944279
pt.ine.add.PTCONT.1107674,R S JOAO DE DEUS,,3130-250,SOURE,-8.625046306300227,40.05964127675072
pt.ine.add.PTCONT.1107675,R S JOAO DE DEUS,,3130-250,SOURE,-8.625046306300227,40.05964127675072
pt.ine.add.PTCONT.1107676,R S JOAO DEUS,,3130-250,SOURE,-8.625046306300227,40.05964127675072
pt.ine.add.PTCONT.1107677,R ENG HENRIQUE FERNANDES RUAS,9,3130-400,VILA NOVA DE ANÇOS,-8.636916082812487,40.10851990849341
pt.ine.add.PTCONT.1107686,EN NACIONAL,37,3130-042,FIGUEIRÓ DO CAMPO,-8.600550460907234,40.15904259950714
pt.ine.add.PTCONT.1107692,R PRINCIPAL,,3130-097,POMBALINHO SRE,-8.49631311456945,40.012140813688625
pt.ine.add.PTCONT.1107696,R FORNOS,48,3130-400,VILA NOVA DE ANÇOS,-8.635836927606626,40.1101006421462
pt.ine.add.PTCONT.1107699,R GAGO COUTINHO,,3130-400,VILA NOVA DE ANÇOS,-8.635862590336682,40.10772796212217
pt.ine.add.PTCONT.1107700,R TERREIRO,27,3130-434,VINHA DA RAINHA,-8.728085228557049,40.0721716298902
pt.ine.add.PTCONT.1107747,R EVANGELISTA PEREIRA,,3130-061,GESTEIRA,-8.666421658783717,40.09593254643548
pt.ine.add.PTCONT.1107752,R COSTEIRA,18,3130-080,GRANJA DO ULMEIRO,-8.630181056673592,40.16130575008493
pt.ine.add.PTCONT.1107770,R FONTE,50,3130-400,VILA NOVA DE ANÇOS,-8.62934188805172,40.11050690266862
pt.ine.add.PTCONT.1107781,R COSTEIRA,3,3130-080,GRANJA DO ULMEIRO,-8.630719279945172,40.16106928511187
pt.ine.add.PTCONT.1107784,R PRINCIPAL,,3130-532,SOURE,-8.65387330412018,40.06660303855236
pt.ine.add.PTCONT.1107785,R PRINCIPAL,,3130-542,SOURE,-8.645134680756346,40.01098444201191
pt.ine.add.PTCONT.1107872,R HEROIS 25 DE ABRIL,,3130-243,SOURE,-8.634241892495595,40.0573503544977
pt.ine.add.PTCONT.1107889,R SANTO ANTÓNIO,,3130-061,GESTEIRA,-8.667087444630244,40.09859524913361
pt.ine.add.PTCONT.1107890,R SANTO ANTÓNIO,,3130-061,GESTEIRA,-8.666933588472414,40.098415838756566
pt.ine.add.PTCONT.1107891,BR ESTAÇÃO,,3130-256,SOURE,-8.640352148424048,40.0563150865161
pt.ine.add.PTCONT.1107935,,,3130-525,SOURE,-8.61319059106981,40.08880750060278
pt.ine.add.PTCONT.1107936,,,3130-525,SOURE,-8.612365529585626,40.088198508665954
pt.ine.add.PTCONT.1107942,R COMÉRCIO,18,3130-080,GRANJA DO ULMEIRO,-8.634313956262071,40.16305308775932
pt.ine.add.PTCONT.1107943,R COMÉRCIO,18,3130-080,GRANJA DO ULMEIRO,-8.634313956262071,40.16305308775932
pt.ine.add.PTCONT.1108004,R RIBEIRO,2,3130-132,SAMUEL,-8.697265929036911,40.089176036462916
pt.ine.add.PTCONT.1111719,R ESCOLA,,3130-546,SOURE,-8.635557016837499,40.01138660713036
pt.ine.add.PTCONT.1109725,,,3130-500,SOURE,-8.587979389451204,40.07277044947528
pt.ine.add.PTCONT.1109726,R SEM NOME,,3130-538,SOURE,-8.614850837388415,40.05818010839882
pt.ine.add.PTCONT.1109693,,,3130-517,SOURE,-8.608260146175551,40.044121839204635
pt.ine.add.PTCONT.1109694,R SOFIA,,3130-512,SOURE,-8.600710224010497,40.08988523774092
pt.ine.add.PTCONT.1109695,R S JOAO,15,3130-080,GRANJA DO ULMEIRO,-8.63333572558253,40.15771682510494
pt.ine.add.PTCONT.1109696,R PRINCIPAL,,3130-099,POMBALINHO SRE,-8.487732174951965,40.017499027091766
pt.ine.add.PTCONT.1109697,R MO E FREIXO,11,3130-040,FIGUEIRÓ DO CAMPO,-8.576503352144915,40.1469251611404
pt.ine.add.PTCONT.1109698,R GONÇALVES FILIPE,,3130-061,GESTEIRA,-8.66843066493257,40.09790459469874
pt.ine.add.PTCONT.1109699,R PRINCIPAL,,3130-099,POMBALINHO SRE,-8.485984587044694,40.01705405456103
pt.ine.add.PTCONT.1109700,R PRINCIPAL,,3130-096,POMBALINHO SRE,-8.46852329091758,40.012936061720204
pt.ine.add.PTCONT.1109701,R PRINCIPAL,7,3130-122,SAMUEL,-8.762296578436445,40.118506638581586
pt.ine.add.PTCONT.1109702,R PRINCIPAL,,3130-544,SOURE,-8.6076382448188,40.06258681509223
pt.ine.add.PTCONT.1109703,,,3130-511,SOURE,-8.610854272294276,40.03972521162284
pt.ine.add.PTCONT.1109704,R OLEIROS,5A,3130-002,ALFARELOS,-8.639040882316039,40.13725762976047
pt.ine.add.PTCONT.1109705,R PRINCIPAL,,3130-097,POMBALINHO SRE,-8.496536030070512,40.012212164037805
pt.ine.add.PTCONT.1109706,R PRINCIPAL,,3130-583,SOURE,-8.588857493180933,40.05149470195987
pt.ine.add.PTCONT.1109708,QTA DO CEGO,,3130-001,ALFARELOS,-8.645870939854625,40.15767099847973
pt.ine.add.PTCONT.1109709,R VIRGILIO DA SILVA PINHEIRO,,3130-002,ALFARELOS,-8.638325538107544,40.137314788366844
pt.ine.add.PTCONT.1109710,R JOSE GOMES DUARTE RIBEIRO,,3130-061,GESTEIRA,-8.66621108583303,40.09750055645504
pt.ine.add.PTCONT.1109711,R COSTEIRA,16,3130-080,GRANJA DO ULMEIRO,-8.630145252622548,40.1612248507776
pt.ine.add.PTCONT.1109712,R PRINCIPAL,,3130-097,POMBALINHO SRE,-8.496232703559558,40.01243826855893
pt.ine.add.PTCONT.1109713,R POCARICA,13,3130-121,SAMUEL,-8.705340241477188,40.08302136512437
pt.ine.add.PTCONT.1109714,LG MARCO,5,3130-121,SAMUEL,-8.704634914611301,40.08279969739472
pt.ine.add.PTCONT.1109715,R PROF ARISTIDES MOTA NUNES,,3130-062,GESTEIRA,-8.654725641826884,40.084602230991315
pt.ine.add.PTCONT.1109716,R TRAS,5,3130-130,SAMUEL,-8.686069433021157,40.07341549072908
pt.ine.add.PTCONT.1109717,R QUINTA,,3130-092,POMBALINHO SRE,-8.484225256180558,40.002883712278575
pt.ine.add.PTCONT.1109718,R STA CRUZ,15,3130-118,SAMUEL,-8.699966051632284,40.074014770014664
pt.ine.add.PTCONT.1109719,R FORNOS,10,3130-001,ALFARELOS,-8.652600715219751,40.15052634318606
pt.ine.add.PTCONT.1109720,R SANTILHANAS,6,3130-080,GRANJA DO ULMEIRO,-8.615048312521369,40.16096446068944
pt.ine.add.PTCONT.1109721,R SANTILHANAS,,3130-080,GRANJA DO ULMEIRO,-8.614921514657954,40.15963211596043
pt.ine.add.PTCONT.1109722,R LIBERDADE,,3130-001,ALFARELOS,-8.655967019941198,40.15179903544053
pt.ine.add.PTCONT.1109723,R 17 DE SETEMBRO,16,3130-040,FIGUEIRÓ DO CAMPO,-8.577681643070456,40.14945130737833
pt.ine.add.PTCONT.1109724,R 17 DE SETEMBRO,16,3130-040,FIGUEIRÓ DO CAMPO,-8.577681643070456,40.14945130737833
pt.ine.add.PTCONT.1109727,R SANTO AMARO,,3130-024,DEGRACIAS,-8.52852038612846,39.989456956407594
pt.ine.add.PTCONT.1109728,R PRINCIPAL,,3130-501,SOURE,-8.57162678169023,40.071059312888906
pt.ine.add.PTCONT.1109729,R CASAL,,3130-541,SOURE,-8.608671956000075,40.10166869151052
pt.ine.add.PTCONT.1109730,R PRINCIPAL,,3130-501,SOURE,-8.56397469378384,40.07149329718805
pt.ine.add.PTCONT.1109731,R LIBERDADE,12,3130-080,GRANJA DO ULMEIRO,-8.635005104154647,40.15807884275922
pt.ine.add.PTCONT.1109732,,,3130-503,SOURE,-8.60927513384802,40.09229997952343
pt.ine.add.PTCONT.1109733,R PEDARGULHAL,12,3130-001,ALFARELOS,-8.635239373460816,40.15482669858478
pt.ine.add.PTCONT.1109734,R CASQUEIRA,,3130-098,POMBALINHO SRE,-8.536990454922389,39.956456047333404
pt.ine.add.PTCONT.1109735,R CASQUEIRA,,3130-098,POMBALINHO SRE,-8.538397386458062,39.95689244235165
pt.ine.add.PTCONT.1109736,R FIGUEIRAS,,3130-541,SOURE,-8.604913633815233,40.10088252840187
pt.ine.add.PTCONT.1109737,R BAIRRO NOVO,,3130-541,SOURE,-8.604333202496015,40.09834520171557
pt.ine.add.PTCONT.1109798,R PRINCIPAL,,3130-404,VILA NOVA DE ANÇOS,-8.601551707679423,40.135641178587356
pt.ine.add.PTCONT.1109799,R PRINCIPAL,,3130-549,SOURE,-8.655934428032635,40.04334914516334
pt.ine.add.PTCONT.1109800,R COSTEIRA,,3130-513,SOURE,-8.643647786605294,40.040918258834985
pt.ine.add.PTCONT.1109801,BC OUTEIRO,,3130-384,TAPÉUS,-8.546905077145283,40.036368793806254
pt.ine.add.PTCONT.1109802,R 24 DE JUNHO,23,3130-426,VINHA DA RAINHA,-8.714476261646988,40.055750704553816
pt.ine.add.PTCONT.1109806,PC D MANUEL I,2,3130-555,SOURE,-8.626270145471064,40.05706934949078
pt.ine.add.PTCONT.1109807,R BAIXO,12,3130-432,VINHA DA RAINHA,-8.70156618073426,40.0394507787639
pt.ine.add.PTCONT.1109808,,,3130-506,SOURE,-8.649361512036053,40.06053515109621
pt.ine.add.PTCONT.1109812,AV DR ABEL NEVES,514,3130-204,SOURE,-8.62316077073244,40.05984740063719
pt.ine.add.PTCONT.1109813,URB ENCOSTA DO SOL,,3130-255,SOURE,-8.628274493267291,40.06519325933744
pt.ine.add.PTCONT.1109814,URB ENCOSTA DO SOL,,3130-255,SOURE,-8.628274493267291,40.06519325933744
pt.ine.add.PTCONT.1109815,R CAPELA,,3130-546,SOURE,-8.634199035367208,40.013076631139555
pt.ine.add.PTCONT.1109816,R OUTEIRINHO,12,3130-422,VINHA DA RAINHA,-8.709698731082511,40.06180861815778
pt.ine.add.PTCONT.1109818,SIT SENHOR DAS ALHAS,A,3130-545,SOURE,-8.63596112608825,40.0584506493101
pt.ine.add.PTCONT.1109819,,,3130-519,SOURE,-8.643176494527248,40.048431394465744
pt.ine.add.PTCONT.1109820,R DQ CADAVAL,,3130-400,VILA NOVA DE ANÇOS,-8.634773620392163,40.11224867255894
pt.ine.add.PTCONT.1109825,R VALES,,3130-585,SOURE,-8.650873753240703,40.034239710432
pt.ine.add.PTCONT.1109826,R STA MARIA,,3130-400,VILA NOVA DE ANÇOS,-8.63675317285824,40.110285786840485
pt.ine.add.PTCONT.1109827,R SACADURA CABRAL,35,3130-400,VILA NOVA DE ANÇOS,-8.637183817389372,40.10983361503179
pt.ine.add.PTCONT.1109828,R DEL REI,21,3130-400,VILA NOVA DE ANÇOS,-8.63746238190437,40.109436139747295
pt.ine.add.PTCONT.1109829,R FORNOS,18,3130-400,VILA NOVA DE ANÇOS,-8.635337559616602,40.109184199806755
pt.ine.add.PTCONT.1109832,AV CONS JOÃO MATOSO,54,3130-203,SOURE,-8.626419129914222,40.059851584627225
pt.ine.add.PTCONT.1109833,R BICA,3,3130-427,VINHA DA RAINHA,-8.705423898826533,40.05099555698003
pt.ine.add.PTCONT.1109836,,,3130-592,SOURE,-8.545231387005035,40.056125105921936
pt.ine.add.PTCONT.1109837,R DR JOÃO GOUVEIA,,3130-592,SOURE,-8.545535448787275,40.0560159510981
pt.ine.add.PTCONT.1109838,R JOÃO HENRIQUES FOJA OLIVEIRA,26,3130-434,VINHA DA RAINHA,-8.734255818798658,40.078011683421394
pt.ine.add.PTCONT.1109841,R CAPELA VELHA,,3130-520,SOURE,-8.581833665910489,40.033005606829185
pt.ine.add.PTCONT.1109859,R D MANUEL I,32,3130-400,VILA NOVA DE ANÇOS,-8.634037356875266,40.11101804197246
pt.ine.add.PTCONT.1109874,R TERREIRO,,3130-434,VINHA DA RAINHA,-8.727753640231171,40.0717860743057
pt.ine.add.PTCONT.1109875,R PRINCIPAL,24,3130-046,FIGUEIRÓ DO CAMPO,-8.602396876975488,40.135691792312414
pt.ine.add.PTCONT.1109888,LG COMBATENTES DA GRANDE GUERRA,14,3130-001,ALFARELOS,-8.651629547469627,40.149368934722915
pt.ine.add.PTCONT.1109914,R FONTE,3,3130-114,SAMUEL,-8.723105266807128,40.11180536910672
pt.ine.add.PTCONT.1109920,R EVANGELISTA PEREIRA,,3130-061,GESTEIRA,-8.666002595822269,40.09482673922384
pt.ine.add.PTCONT.1109932,ESTR PRINCIPAL,,3130-514,SOURE,-8.6226288806501,40.08869595127333
pt.ine.add.PTCONT.1109948,R FORNOS,9,3130-001,ALFARELOS,-8.652470044040733,40.150319793619154
pt.ine.add.PTCONT.1109954,R PRINCIPAL,,3130-537,SOURE,-8.60663753644708,40.021298032909066
pt.ine.add.PTCONT.1109968,CSL ALMEIDA,,3130-423,VINHA DA RAINHA,-8.692780649671738,40.0483284881827
pt.ine.add.PTCONT.1109998,R ESCOLA,7,3130-116,SAMUEL,-8.691342237666564,40.10468600485973
pt.ine.add.PTCONT.1110035,R ASSOCIAÇÃO,,3130-541,SOURE,-8.60551556284071,40.098043187784256
pt.ine.add.PTCONT.1110060,,,3130-555,SOURE,-8.613615675852037,40.0892290203268
pt.ine.add.PTCONT.1110182,TV ARCO,5,3130-553,SOURE,-8.626393642073324,40.05794241072791
pt.ine.add.PTCONT.1110183,TV ARCO,5,3130-553,SOURE,-8.626393642073324,40.05794241072791
pt.ine.add.PTCONT.1110196,R HEROIS DE ABRIL,6,3130-046,FIGUEIRÓ DO CAMPO,-8.603783032603637,40.13762244253083
pt.ine.add.PTCONT.1111621,R ALAGOAS,8,3130-040,FIGUEIRÓ DO CAMPO,-8.579047905686952,40.14660918853566
pt.ine.add.PTCONT.1111622,R PRINCIPAL 4,,3130-083,POMBALINHO SRE,-8.501732754936448,40.020247240962696
pt.ine.add.PTCONT.1111623,R 17 DE DEZEMBRO,,3130-541,SOURE,-8.606799671418687,40.10057763299494
pt.ine.add.PTCONT.1111624,R OUTEIRO,,3130-010,BRUNHÓS,-8.669737864155815,40.116513873173595
pt.ine.add.PTCONT.1111625,BC MIRADOURO,4,3130-122,SAMUEL,-8.759898948277046,40.11928514272942
pt.ine.add.PTCONT.1111626,R PRINCIPAL,,3130-550,SOURE,-8.611935798096486,40.065352000822806
pt.ine.add.PTCONT.1111627,R 25 DE ABRIL,,3130-002,ALFARELOS,-8.638904238803486,40.139401636396094
pt.ine.add.PTCONT.1111628,CSL FACHO,,3130-040,FIGUEIRÓ DO CAMPO,-8.584051821467664,40.143752943836155
pt.ine.add.PTCONT.1111629,R TENCHUAL,104,3130-080,GRANJA DO ULMEIRO,-8.628128819277542,40.15025529845837
pt.ine.add.PTCONT.1111630,TV VENTO,,3130-022,DEGRACIAS,-8.519095238971692,40.01238238968645
pt.ine.add.PTCONT.1111631,R S JOSE,,3130-061,GESTEIRA,-8.670003032930328,40.09802340081352
pt.ine.add.PTCONT.1111632,,,3130-511,SOURE,-8.60904661655216,40.040948471726196
pt.ine.add.PTCONT.1111634,R EVANGELISTA PEREIRA CASA DO OUTEIAO,,3130-061,GESTEIRA,-8.666378338468208,40.096392050953874
pt.ine.add.PTCONT.1111635,,,3130-511,SOURE,-8.607919156785101,40.04057484189147
pt.ine.add.PTCONT.1111636,R FONTE DO POVO,,3130-002,ALFARELOS,-8.635789636124976,40.137127693669356
pt.ine.add.PTCONT.1111637,R PENEDO,,3130-091,POMBALINHO SRE,-8.429484985753069,40.002072962380325
pt.ine.add.PTCONT.1111638,R PRINCIPAL,34,3130-117,SAMUEL,-8.73650085766502,40.10124442761865
pt.ine.add.PTCONT.1111639,R FONTE,,3130-539,SOURE,-8.597483070854663,40.05153250044538
pt.ine.add.PTCONT.1111640,TV QUINTA DO RIBEIRO,,3130-539,SOURE,-8.596672821243159,40.051292581253584
pt.ine.add.PTCONT.1111641,R REQUEIXO,,3130-062,GESTEIRA,-8.655295254026363,40.083960238449464
pt.ine.add.PTCONT.1111642,R CASAL,,3130-092,POMBALINHO SRE,-8.486335351139427,40.00557014298138
pt.ine.add.PTCONT.1111645,R PRINCIPAL,,3130-095,POMBALINHO SRE,-8.49022517721431,39.992400208141014
pt.ine.add.PTCONT.1111646,,,3130-509,SOURE,-8.642257074194685,40.0729048561923
pt.ine.add.PTCONT.1111647,R PADRE CURADO,16,3130-127,SAMUEL,-8.71752890180029,40.09753218480508
pt.ine.add.PTCONT.1111648,R LIBERDADE,60,3130-001,ALFARELOS,-8.655206525532774,40.152108667460396
pt.ine.add.PTCONT.1111649,R ESTRADA LARGA,9,3130-080,GRANJA DO ULMEIRO,-8.636360898608324,40.16171609379145
pt.ine.add.PTCONT.1111650,R PRINCIPAL,,3130-095,POMBALINHO SRE,-8.49610997370122,39.98926578817035
pt.ine.add.PTCONT.1111651,R FONTE,,3130-532,SOURE,-8.654923817865985,40.069092981485525
pt.ine.add.PTCONT.1111652,R BARROCO,,3130-095,POMBALINHO SRE,-8.498896409866925,39.98703250027935
pt.ine.add.PTCONT.1111653,R OUTEIRO,1,3130-112,SAMUEL,-8.732731050676207,40.0832790828719
pt.ine.add.PTCONT.1111654,R FERNANDO MARQUES DUARTE SANTOS,14 A,3130-196,SOURE,-8.620608796559791,40.06192955783812
pt.ine.add.PTCONT.1111655,R IGREJA,30,3130-040,FIGUEIRÓ DO CAMPO,-8.578501643754604,40.147421824011296
pt.ine.add.PTCONT.1111656,R PRINCIPAL,,3130-063,GESTEIRA,-8.655432372869823,40.07888923815325
pt.ine.add.PTCONT.1111657,R PRINCIPAL,,3130-541,SOURE,-8.603713165147562,40.10196813068257
pt.ine.add.PTCONT.1111658,R PRINCIPAL,,3130-094,POMBALINHO SRE,-8.535944906411357,39.96375472476427
pt.ine.add.PTCONT.1111659,,,3130-532,SOURE,-8.655313305645699,40.06330034863277
pt.ine.add.PTCONT.1111660,R PRINCIPAL,,3130-563,SOURE,-8.594265150422105,40.07137668073708
pt.ine.add.PTCONT.1111661,R PRINCIPAL,22,3130-043,FIGUEIRÓ DO CAMPO,-8.608572578488577,40.15980245514483
pt.ine.add.PTCONT.1111665,BR SAUDADE,,3130-209,SOURE,-8.624826597380395,40.06168658206956
pt.ine.add.PTCONT.1111707,R FORNOS,18,3130-237,SOURE,-8.626903319187246,40.05873277195647
pt.ine.add.PTCONT.1111708,R FORNOS,18,3130-237,SOURE,-8.626903319187246,40.05873277195647
pt.ine.add.PTCONT.1111709,BC BARREIRO,,3130-381,TAPÉUS,-8.5315804817293,40.03649455500844
pt.ine.add.PTCONT.1111710,R GAGO COUTINHO,46,3130-400,VILA NOVA DE ANÇOS,-8.635971155514259,40.10602936064694
pt.ine.add.PTCONT.1111711,R PRINCIPAL,,3130-433,VINHA DA RAINHA,-8.728128318516072,40.06365172420713
pt.ine.add.PTCONT.1111714,R PRINCIPAL,59,3130-423,VINHA DA RAINHA,-8.7235702472944,40.06110832953677
pt.ine.add.PTCONT.1111715,R PRINCIPAL,57,3130-423,VINHA DA RAINHA,-8.724299628540066,40.061419820590295
pt.ine.add.PTCONT.1111716,R PRINCIPAL,70,3130-433,VINHA DA RAINHA,-8.724248933595803,40.06097878427559
pt.ine.add.PTCONT.1111718,,,3130-519,SOURE,-8.647030413396006,40.051350339234126
pt.ine.add.PTCONT.1111720,R ESCOLA,,3130-548,SOURE,-8.643271080375719,40.03596657583342
pt.ine.add.PTCONT.1111721,R CAPELA,,3130-389,TAPÉUS,-8.547125596315887,40.02827151541901
pt.ine.add.PTCONT.1111724,R ASSOCIAÇÃO,,3130-507,SOURE,-8.630555533357215,40.00488774772815
pt.ine.add.PTCONT.1111732,R OUTEIRO,26,3130-234,SOURE,-8.627549093871686,40.05889212668272
pt.ine.add.PTCONT.1111733,,,3130-543,SOURE,-8.545340016169037,40.06053769256708
pt.ine.add.PTCONT.1111734,R SENHOR,50,3130-400,VILA NOVA DE ANÇOS,-8.636354191744523,40.110260503201474
pt.ine.add.PTCONT.1111736,R PRINCIPAL,,3130-421,VINHA DA RAINHA,-8.695758613524868,40.04850319203372
pt.ine.add.PTCONT.1111737,R BELINAS,6,3130-421,VINHA DA RAINHA,-8.698674428124539,40.048245832431896
pt.ine.add.PTCONT.1111741,R JOAO HENRIQUES FOJA OLIVEIRA,7,3130-434,VINHA DA RAINHA,-8.73548708302441,40.07405165594752
pt.ine.add.PTCONT.1111742,R BICA,5,3130-427,VINHA DA RAINHA,-8.706056928353792,40.05101944642951
pt.ine.add.PTCONT.1111748,R ENG HENRIQUE FERNANDES RUAS,27,3130-400,VILA NOVA DE ANÇOS,-8.637595674976108,40.10842689070299
pt.ine.add.PTCONT.1111750,R PRINCIPAL,,3130-548,SOURE,-8.64522717620781,40.02649254914918
pt.ine.add.PTCONT.1111815,R CANTO,,3130-528,SOURE,-8.601216489075425,40.078202390233294
pt.ine.add.PTCONT.1111820,R FLORES,,3130-061,GESTEIRA,-8.667928978005182,40.096736134879535
pt.ine.add.PTCONT.1111822,R PRINCIPAL,74,3130-433,VINHA DA RAINHA,-8.72249687352476,40.060321265214846
pt.ine.add.PTCONT.1111836,R S BENTO,,3130-095,POMBALINHO SRE,-8.493561665670317,39.99005727902794
pt.ine.add.PTCONT.1111900,R PRINCIPAL,,3130-548,SOURE,-8.64522717620781,40.02649254914918
pt.ine.add.PTCONT.1111903,R CAPELA,L,3130-116,SAMUEL,-8.693856426088454,40.105214217750145
pt.ine.add.PTCONT.1111911,R ESTAÇÃO,36,3130-080,GRANJA DO ULMEIRO,-8.637756980700443,40.16196643219443
pt.ine.add.PTCONT.1111912,R ESTAÇÃO,36,3130-080,GRANJA DO ULMEIRO,-8.637756980700443,40.16196643219443
pt.ine.add.PTCONT.1111913,R ESTAÇÃO,36,3130-080,GRANJA DO ULMEIRO,-8.637756980700443,40.16196643219443
pt.ine.add.PTCONT.1111914,R ESTAÇÃO,36,3130-080,GRANJA DO ULMEIRO,-8.637756980700443,40.16196643219443
pt.ine.add.PTCONT.1111915,R ESTAÇÃO,36,3130-080,GRANJA DO ULMEIRO,-8.637756980700443,40.16196643219443
pt.ine.add.PTCONT.1111916,R ESTAÇÃO,36,3130-080,GRANJA DO ULMEIRO,-8.637756980700443,40.16196643219443
pt.ine.add.PTCONT.1111917,R ESTAÇÃO,36,3130-080,GRANJA DO ULMEIRO,-8.637756980700443,40.16196643219443
pt.ine.add.PTCONT.1111918,R ESTAÇÃO,36,3130-080,GRANJA DO ULMEIRO,-8.637756980700443,40.16196643219443
pt.ine.add.PTCONT.1111919,R ESTAÇÃO,36,3130-080,GRANJA DO ULMEIRO,-8.637756980700443,40.16196643219443
pt.ine.add.PTCONT.1111920,R ESTAÇÃO,36,3130-080,GRANJA DO ULMEIRO,-8.637756980700443,40.16196643219443
pt.ine.add.PTCONT.1111921,R ESTAÇÃO,36,3130-080,GRANJA DO ULMEIRO,-8.637756980700443,40.16196643219443
pt.ine.add.PTCONT.1111922,R ESTAÇÃO,36,3130-080,GRANJA DO ULMEIRO,-8.637756980700443,40.16196643219443
pt.ine.add.PTCONT.1111923,R ESTAÇÃO,36,3130-080,GRANJA DO ULMEIRO,-8.637756980700443,40.16196643219443
pt.ine.add.PTCONT.1111924,R ESTAÇÃO,36,3130-080,GRANJA DO ULMEIRO,-8.637756980700443,40.16196643219443
pt.ine.add.PTCONT.1112760,BC EIRA,2,3130-110,SAMUEL,-8.68681749133459,40.055769114143494
pt.ine.add.PTCONT.1112761,R S SEBASTIÃO,,3130-588,SOURE,-8.59867505160281,40.1095625224237
pt.ine.add.PTCONT.1112762,R 17 DE DEZEMBRO,,3130-521,SOURE,-8.607824262156397,40.10119485151077
pt.ine.add.PTCONT.1112763,TV QUINTAIS,,3130-541,SOURE,-8.603136471966385,40.10167327473087
pt.ine.add.PTCONT.1112764,R FIGUEIRAS,,3130-541,SOURE,-8.605464693389836,40.100862270476014
pt.ine.add.PTCONT.1112765,R AMEAIS,,3130-567,SOURE,-8.585599021569003,40.0850729987136
pt.ine.add.PTCONT.1112826,,,3130-509,SOURE,-8.642551544733223,40.0730926881128
pt.ine.add.PTCONT.1112827,R PRINCIPAL,,3130-509,SOURE,-8.644047271098621,40.069312576074964
pt.ine.add.PTCONT.1112828,R PRINCIPAL,,3130-532,SOURE,-8.653819356083927,40.06567565981531
pt.ine.add.PTCONT.1112829,R PRINCIPAL,,3130-532,SOURE,-8.653940683078382,40.066215476329035
pt.ine.add.PTCONT.1112830,,,3130-526,SOURE,-8.620951261347077,40.08528975204413
pt.ine.add.PTCONT.1112912,R PRINCIPAL,,3130-583,SOURE,-8.588553161937577,40.05154993507119
pt.ine.add.PTCONT.1112913,R CANTO,,3130-539,SOURE,-8.599824558718073,40.0494697085832
pt.ine.add.PTCONT.1112996,R SEM NOME,,3130-538,SOURE,-8.625377165424599,40.0551278394958
pt.ine.add.PTCONT.1112997,QTA COUTADA,,3130-538,SOURE,-8.625377165424599,40.0551278394958
pt.ine.add.PTCONT.1112998,R CORREDORA,,3130-538,SOURE,-8.625372872065508,40.051273264819585
pt.ine.add.PTCONT.1112999,R SEM NOME,,3130-574,SOURE,-8.61465132272658,40.053146552012876
pt.ine.add.PTCONT.1113000,ESTR PINHEIRO,,3130-550,SOURE,-8.614280927587261,40.06213613267244
pt.ine.add.PTCONT.1113063,AV DR ABEL NEVES,,3130-204,SOURE,-8.623905285125915,40.060699823604125
pt.ine.add.PTCONT.1113064,AV DR ABEL NEVES,,3130-204,SOURE,-8.623905285125915,40.060699823604125
pt.ine.add.PTCONT.1113065,AV DR ABEL NEVES,,3130-204,SOURE,-8.623905285125915,40.060699823604125
pt.ine.add.PTCONT.1113066,AV DR ABEL NEVES,,3130-204,SOURE,-8.623905285125915,40.060699823604125
pt.ine.add.PTCONT.1113067,AV DR ABEL NEVES,,3130-204,SOURE,-8.623905285125915,40.060699823604125
pt.ine.add.PTCONT.1113068,AV DR ABEL NEVES,,3130-204,SOURE,-8.623905285125915,40.060699823604125
pt.ine.add.PTCONT.1113069,AV DR ABEL NEVES,,3130-204,SOURE,-8.623905285125915,40.060699823604125
pt.ine.add.PTCONT.1113070,AV DR ABEL NEVES,,3130-204,SOURE,-8.623905285125915,40.060699823604125
pt.ine.add.PTCONT.1113071,ALTO DA DOUROANA,,3130-201,SOURE,-8.626864285105624,40.06144375852664
pt.ine.add.PTCONT.1113072,R MORAIS PINTO,73,3130-247,SOURE,-8.626977198799167,40.06084887824649
pt.ine.add.PTCONT.1113150,R LEVADA,23-25,3130-225,SOURE,-8.625687545914504,40.059170237688214
pt.ine.add.PTCONT.1113151,R TRAS DA MISERICÓRDIA,15,3130-230,SOURE,-8.625804617514062,40.059151727787686
pt.ine.add.PTCONT.1113152,R MISERICÓRDIA,10,3130-210,SOURE,-8.625980419452558,40.05915098003421
pt.ine.add.PTCONT.1113153,R ALEXANDRE HERCULANO,8,3130-219,SOURE,-8.626553991155076,40.05904947202052
pt.ine.add.PTCONT.1113237,,,3130-592,SOURE,-8.547078201456562,40.05530797551844
pt.ine.add.PTCONT.1113238,R SANTO ILDEFONSO,,3130-386,SOURE,-8.558682465956176,40.03672240530217
pt.ine.add.PTCONT.1113239,TV FERREIROS,15,3130-262,SOURE,-8.626851368966012,40.0580305214734
pt.ine.add.PTCONT.1113319,R 25 ABRIL,37,3130-001,ALFARELOS,-8.649672911046022,40.154448001373915
pt.ine.add.PTCONT.1113320,R ALMINHAS,CASA 2,3130-002,ALFARELOS,-8.63470141370015,40.13594362996405
pt.ine.add.PTCONT.1113321,R NOVA,,3130-022,DEGRACIAS,-8.523447983982935,40.007513497472274
pt.ine.add.PTCONT.1113322,R CASAL DE BAIXO,,3130-520,SOURE,-8.58186152419465,40.03368095635296
pt.ine.add.PTCONT.1113323,R CAPELA VELHA,,3130-520,SOURE,-8.5807413948765,40.03259555088244
pt.ine.add.PTCONT.1113324,R CASAL DE ALEM,,3130-520,SOURE,-8.578462874792178,40.03173073866801
pt.ine.add.PTCONT.1113325,R ESCOLA,,3130-546,SOURE,-8.634620588964685,40.01146271225685
pt.ine.add.PTCONT.1113326,R FONTE DO SERRANO,,3130-510,SOURE,-8.62871168192439,39.99769073710876
pt.ine.add.PTCONT.1113327,R PRINCIPAL,,3130-542,SOURE,-8.645231067834326,40.01134426085288
pt.ine.add.PTCONT.1113403,R CASTELO,,3130-020,DEGRACIAS,-8.53245320339989,40.005321341171204
pt.ine.add.PTCONT.1113404,R OLI VEIRA DO SENHOR,1,3130-048,FIGUEIRÓ DO CAMPO,-8.59814652212925,40.157656364565526
pt.ine.add.PTCONT.1113405,R RELVÃO,,3130-530,SOURE,-8.606480925903286,40.02575669647337
pt.ine.add.PTCONT.1113406,R CALDEIROS,,3130-546,SOURE,-8.628073797674753,40.01151787685229
pt.ine.add.PTCONT.1113473,R BAIXO,,3130-066,GESTEIRA,-8.6816873758082,40.08246934840467
pt.ine.add.PTCONT.1113470,R ESTRADA NACIONAL,12,3130-040,FIGUEIRÓ DO CAMPO,-8.574672808440296,40.14876936417746
pt.ine.add.PTCONT.1113471,R S JOÃO,,3130-060,GESTEIRA,-8.672486003147922,40.08573670505189
pt.ine.add.PTCONT.1113472,R S JOÃO,,3130-060,GESTEIRA,-8.672486003147922,40.08573670505189
pt.ine.add.PTCONT.1113532,R FONTE,,3130-063,GESTEIRA,-8.655108586046941,40.07947608832671
pt.ine.add.PTCONT.1113533,R ESCOLA,,3130-064,GESTEIRA,-8.67096804086967,40.05524037253075
pt.ine.add.PTCONT.1113534,R FONTE VELHA,28,3130-400,VILA NOVA DE ANÇOS,-8.630708332144254,40.10969950889438
pt.ine.add.PTCONT.1113535,R N S DE FINISTERRA,41,3130-400,VILA NOVA DE ANÇOS,-8.634077929890449,40.11015329362116
pt.ine.add.PTCONT.1113618,R BAIRRO NOVO,20,3130-080,GRANJA DO ULMEIRO,-8.63163993991142,40.16337083211554
pt.ine.add.PTCONT.1113619,R BAIRRO NOVO,18,3130-080,GRANJA DO ULMEIRO,-8.633359677944892,40.16257990264801
pt.ine.add.PTCONT.1113620,R DORMITORIO,,3130-080,GRANJA DO ULMEIRO,-8.633340856745093,40.16481344351588
pt.ine.add.PTCONT.1113621,R DORMITORIO,46,3130-080,GRANJA DO ULMEIRO,-8.633340856745093,40.16481344351588
pt.ine.add.PTCONT.1113622,,,3130-081,GRANJA DO ULMEIRO,-8.627950310739509,40.161234252154074
pt.ine.add.PTCONT.1113623,R TERREIRO,7,3130-434,VINHA DA RAINHA,-8.73037340940661,40.07243003546173
pt.ine.add.PTCONT.1113624,R NSA SRA DO ROSÁRIO DO PRANTO,9,3130-434,VINHA DA RAINHA,-8.730623427943335,40.07152814599399
pt.ine.add.PTCONT.1113625,R PRINCIPAL,7,3130-421,VINHA DA RAINHA,-8.702336710198244,40.05179429108901
pt.ine.add.PTCONT.1113626,R ALEITOA,,3130-421,VINHA DA RAINHA,-8.697960345549815,40.05117628060689
pt.ine.add.PTCONT.1113627,R ALEITOA,,3130-421,VINHA DA RAINHA,-8.697609158207982,40.05122302241022
pt.ine.add.PTCONT.1113701,R BOA UNIAO,32,3130-080,GRANJA DO ULMEIRO,-8.63313538053303,40.160806711479125
pt.ine.add.PTCONT.1113702,R CANTO ADEMIA,N 2,3130-080,GRANJA DO ULMEIRO,-8.631360438654182,40.16046313322182
pt.ine.add.PTCONT.1113703,R NSA SRA DA VIDA,10,3130-080,GRANJA DO ULMEIRO,-8.635945842716396,40.161496999717116
pt.ine.add.PTCONT.1113704,R 13 DE JUNHO,37,3130-423,VINHA DA RAINHA,-8.6954491827615,40.04507338903337
pt.ine.add.PTCONT.1113705,R 25 DE MAIO,2,3130-429,VINHA DA RAINHA,-8.706581619600968,40.04091206391763
pt.ine.add.PTCONT.1113786,R BAIRRO DOS BARREIROS,,3130-080,GRANJA DO ULMEIRO,-8.636162345100873,40.160613482196325
pt.ine.add.PTCONT.1113787,R PRINCIPAL 1,,3130-083,POMBALINHO SRE,-8.495965936201479,40.01735645881576
pt.ine.add.PTCONT.1113788,R PEDROS,,3130-099,POMBALINHO SRE,-8.487600999621604,40.017049121330224
pt.ine.add.PTCONT.1113861,R FONTE,7,3130-114,SAMUEL,-8.722697863275531,40.112167681442074
pt.ine.add.PTCONT.1113926,R VIEIRA,2,3130-121,SAMUEL,-8.704572755543758,40.08237672239862
pt.ine.add.PTCONT.1113862,R PADRE CURADO,26,3130-127,SAMUEL,-8.717781941815492,40.098323432765106
pt.ine.add.PTCONT.1113923,BC ESQUINA,6,3130-131,SAMUEL,-8.694937819392791,40.08644851215346
pt.ine.add.PTCONT.1113924,R S SEBASTIÃO,3,3130-119,SAMUEL,-8.709303898052452,40.08589263969157
pt.ine.add.PTCONT.1113925,R POCARICA,28,3130-121,SAMUEL,-8.705468301267604,40.08291266055204
pt.ine.add.PTCONT.1113948,R PRINCIPAL,,3130-583,SOURE,-8.587191798242667,40.0512580781662
pt.ine.add.PTCONT.1113962,R PRINCIPAL,,3130-558,SOURE,-8.60339142427624,40.0688543262644
pt.ine.add.PTCONT.1113965,R ESTRADA NACIONAL,12,3130-040,FIGUEIRÓ DO CAMPO,-8.574672808440296,40.14876936417746
pt.ine.add.PTCONT.1113970,R SEM NOME,,3130-538,SOURE,-8.625377165424599,40.0551278394958
pt.ine.add.PTCONT.1113996,R PENEDO,,3130-097,POMBALINHO SRE,-8.497261617970645,40.01210181258222
pt.ine.add.PTCONT.1114000,,,3130-562,SOURE,-8.610673499959399,40.07426418061734
pt.ine.add.PTCONT.1114035,R PRINCIPAL SN,SN,3130-509,SOURE,-8.646040386031597,40.07248289571232
pt.ine.add.PTCONT.1114050,R SEM NOME,,3130-538,SOURE,-8.625377165424599,40.0551278394958
pt.ine.add.PTCONT.1114058,AV DR ABEL NEVES,,3130-204,SOURE,-8.623905285125915,40.060699823604125
pt.ine.add.PTCONT.1114153,R FONTE,4,3130-116,SAMUEL,-8.694847890303778,40.104551978320615
pt.ine.add.PTCONT.1114167,R SANTO ANTÓNIO,,3130-585,SOURE,-8.648554712104414,40.03589816228273
pt.ine.add.PTCONT.1114342,R PRINCIPAL,1,3130-044,FIGUEIRÓ DO CAMPO,-8.593206977839467,40.15446098903703
pt.ine.add.PTCONT.1114343,R PRINCIPAL,1,3130-044,FIGUEIRÓ DO CAMPO,-8.593206977839467,40.15446098903703
pt.ine.add.PTCONT.1115782,R FERNANDO MARQUES DUARTE SANTOS,,3130-196,SOURE,-8.621320732861934,40.06150327576964
pt.ine.add.PTCONT.1115783,R PRINCIPAL,,3130-064,GESTEIRA,-8.671086544339971,40.053915933742175
pt.ine.add.PTCONT.1115784,R PRINCIPAL 1,,3130-083,POMBALINHO SRE,-8.495405891856885,40.01555698267175
pt.ine.add.PTCONT.1115785,R CARVALHOSA,,3130-098,POMBALINHO SRE,-8.535099092304943,39.955228767833425
pt.ine.add.PTCONT.1115786,R CARVALHOSA,,3130-098,POMBALINHO SRE,-8.534852601721383,39.95510353506652
pt.ine.add.PTCONT.1115787,R PRINCIPAL,,3130-544,SOURE,-8.606010803807585,40.062845638845026
pt.ine.add.PTCONT.1115788,R ALAGOAS,11,3130-040,FIGUEIRÓ DO CAMPO,-8.578649496406445,40.1467007813732
pt.ine.add.PTCONT.1115789,R OUTEIRO DAS EIRAS,,3130-061,GESTEIRA,-8.669233669981212,40.1001073449993
pt.ine.add.PTCONT.1115790,R OUTEIRO DAS EIRAS,,3130-061,GESTEIRA,-8.669233669981212,40.1001073449993
pt.ine.add.PTCONT.1115791,R RELVA,,3130-099,POMBALINHO SRE,-8.484286089768858,40.01704120173285
pt.ine.add.PTCONT.1115792,ESTR PRINCIPAL,,3130-511,SOURE,-8.614040266454387,40.044575313750144
pt.ine.add.PTCONT.1115794,R PRINCIPAL,16,3130-041,FIGUEIRÓ DO CAMPO,-8.59882967313427,40.158004849047074
pt.ine.add.PTCONT.1115795,R BAIXA DE S ANA,2,3130-040,FIGUEIRÓ DO CAMPO,-8.575151517746178,40.14657909845245
pt.ine.add.PTCONT.1115796,R GONÇALVES FILIPE,,3130-061,GESTEIRA,-8.668335792968229,40.09776994344304
pt.ine.add.PTCONT.1115798,,,3130-511,SOURE,-8.61180622959178,40.04181069339982
pt.ine.add.PTCONT.1115799,R PRINCIPAL,,3130-511,SOURE,-8.61248935827155,40.0423122095234
pt.ine.add.PTCONT.1115800,ESTR PRINCIPAL,,3130-514,SOURE,-8.625115930517042,40.090495620799025
pt.ine.add.PTCONT.1115801,R FLORES,,3130-514,SOURE,-8.626215203326504,40.09008567642257
pt.ine.add.PTCONT.1115802,R MOUROS,,3130-022,DEGRACIAS,-8.52261846683335,40.007867528250884
pt.ine.add.PTCONT.1115803,R NOVA,,3130-022,DEGRACIAS,-8.52285141675044,40.007641591330454
pt.ine.add.PTCONT.1115804,R CASAL DAS FIGUEIRAS,,3130-509,SOURE,-8.644324131578928,40.073418102353486
pt.ine.add.PTCONT.1115805,ESTR VALA NOVA,,3130-509,SOURE,-8.642882795942594,40.07349650197856
pt.ine.add.PTCONT.1115806,,,3130-526,SOURE,-8.621407156413685,40.086737798540184
pt.ine.add.PTCONT.1115807,R CAMPO FUTEBOL,2,3130-001,ALFARELOS,-8.636363386116905,40.15604662087454
pt.ine.add.PTCONT.1115808,R ALTO,7,3130-044,FIGUEIRÓ DO CAMPO,-8.593541073381408,40.15353205237598
pt.ine.add.PTCONT.1115809,R RECHIO E SELADAS,,3130-092,POMBALINHO SRE,-8.487135699845613,40.00407267813604
pt.ine.add.PTCONT.1115810,R PRINCIPAL,,3130-508,SOURE,-8.598332331601897,40.073017529643394
pt.ine.add.PTCONT.1115811,R PRINCIPAL,,3130-508,SOURE,-8.601334357645603,40.07144739120551
pt.ine.add.PTCONT.1115813,R PARREIRAS,17,3130-001,ALFARELOS,-8.652132449694708,40.15068154335907
pt.ine.add.PTCONT.1115814,R FIGUEIRAS,,3130-020,DEGRACIAS,-8.535014230062876,40.00468205758795
pt.ine.add.PTCONT.1115815,R PORTELA,,3130-539,SOURE,-8.596789586597254,40.04777074048116
pt.ine.add.PTCONT.1115816,R CABECAS,21,3130-001,ALFARELOS,-8.65737720750488,40.15203581845658
pt.ine.add.PTCONT.1115817,LG S JORGE,,3130-020,DEGRACIAS,-8.533651601317079,40.003975288798046
pt.ine.add.PTCONT.1115818,R 8 DE DEZEMBRO,,3130-062,GESTEIRA,-8.658742452474353,40.08092763606116
pt.ine.add.PTCONT.1115819,,,3130-115,SAMUEL,-8.692857988605581,40.077831855773496
pt.ine.add.PTCONT.1115820,R PRINCIPAL,,3130-566,SOURE,-8.55710344468069,40.07309470660263
pt.ine.add.PTCONT.1115821,R DORMITORIO SN,SN,3130-080,GRANJA DO ULMEIRO,-8.63375143143491,40.16477564541926
pt.ine.add.PTCONT.1115822,R SEM NOME,,3130-574,SOURE,-8.615566747567208,40.053331870971796
pt.ine.add.PTCONT.1115823,R TEN JOSE BEATO,8,3130-001,ALFARELOS,-8.653991521379268,40.15130360850755
pt.ine.add.PTCONT.1115824,R PARREIRAS,6,3130-001,ALFARELOS,-8.652069452527124,40.15011445392546
pt.ine.add.PTCONT.1115825,R FIRMINO RIBEIRO DA FONSECA,4,3130-001,ALFARELOS,-8.657241188403436,40.15113584439082
pt.ine.add.PTCONT.1115826,R OUTEIRO,,3130-541,SOURE,-8.605434824614964,40.09993477533917
pt.ine.add.PTCONT.1115827,R OUTEIRO,,3130-541,SOURE,-8.605434824614964,40.09993477533917
pt.ine.add.PTCONT.1115828,BR SAUDADE,,3130-209,SOURE,-8.62401346140024,40.062707713408635
pt.ine.add.PTCONT.1115830,R PRINCIPAL,,3130-064,GESTEIRA,-8.670862394078988,40.05372784736549
pt.ine.add.PTCONT.1115831,R CAMPO DE FUTEBOL,19,3130-080,GRANJA DO ULMEIRO,-8.637867689623908,40.15789528731529
pt.ine.add.PTCONT.1115898,R S CRISTÓVÃO,,3130-546,SOURE,-8.629121834876074,40.0122969284998
pt.ine.add.PTCONT.1115899,R GAGO COUTINHO,,3130-400,VILA NOVA DE ANÇOS,-8.636183802323545,40.10782963172734
pt.ine.add.PTCONT.1115900,R PRINCIPAL,21,3130-428,VINHA DA RAINHA,-8.725912138497952,40.05137886655334
pt.ine.add.PTCONT.1115902,R ALEXANDRE HERCULANO,77,3130-219,SOURE,-8.62617167756611,40.058042422126015
pt.ine.add.PTCONT.1115903,R PRINCIPAL,67,3130-404,VILA NOVA DE ANÇOS,-8.610940611346294,40.13425192854789
pt.ine.add.PTCONT.1115904,R 13 DE JUNHO,45,3130-423,VINHA DA RAINHA,-8.697684492552545,40.04472929470699
pt.ine.add.PTCONT.1115907,R HORTAS,6,3130-423,VINHA DA RAINHA,-8.699749621125598,40.04364749327705
pt.ine.add.PTCONT.1115911,R EVARISANTO CARVALHO PAI,16,3130-241,SOURE,-8.62635692390798,40.057726421836726
pt.ine.add.PTCONT.1115912,R STA LUZIA,,3130-513,SOURE,-8.644140186896594,40.03938505562715
pt.ine.add.PTCONT.1115913,R PRINCIPAL,,3130-388,TAPÉUS,-8.561075150909792,40.03524559870112
pt.ine.add.PTCONT.1115914,URB POMBAL,5,3130-400,VILA NOVA DE ANÇOS,-8.628619464934879,40.1111674312935
pt.ine.add.PTCONT.1115915,R PRINCIPAL,26,3130-428,VINHA DA RAINHA,-8.727031105377595,40.05067967123578
pt.ine.add.PTCONT.1115917,R CANTO,,3130-389,TAPÉUS,-8.547443099248927,40.028468515097536
pt.ine.add.PTCONT.1115918,TV PASSAL,7,3130-400,VILA NOVA DE ANÇOS,-8.632558183609172,40.11084431063866
pt.ine.add.PTCONT.1115919,BC COIMBRAS,,3130-425,VINHA DA RAINHA,-8.718833977709464,40.034969819227065
pt.ine.add.PTCONT.1115920,R ESCOLA,,3130-546,SOURE,-8.634983857381267,40.01148815800956
pt.ine.add.PTCONT.1115921,R BARJA,,3130-380,TAPÉUS,-8.556792723043323,40.02860582369502
pt.ine.add.PTCONT.1115922,R 25 DE MAIO,,3130-429,VINHA DA RAINHA,-8.710096375158395,40.036688785399505
pt.ine.add.PTCONT.1115925,CAM MUNICIPAL 1118,,3130-519,SOURE,-8.644682083380802,40.05074831990474
pt.ine.add.PTCONT.1115926,TV CARREIRA,2,3130-429,VINHA DA RAINHA,-8.71124899042487,40.03027072065994
pt.ine.add.PTCONT.1115927,URB ENCOSTA DO SOL,,3130-255,SOURE,-8.6273218181697,40.06636811222656
pt.ine.add.PTCONT.1115928,URB ENCOSTA DO SOL,,3130-255,SOURE,-8.6273218181697,40.06636811222656
pt.ine.add.PTCONT.1115929,URB ENCOSTA DO SOL,,3130-255,SOURE,-8.6273218181697,40.06636811222656
pt.ine.add.PTCONT.1115930,URB ENCOSTA DO SOL,,3130-255,SOURE,-8.6273218181697,40.06636811222656
pt.ine.add.PTCONT.1115931,URB ENCOSTA DO SOL,,3130-255,SOURE,-8.6273218181697,40.06636811222656
pt.ine.add.PTCONT.1115932,URB ENCOSTA DO SOL,,3130-255,SOURE,-8.6273218181697,40.06636811222656
pt.ine.add.PTCONT.1115933,URB ENCOSTA DO SOL,,3130-255,SOURE,-8.6273218181697,40.06636811222656
pt.ine.add.PTCONT.1115934,URB ENCOSTA DO SOL,,3130-255,SOURE,-8.6273218181697,40.06636811222656
pt.ine.add.PTCONT.1115935,URB ENCOSTA DO SOL,,3130-255,SOURE,-8.6273218181697,40.06636811222656
pt.ine.add.PTCONT.1115936,,,3130-543,SOURE,-8.545176905740067,40.06070038197015
pt.ine.add.PTCONT.1115937,R FORNOS,39,3130-400,VILA NOVA DE ANÇOS,-8.635906836525491,40.110037296908956
pt.ine.add.PTCONT.1115939,URB ENCOSTA DO SOL,,3130-255,SOURE,-8.6273218181697,40.06636811222656
pt.ine.add.PTCONT.1115944,R CARVALHOS,,3130-537,SOURE,-8.60889170879878,40.020343158082234
pt.ine.add.PTCONT.1115947,R DR JOÃO GOUVEIA,,3130-592,SOURE,-8.544350186825156,40.05575898814242
pt.ine.add.PTCONT.1115948,R DR JOÃO GOUVEIA,,3130-592,SOURE,-8.544233206497948,40.05579542758823
pt.ine.add.PTCONT.1115949,BC TIA AUGUSTITA,,3130-537,SOURE,-8.610162432688428,40.01610505945101
pt.ine.add.PTCONT.1115950,R CIMA,12,3130-423,VINHA DA RAINHA,-8.69988178425721,40.04545706346207
pt.ine.add.PTCONT.1115951,R 13 DE JUNHO,3,3130-423,VINHA DA RAINHA,-8.685400948803332,40.04434720036938
pt.ine.add.PTCONT.1115952,R 13 DE JUNHO,21,3130-423,VINHA DA RAINHA,-8.690356282208278,40.04562034601938
pt.ine.add.PTCONT.1115961,R PRINCIPAL,,3130-544,SOURE,-8.605153134539577,40.062551936968426
pt.ine.add.PTCONT.1115966,R PRINCIPAL,,3130-500,SOURE,-8.588071791398402,40.072562947787524
pt.ine.add.PTCONT.1115967,CAM MUNICIPAL 1118,,3130-519,SOURE,-8.644682083380802,40.05074831990474
pt.ine.add.PTCONT.1116007,R QUINTA,1,3130-080,GRANJA DO ULMEIRO,-8.636549453828396,40.16216981834705
pt.ine.add.PTCONT.1116020,R FONTE,,3130-066,GESTEIRA,-8.681471811158099,40.08044401890486
pt.ine.add.PTCONT.1116021,R SANTAS CLARAS,,3130-079,GRANJA DO ULMEIRO,-8.616166004610289,40.161329044766646
pt.ine.add.PTCONT.1116046,R DO PRANTO,7,3130-400,VILA NOVA DE ANÇOS,-8.633333206484362,40.11388782703282
pt.ine.add.PTCONT.1116055,R GAGO COUTINHO,,3130-400,VILA NOVA DE ANÇOS,-8.636650774826071,40.10912446218362
pt.ine.add.PTCONT.1116098,TV CARVALHO,12,3130-116,SAMUEL,-8.691760888120632,40.10568364805807
pt.ine.add.PTCONT.1116108,BC ESTAÇÃO,9,3130-400,VILA NOVA DE ANÇOS,-8.637474464958348,40.1078960663443
pt.ine.add.PTCONT.1116128,R PRINCIPAL,,3130-530,SOURE,-8.607662961600646,40.02558975192414
pt.ine.add.PTCONT.1116241,R BICA,,3130-427,VINHA DA RAINHA,-8.704965067844752,40.05078167753851
pt.ine.add.PTCONT.1116242,R BICA,,3130-427,VINHA DA RAINHA,-8.704965067844752,40.05078167753851
pt.ine.add.PTCONT.1116258,,A,3130-200,SOURE,-8.619566174143367,40.06200598871083
pt.ine.add.PTCONT.1116259,,A,3130-200,SOURE,-8.619566174143367,40.06200598871083
pt.ine.add.PTCONT.1116260,,A,3130-200,SOURE,-8.619566174143367,40.06200598871083
pt.ine.add.PTCONT.1116261,,A,3130-200,SOURE,-8.619566174143367,40.06200598871083
pt.ine.add.PTCONT.1116262,,A,3130-200,SOURE,-8.619566174143367,40.06200598871083
pt.ine.add.PTCONT.1116263,,A,3130-200,SOURE,-8.619566174143367,40.06200598871083
pt.ine.add.PTCONT.1116264,,A,3130-200,SOURE,-8.619566174143367,40.06200598871083
pt.ine.add.PTCONT.1116334,R LEVADA,11,3130-225,SOURE,-8.62598889520332,40.05870064151617
pt.ine.add.PTCONT.1116335,CARVALHEIRA DE CIMA,,3130-386,SOURE,-8.556486521505077,40.03782018752039
pt.ine.add.PTCONT.1116449,R PRINCIPAL,,3130-386,SOURE,-8.558585544492356,40.03620941359872
pt.ine.add.PTCONT.1116450,,,3130-519,SOURE,-8.64541435787065,40.049943545194246
pt.ine.add.PTCONT.1116451,R CASAL DE BAIXO,,3130-520,SOURE,-8.58105872843578,40.034539641871916
pt.ine.add.PTCONT.1116452,,,3130-520,SOURE,-8.580164784847966,40.034002728391
pt.ine.add.PTCONT.1116453,R CASAL DE ALEM,,3130-520,SOURE,-8.578801862647516,40.03161235599471
pt.ine.add.PTCONT.1116454,R CAPELA,,3130-549,SOURE,-8.657400488766376,40.045053672847
pt.ine.add.PTCONT.1116570,R FONTE SERRANO,,3130-510,SOURE,-8.6276713455649,39.997947353079844
pt.ine.add.PTCONT.1116571,R S SEBASTIÃO,,3130-537,SOURE,-8.61182936128243,40.01662954645925
pt.ine.add.PTCONT.1116695,R CEMITÉRIO,,3130-387,TAPÉUS,-8.541037111374308,40.03671382002834
pt.ine.add.PTCONT.1116808,R 25 ABRIL,53,3130-001,ALFARELOS,-8.650186936123538,40.15567951465058
pt.ine.add.PTCONT.1116809,R CABECAS,,3130-001,ALFARELOS,-8.657622347662242,40.151863596235465
pt.ine.add.PTCONT.1116810,R SACADURA CABRAL,23,3130-400,VILA NOVA DE ANÇOS,-8.637064003697155,40.10949190963155
pt.ine.add.PTCONT.1116811,R S MARIA,42,3130-400,VILA NOVA DE ANÇOS,-8.63615757304343,40.10904555162427
pt.ine.add.PTCONT.1116812,R FONTE,,3130-401,VILA NOVA DE ANÇOS,-8.595980995211182,40.11702125895361
pt.ine.add.PTCONT.1116813,R FONTE,6,3130-400,VILA NOVA DE ANÇOS,-8.633244059135427,40.11000379593989
pt.ine.add.PTCONT.1116935,R JUNQUEIRA,3,3130-001,ALFARELOS,-8.652763780169435,40.14882349595831
pt.ine.add.PTCONT.1116936,R PRINCIPAL,,3130-010,BRUNHÓS,-8.669734566141143,40.113109638570116
pt.ine.add.PTCONT.1116937,R JOÃO HENRIQUES FOJA OLIVEIRA,6,3130-434,VINHA DA RAINHA,-8.733749546526358,40.07376347992657
pt.ine.add.PTCONT.1116938,R PRINCIPAL,,3130-433,VINHA DA RAINHA,-8.72653617836937,40.06252513241142
pt.ine.add.PTCONT.1116939,R ESTAQUAL,6,3130-420,VINHA DA RAINHA,-8.713511239137922,40.05113544685842
pt.ine.add.PTCONT.1117049,R 1 DE MAIO,,3130-022,DEGRACIAS,-8.519724577742489,40.00975049732156
pt.ine.add.PTCONT.1117050,R FONTE,2,3130-044,FIGUEIRÓ DO CAMPO,-8.594051948705982,40.154448622562946
pt.ine.add.PTCONT.1117051,R PACO,4,3130-040,FIGUEIRÓ DO CAMPO,-8.581404870947223,40.151679426337786
pt.ine.add.PTCONT.1117276,R S JOÃO,,3130-061,GESTEIRA,-8.671443343770738,40.099241528540425
pt.ine.add.PTCONT.1117174,R PRINCIPAL,S N,3130-060,GESTEIRA,-8.672082821269221,40.08516219788994
pt.ine.add.PTCONT.1117175,R PRINCIPAL,,3130-064,GESTEIRA,-8.669443886501202,40.05666138695307
pt.ine.add.PTCONT.1117277,R FLORES,,3130-062,GESTEIRA,-8.657554455530638,40.08348172010979
pt.ine.add.PTCONT.1117278,R COMÉRCIO,56,3130-080,GRANJA DO ULMEIRO,-8.634941837182666,40.163833880151756
pt.ine.add.PTCONT.1117279,R COMÉRCIO,56,3130-080,GRANJA DO ULMEIRO,-8.634941837182666,40.163833880151756
pt.ine.add.PTCONT.1117381,ESTR CONDEIXA,51,3130-080,GRANJA DO ULMEIRO,-8.632576240693847,40.1565853608541
pt.ine.add.PTCONT.1117382,R TENCHUAL,,3130-080,GRANJA DO ULMEIRO,-8.627503819789847,40.1498436968798
pt.ine.add.PTCONT.1117517,R BOXA,,3130-095,POMBALINHO SRE,-8.491268862627328,39.98821811875022
pt.ine.add.PTCONT.1117518,R PRINCIPAL,,3130-098,POMBALINHO SRE,-8.538597718053527,39.955144533673504
pt.ine.add.PTCONT.1117519,R ESTRADA PRINCIPAL,12,3130-128,SAMUEL,-8.724147268640369,40.10887312438466
pt.ine.add.PTCONT.1117520,R ROSSIO,10,3130-128,SAMUEL,-8.724173687704363,40.10921521553157
pt.ine.add.PTCONT.1117636,R BICA,4,3130-121,SAMUEL,-8.70634071484514,40.08348473013903
pt.ine.add.PTCONT.1117635,LG CAPELA,1,3130-127,SAMUEL,-8.71740776677906,40.098451404406454
pt.ine.add.PTCONT.1117733,R PRINCIPAL,12,3130-130,SAMUEL,-8.68553923765263,40.07163482961587
pt.ine.add.PTCONT.1117734,R PRINCIPAL,11,3130-588,SOURE,-8.5944418571365,40.10971455070649
pt.ine.add.PTCONT.1117840,R PRINCIPAL,,3130-500,SOURE,-8.58807239064577,40.07265300579998
pt.ine.add.PTCONT.1117841,R PRINCIPAL,,3130-501,SOURE,-8.570560459190279,40.07112638657601
pt.ine.add.PTCONT.1117956,URB S JOSE DO PINHEIRO,,3130-544,SOURE,-8.60184653651002,40.065789527042334
pt.ine.add.PTCONT.1117957,R PRINCIPAL,,3130-544,SOURE,-8.605904196104818,40.062683965091814
pt.ine.add.PTCONT.1117958,R PRINCIPAL,,3130-583,SOURE,-8.586338350802619,40.051567626182496
pt.ine.add.PTCONT.1117959,R FONTE,,3130-539,SOURE,-8.597959662604234,40.049234041737556
pt.ine.add.PTCONT.1117960,R SEM NOME,,3130-584,SOURE,-8.609095399322815,40.04964813903568
pt.ine.add.PTCONT.1117961,,,3130-517,SOURE,-8.608065665422487,40.04311395594167
pt.ine.add.PTCONT.1118090,ESTR PRINCIPAL,,3130-511,SOURE,-8.615893723148911,40.04652192343259
pt.ine.add.PTCONT.1118091,,,3130-511,SOURE,-8.613432111482417,40.0430738218245
pt.ine.add.PTCONT.1118092,,,3130-511,SOURE,-8.61318212986103,40.04251648105282
pt.ine.add.PTCONT.1118093,URB ENCOSTA DO SOL,,3130-255,SOURE,-8.627719041863877,40.06618629627774
pt.ine.add.PTCONT.1118146,R DR EVARISANTO CARVALHO FILHO,12,3130-240,SOURE,-8.63033317037992,40.05815072173274
pt.ine.add.PTCONT.1118173,R AREIAS,,3130-502,SOURE,-8.634101033249577,40.00768238753139
pt.ine.add.PTCONT.1118177,R GONÇALVES FILIPE,,3130-061,GESTEIRA,-8.667523693423195,40.09739544202321
pt.ine.add.PTCONT.1118191,GRANJA DO ULMEIRO,60,3130-080,GRANJA DO ULMEIRO,-8.630903201472215,40.160537147008256
pt.ine.add.PTCONT.1118221,R PADARIA,,3130-095,POMBALINHO SRE,-8.497247973844747,39.98748800009148
pt.ine.add.PTCONT.1118248,R PRINCIPAL,68,3130-046,FIGUEIRÓ DO CAMPO,-8.612619639277245,40.13441610121582
pt.ine.add.PTCONT.1118259,R EVANGELISTA PEREIRA,,3130-061,GESTEIRA,-8.666967686631299,40.09677659335307
pt.ine.add.PTCONT.1118276,CSL DO CIMEIRO,,3130-041,FIGUEIRÓ DO CAMPO,-8.60444504188827,40.15361426363541
pt.ine.add.PTCONT.1118278,R PRINCIPAL,,3130-500,SOURE,-8.588975564026018,40.0727305096188
pt.ine.add.PTCONT.1118288,R PRINCIPAL,,3130-380,TAPÉUS,-8.556258729461112,40.02940031264414
pt.ine.add.PTCONT.1118337,SIT CANTO DE SANTO ANTÓNIO,4,3130-080,GRANJA DO ULMEIRO,-8.636175146111444,40.16075752080858
pt.ine.add.PTCONT.1118420,R ARTUR RIBEIRO DA FONSECA,12,3130-001,ALFARELOS,-8.655548452967208,40.15384526328044
pt.ine.add.PTCONT.1118422,R ESTRADA NACIONAL,,3130-042,FIGUEIRÓ DO CAMPO,-8.598361603638757,40.159933993447474
pt.ine.add.PTCONT.1119952,R BARREIRO,,3130-083,POMBALINHO SRE,-8.497012769455372,40.02037923861491
pt.ine.add.PTCONT.1119953,R EMIGRANTES,,3130-098,POMBALINHO SRE,-8.531354754924191,39.9573401421607
pt.ine.add.PTCONT.1119954,R PRINCIPAL,,3130-568,SOURE,-8.592926103615707,40.06400605397737
pt.ine.add.PTCONT.1119955,R SOURE,31,3130-001,ALFARELOS,-8.646733368291747,40.14906654338585
pt.ine.add.PTCONT.1119956,R SOURE,19,3130-001,ALFARELOS,-8.647442662663599,40.14974784375127
pt.ine.add.PTCONT.1119957,R PRINCIPAL,,3130-002,ALFARELOS,-8.630433891973396,40.14608469092315
pt.ine.add.PTCONT.1119958,R MO E FREIXO,6,3130-040,FIGUEIRÓ DO CAMPO,-8.575836779638827,40.14728794851479
pt.ine.add.PTCONT.1119959,R COMÉRCIO,19,3130-080,GRANJA DO ULMEIRO,-8.634797068809487,40.16330316028856
pt.ine.add.PTCONT.1119960,R MOINHO,,3130-083,POMBALINHO SRE,-8.500151217386184,40.020216236414136
pt.ine.add.PTCONT.1119961,R PRINCIPAL,,3130-099,POMBALINHO SRE,-8.483146326391301,40.016342170792925
pt.ine.add.PTCONT.1119962,R SEM NOME,,3130-131,SAMUEL,-8.692319102550345,40.08791216744704
pt.ine.add.PTCONT.1119963,R BAIRRO NOVO,,3130-541,SOURE,-8.604947354938929,40.098973121044594
pt.ine.add.PTCONT.1119964,R MADUROS,,3130-010,BRUNHÓS,-8.67057206479722,40.11519513622455
pt.ine.add.PTCONT.1119965,R PRINCIPAL,,3130-099,POMBALINHO SRE,-8.483670048215002,40.01568313916751
pt.ine.add.PTCONT.1119966,,,3130-511,SOURE,-8.614519105641508,40.04268204936545
pt.ine.add.PTCONT.1119967,,,3130-511,SOURE,-8.610577274822294,40.04368902833437
pt.ine.add.PTCONT.1119968,R PRINCIPAL,,3130-511,SOURE,-8.612301188436255,40.04221392102126
pt.ine.add.PTCONT.1119969,R OLIVAIS,2,3130-046,FIGUEIRÓ DO CAMPO,-8.608914185511903,40.13474659272027
pt.ine.add.PTCONT.1119970,R FLORES,,3130-061,GESTEIRA,-8.668010076297303,40.096609676670795
pt.ine.add.PTCONT.1119971,R POCARICA,32,3130-121,SAMUEL,-8.705160913229046,40.082607975201725
pt.ine.add.PTCONT.1119972,R 1 DE JULHO,,3130-514,SOURE,-8.623485374124982,40.09040346905721
pt.ine.add.PTCONT.1119976,R PRINCIPAL,,3130-002,ALFARELOS,-8.63473522299222,40.13575435902816
pt.ine.add.PTCONT.1119977,R PRINCIPAL,,3130-571,SOURE,-8.593780026871729,40.025447639434375
pt.ine.add.PTCONT.1119978,R FONTE,,3130-591,SOURE,-8.639992875826131,40.071095568040676
pt.ine.add.PTCONT.1119979,,,3130-538,SOURE,-8.640389216252286,40.04866878290668
pt.ine.add.PTCONT.1119980,R PRINCIPAL,,3130-002,ALFARELOS,-8.631638910250023,40.134335786982625
pt.ine.add.PTCONT.1119981,R BAIXO,,3130-092,POMBALINHO SRE,-8.485666007521052,40.00522094081142
pt.ine.add.PTCONT.1119982,R PRINCIPAL,37,3130-117,SAMUEL,-8.737041263522753,40.100661951830574
pt.ine.add.PTCONT.1119983,R STA CRUZ,5,3130-118,SAMUEL,-8.702765360699546,40.07793666208264
pt.ine.add.PTCONT.1119985,R ANTÓNIO AUGUSTO DA COSTA NUNES,30,3130-001,ALFARELOS,-8.653702639971735,40.15035928810899
pt.ine.add.PTCONT.1119986,R LAGOA NOVA,,3130-020,DEGRACIAS,-8.534868956045564,40.005871373330955
pt.ine.add.PTCONT.1119987,R FONTE,15,3130-044,FIGUEIRÓ DO CAMPO,-8.593743756040816,40.153999553558755
pt.ine.add.PTCONT.1119988,R CASAL DE CIMA,,3130-095,POMBALINHO SRE,-8.490654180789699,39.99158832927925
pt.ine.add.PTCONT.1119989,,,3130-509,SOURE,-8.646981181115178,40.069758906737135
pt.ine.add.PTCONT.1119990,LG EMPRESA FABRIL DO NORTE,,3130-539,SOURE,-8.598040162280524,40.04900856697207
pt.ine.add.PTCONT.1119992,R 17 DE SETEMBRO,28,3130-040,FIGUEIRÓ DO CAMPO,-8.578481848090107,40.149781451405076
pt.ine.add.PTCONT.1119995,R DR DELFIM PINHEIRO,12,3130-001,ALFARELOS,-8.653561211231219,40.151818879663324
pt.ine.add.PTCONT.1119996,R REQUEIXO,,3130-063,GESTEIRA,-8.65316294686465,40.0810879089781
pt.ine.add.PTCONT.1119997,R BOA UNIAO,,3130-588,SOURE,-8.597158015768333,40.110703363480816
pt.ine.add.PTCONT.1119998,R PRINCIPAL,,3130-501,SOURE,-8.570627335407352,40.07058577144876
pt.ine.add.PTCONT.1120000,R PRINCIPAL,,3130-090,POMBALINHO SRE,-8.541191456035735,39.97017581453063
pt.ine.add.PTCONT.1120001,R PRINCIPAL,,3130-090,POMBALINHO SRE,-8.54353564465009,39.97069890442196
pt.ine.add.PTCONT.1120002,R CRUZ DO CABO,45,3130-001,ALFARELOS,-8.655352403051635,40.15123443745384
pt.ine.add.PTCONT.1120003,R REGUEIXO,,3130-063,GESTEIRA,-8.653487375169647,40.07904208780521
pt.ine.add.PTCONT.1120004,R SOBREIRAS,,3130-541,SOURE,-8.607530670593505,40.09944889247348
pt.ine.add.PTCONT.1120005,R SALABARDO,,3130-001,ALFARELOS,-8.64407590234293,40.15464394730748
pt.ine.add.PTCONT.1120006,R BARROCO,9,3130-040,FIGUEIRÓ DO CAMPO,-8.576638649011066,40.14787927084649
pt.ine.add.PTCONT.1120007,R TRAS,,3130-064,GESTEIRA,-8.670063669767426,40.054992398178904
pt.ine.add.PTCONT.1120008,R COMÉRCIO,,3130-080,GRANJA DO ULMEIRO,-8.63505968242212,40.163896410522504
pt.ine.add.PTCONT.1120009,R PRINCIPAL,,3130-541,SOURE,-8.603675314722974,40.101581026979005
pt.ine.add.PTCONT.1120057,R FORNOS,14,3130-237,SOURE,-8.626914584181872,40.058669681598
pt.ine.add.PTCONT.1120058,R MOLEIRO,2,3130-420,VINHA DA RAINHA,-8.712699862919917,40.05219321504804
pt.ine.add.PTCONT.1120061,R PRINCIPAL,,3130-549,SOURE,-8.656232524583164,40.04402325459474
pt.ine.add.PTCONT.1120062,R PRINCIPAL,63,3130-404,VILA NOVA DE ANÇOS,-8.609427802649543,40.13436623198972
pt.ine.add.PTCONT.1120074,R PRINCIPAL,8,3130-430,VINHA DA RAINHA,-8.717943693182475,40.065153553640535
pt.ine.add.PTCONT.1120080,R OUTEIRINHO,22,3130-422,VINHA DA RAINHA,-8.708012730594945,40.062024135439145
pt.ine.add.PTCONT.1120081,R OUTEIRINHO,22,3130-422,VINHA DA RAINHA,-8.708012730594945,40.062024135439145
pt.ine.add.PTCONT.1120086,URB ENCOSTA DO SOL,,3130-255,SOURE,-8.628136446731938,40.06555409082901
pt.ine.add.PTCONT.1120087,R ESCOLA,,3130-546,SOURE,-8.636889198156979,40.01097554829132
pt.ine.add.PTCONT.1120088,R 25 DE MAIO,7,3130-429,VINHA DA RAINHA,-8.709733899206785,40.03816758380982
pt.ine.add.PTCONT.1120092,R 24 DE JUNHO,62,3130-426,VINHA DA RAINHA,-8.709850729713287,40.05342324780059
pt.ine.add.PTCONT.1120093,R OUTEIRO,,3130-400,VILA NOVA DE ANÇOS,-8.636754036385499,40.11040286065756
pt.ine.add.PTCONT.1120094,R NSA SRA DE FINISTERRA,16,3130-400,VILA NOVA DE ANÇOS,-8.635224974376023,40.10982411172519
pt.ine.add.PTCONT.1120096,R CAPELA,,3130-540,SOURE,-8.566080944012674,40.033849068963875
pt.ine.add.PTCONT.1120097,R BAIXA,,3130-505,SOURE,-8.624134581710235,39.994630116861885
pt.ine.add.PTCONT.1120101,R CASAL,,3130-520,SOURE,-8.578350814375657,40.03251470012485
pt.ine.add.PTCONT.1120102,R S LOURENÇO,,3130-531,SOURE,-8.63092157422836,40.018197223395084
pt.ine.add.PTCONT.1120103,R JOÃO HENRIQUES FOJA OLIVEIRA,35 A,3130-434,VINHA DA RAINHA,-8.73477377743232,40.078252156156225
pt.ine.add.PTCONT.1120104,R DR JOÃO GOUVEIA,,3130-592,SOURE,-8.54230042746789,40.055964379148584
pt.ine.add.PTCONT.1120105,R DR JOÃO GOUVEIA,,3130-592,SOURE,-8.54230042746789,40.055964379148584
pt.ine.add.PTCONT.1120106,R CASAL DE BAIXO,,3130-520,SOURE,-8.580837652358147,40.03298244128934
pt.ine.add.PTCONT.1120107,R TERREIRO,17A,3130-434,VINHA DA RAINHA,-8.728905622847106,40.07214940151625
pt.ine.add.PTCONT.1120110,BC ALEXANDRÉ,,3130-537,SOURE,-8.615899982662027,40.01583813333844
pt.ine.add.PTCONT.1120111,R ALTO,,3130-537,SOURE,-8.61488287789617,40.0177786813392
pt.ine.add.PTCONT.1120119,R PRINCIPAL,,3130-548,SOURE,-8.645458771362224,40.026131281603185
pt.ine.add.PTCONT.1120120,R MURTINHEIRAS,2,3130-423,VINHA DA RAINHA,-8.693166758525026,40.04395868720276
pt.ine.add.PTCONT.1120132,R FONTE,,3130-544,SOURE,-8.602526596503683,40.06411164911201
pt.ine.add.PTCONT.1120218,R PRINCIPAL,,3130-380,TAPÉUS,-8.555456378233862,40.028475610351
pt.ine.add.PTCONT.1120219,R CACADORES,4,3130-429,VINHA DA RAINHA,-8.711605164462789,40.03498812263874
pt.ine.add.PTCONT.1120267,R BARROCO,,3130-040,FIGUEIRÓ DO CAMPO,-8.57730850806326,40.1480207979353
pt.ine.add.PTCONT.1120295,R PRINCIPAL,72,3130-043,FIGUEIRÓ DO CAMPO,-8.606981980096087,40.15725130032989
pt.ine.add.PTCONT.1120304,R SANTO ANTÓNIO,,3130-080,GRANJA DO ULMEIRO,-8.63229034615501,40.16402545951607
pt.ine.add.PTCONT.1120322,R ALEGRIA,11,3130-080,GRANJA DO ULMEIRO,-8.613566196140512,40.16052032546897
pt.ine.add.PTCONT.1120370,R SALOEIRAS,6,3130-080,GRANJA DO ULMEIRO,-8.633025033554071,40.15856472095643
pt.ine.add.PTCONT.1120371,R SALOEIRAS,6,3130-080,GRANJA DO ULMEIRO,-8.633025033554071,40.15856472095643
pt.ine.add.PTCONT.1120372,R SALOEIRAS,6,3130-080,GRANJA DO ULMEIRO,-8.633025033554071,40.15856472095643
pt.ine.add.PTCONT.1120373,R SALOEIRAS,6,3130-080,GRANJA DO ULMEIRO,-8.633025033554071,40.15856472095643
pt.ine.add.PTCONT.1120374,R SALOEIRAS,6,3130-080,GRANJA DO ULMEIRO,-8.633025033554071,40.15856472095643
pt.ine.add.PTCONT.1120375,R SALOEIRAS,6,3130-080,GRANJA DO ULMEIRO,-8.633025033554071,40.15856472095643
pt.ine.add.PTCONT.1120376,R SALOEIRAS,6,3130-080,GRANJA DO ULMEIRO,-8.633025033554071,40.15856472095643
pt.ine.add.PTCONT.1120377,R SALOEIRAS,6,3130-080,GRANJA DO ULMEIRO,-8.633025033554071,40.15856472095643
pt.ine.add.PTCONT.1120378,R SALOEIRAS,6,3130-080,GRANJA DO ULMEIRO,-8.633025033554071,40.15856472095643
pt.ine.add.PTCONT.1120379,R SALOEIRAS,6,3130-080,GRANJA DO ULMEIRO,-8.633025033554071,40.15856472095643
pt.ine.add.PTCONT.1120380,R SALOEIRAS,6,3130-080,GRANJA DO ULMEIRO,-8.633025033554071,40.15856472095643
pt.ine.add.PTCONT.1120436,R PRINCIPAL,32,3130-043,FIGUEIRÓ DO CAMPO,-8.608416035450789,40.15923572631619
pt.ine.add.PTCONT.1120437,R PRINCIPAL,32,3130-043,FIGUEIRÓ DO CAMPO,-8.608416035450789,40.15923572631619
pt.ine.add.PTCONT.1122009,R PRINCIPAL,,3130-098,POMBALINHO SRE,-8.539370029493861,39.955132823564234
pt.ine.add.PTCONT.1122116,R CALDEIROS,,3130-546,SOURE,-8.627892005410693,40.01067207760197
pt.ine.add.PTCONT.1122117,R CAPELA,,3130-383,TAPÉUS,-8.519633258169806,40.04130825817216
pt.ine.add.PTCONT.1122001,R S JORGE,,3130-098,POMBALINHO SRE,-8.53751177277028,39.955553607186005
pt.ine.add.PTCONT.1122002,R PRINCIPAL,,3130-541,SOURE,-8.605025431737232,40.100089545869785
pt.ine.add.PTCONT.1122003,R PRINCIPAL,,3130-503,SOURE,-8.608801773962727,40.091680510288235
pt.ine.add.PTCONT.1122004,,,3130-503,SOURE,-8.609331064024522,40.09191249152235
pt.ine.add.PTCONT.1122005,R FONTE CAES,12C,3130-001,ALFARELOS,-8.644320212899961,40.146528550351924
pt.ine.add.PTCONT.1122006,R PRINCIPAL,,3130-010,BRUNHÓS,-8.66955690882114,40.11737027661394
pt.ine.add.PTCONT.1122007,R GONÇALVES FILIPE,,3130-061,GESTEIRA,-8.667877042694105,40.09759194275113
pt.ine.add.PTCONT.1122008,R CAPELA,,3130-525,SOURE,-8.61209963899487,40.0887399688412
pt.ine.add.PTCONT.1122010,R PRINCIPAL,20,3130-041,FIGUEIRÓ DO CAMPO,-8.599154126699714,40.1573911422401
pt.ine.add.PTCONT.1122011,R S ANA,2,3130-040,FIGUEIRÓ DO CAMPO,-8.574614612576504,40.14703144299738
pt.ine.add.PTCONT.1122012,R CEU,9,3130-122,SAMUEL,-8.76024613757541,40.11876992572059
pt.ine.add.PTCONT.1122013,TV STA MARIA MADALENA,5,3130-122,SAMUEL,-8.7619930078268,40.118661388056495
pt.ine.add.PTCONT.1122014,,,3130-511,SOURE,-8.61428361948553,40.04252091813537
pt.ine.add.PTCONT.1122015,R PRINCIPAL,,3130-514,SOURE,-8.625087692066725,40.09145938271729
pt.ine.add.PTCONT.1122016,R GALEGA,,3130-022,DEGRACIAS,-8.520205221140825,40.00982994823022
pt.ine.add.PTCONT.1122017,,,3130-565,SOURE,-8.614348147292988,40.08667727963104
pt.ine.add.PTCONT.1122018,R LIBERDADE,6,3130-041,FIGUEIRÓ DO CAMPO,-8.59802153523146,40.156540134441606
pt.ine.add.PTCONT.1122019,R LIBERDADE,6,3130-041,FIGUEIRÓ DO CAMPO,-8.59802153523146,40.156540134441606
pt.ine.add.PTCONT.1122020,ENTRE VALAS,10,3130-049,FIGUEIRÓ DO CAMPO,-8.57800192402208,40.157168145255774
pt.ine.add.PTCONT.1122021,R SERVENTIA,,3130-539,SOURE,-8.599066350547458,40.04998610624005
pt.ine.add.PTCONT.1122022,R FONTE,,3130-539,SOURE,-8.597686550900434,40.050432944428756
pt.ine.add.PTCONT.1122023,R NOVA,,3130-022,DEGRACIAS,-8.52510331697165,40.00821039004016
pt.ine.add.PTCONT.1122024,R S JOÃO,,3130-060,GESTEIRA,-8.67236733593502,40.085557137612454
pt.ine.add.PTCONT.1122025,R ALMINHAS,,3130-081,GRANJA DO ULMEIRO,-8.624473676842982,40.15930378531244
pt.ine.add.PTCONT.1122026,R BAIXO,9,3130-080,GRANJA DO ULMEIRO,-8.636783677527333,40.1620967526064
pt.ine.add.PTCONT.1122027,R PRINCIPAL,,3130-091,POMBALINHO SRE,-8.42749935050865,40.00055597930091
pt.ine.add.PTCONT.1122028,R LARANJEIRA,15-17,3130-002,ALFARELOS,-8.638237601933016,40.13653165644817
pt.ine.add.PTCONT.1122029,R CANTO DAS FLORES,,3130-081,GRANJA DO ULMEIRO,-8.625063793295478,40.15975157424652
pt.ine.add.PTCONT.1122030,R ESTRADA NACIONAL,18,3130-080,GRANJA DO ULMEIRO,-8.62299296035654,40.159057894430724
pt.ine.add.PTCONT.1122031,R CAMPO FUTEBOL,10,3130-001,ALFARELOS,-8.636872591722858,40.15665680753507
pt.ine.add.PTCONT.1122032,R ANTONIU NETO,10,3130-001,ALFARELOS,-8.652485827017303,40.150851070988445
pt.ine.add.PTCONT.1122033,R BARRO,,3130-066,GESTEIRA,-8.680558374129046,40.080574423306665
pt.ine.add.PTCONT.1122034,,,3130-080,GRANJA DO ULMEIRO,-8.615476284744135,40.16172817946577
pt.ine.add.PTCONT.1122035,R LAGOA NOVA,,3130-020,DEGRACIAS,-8.535019141437578,40.00551961270459
pt.ine.add.PTCONT.1122036,R CASAL DO PACO,10,3130-040,FIGUEIRÓ DO CAMPO,-8.582627680729152,40.15201691054373
pt.ine.add.PTCONT.1122037,LG CAPELA,23,3130-127,SAMUEL,-8.717441791343667,40.09831614329182
pt.ine.add.PTCONT.1122038,R LIBERDADE,70,3130-001,ALFARELOS,-8.65583661229499,40.151628512146026
pt.ine.add.PTCONT.1122039,R 25 DE ABRIL,,3130-062,GESTEIRA,-8.66100197676804,40.08202510008558
pt.ine.add.PTCONT.1122040,LG NAZARE,,3130-023,DEGRACIAS,-8.52757703466045,39.99643995440929
pt.ine.add.PTCONT.1122041,R REQUEIXO,,3130-063,GESTEIRA,-8.653612567449004,40.081626250065426
pt.ine.add.PTCONT.1122042,R REQUEIXO,,3130-063,GESTEIRA,-8.653360819027279,40.077817838549386
pt.ine.add.PTCONT.1122043,R BAIRRO DOS BARREIROS,25,3130-080,GRANJA DO ULMEIRO,-8.635936674461025,40.160254226843136
pt.ine.add.PTCONT.1122044,R BAIRRO DOS BARREIROS,15,3130-080,GRANJA DO ULMEIRO,-8.63595067078319,40.16056036631317
pt.ine.add.PTCONT.1122045,R BAIRRO DOS BARREIROS,5,3130-080,GRANJA DO ULMEIRO,-8.636303062590756,40.16059485896615
pt.ine.add.PTCONT.1122046,R JARDIM,25,3130-080,GRANJA DO ULMEIRO,-8.6364933904923,40.160936255459085
pt.ine.add.PTCONT.1122047,,,3130-532,SOURE,-8.654839665459619,40.06267206005835
pt.ine.add.PTCONT.1122048,R DR DELFIM PINHEIRO,7,3130-001,ALFARELOS,-8.653797375323203,40.15200694181304
pt.ine.add.PTCONT.1122049,PC LUIS DE CAMÕES,,3130-001,ALFARELOS,-8.651471616324613,40.15020719075242
pt.ine.add.PTCONT.1122050,R BACELOS,,3130-541,SOURE,-8.604394168545973,40.10208243961904
pt.ine.add.PTCONT.1122051,LG ENG LUIS DELGADO SANTOS,,3130-539,SOURE,-8.598360257724883,40.0478274866672
pt.ine.add.PTCONT.1122052,AV BOMBEIROS VOLUNTARIOS,,3130-202,SOURE,-8.622999027311845,40.06181140290921
pt.ine.add.PTCONT.1122053,R LIBERDADE,86,3130-001,ALFARELOS,-8.656205806492682,40.15079830217438
pt.ine.add.PTCONT.1122054,R PRINCIPAL,3,3130-043,FIGUEIRÓ DO CAMPO,-8.60616172635006,40.160829996111026
pt.ine.add.PTCONT.1122055,,,3130-503,SOURE,-8.608349857109575,40.092456881442274
pt.ine.add.PTCONT.1122056,,,3130-517,SOURE,-8.61025998341867,40.045239380338934
pt.ine.add.PTCONT.1122057,R JOSE AUGUSTO FIGUEIREDO,,3130-244,SOURE,-8.62609533914132,40.06208646227351
pt.ine.add.PTCONT.1122058,PC 25 DE ABRIL,1,3130-040,FIGUEIRÓ DO CAMPO,-8.577575606356918,40.14758748876042
pt.ine.add.PTCONT.1122059,R CAMPO FUTEBOL,15,3130-080,GRANJA DO ULMEIRO,-8.637215408696804,40.1585735709247
pt.ine.add.PTCONT.1122118,R PRINCIPAL,,3130-383,TAPÉUS,-8.520199403522296,40.04196381339218
pt.ine.add.PTCONT.1122125,R PRINCIPAL,71,3130-404,VILA NOVA DE ANÇOS,-8.612441871571997,40.13416467095755
pt.ine.add.PTCONT.1122126,R PRINCIPAL,71,3130-404,VILA NOVA DE ANÇOS,-8.612441871571997,40.13416467095755
pt.ine.add.PTCONT.1122127,R BREJO,,3130-423,VINHA DA RAINHA,-8.697859363664614,40.04462036984976
pt.ine.add.PTCONT.1122131,,,3130-534,SOURE,-8.636265661865364,40.0632045182822
pt.ine.add.PTCONT.1122134,LG CASTELO,8,3130-214,SOURE,-8.626163953556167,40.05697073488446
pt.ine.add.PTCONT.1122135,TV ADRO,1,3130-400,VILA NOVA DE ANÇOS,-8.634553499529108,40.111024814461175
pt.ine.add.PTCONT.1122136,R FONTE VELHA,6,3130-400,VILA NOVA DE ANÇOS,-8.632363210866082,40.10984548878324
pt.ine.add.PTCONT.1122140,,,3130-545,SOURE,-8.633807613407482,40.05886524828745
pt.ine.add.PTCONT.1122141,R CAIS,9,3130-231,SOURE,-8.628419379397016,40.0593026875406
pt.ine.add.PTCONT.1122142,R CAIS,9,3130-231,SOURE,-8.628419379397016,40.0593026875406
pt.ine.add.PTCONT.1122143,R D MANUEL I,7,3130-400,VILA NOVA DE ANÇOS,-8.634094548266686,40.110819663334254
pt.ine.add.PTCONT.1122144,R 24 DE JUNHO,29,3130-426,VINHA DA RAINHA,-8.713203696433148,40.05494654028963
pt.ine.add.PTCONT.1122147,R FORNOS,25,3130-237,SOURE,-8.627101779730452,40.05862385333575
pt.ine.add.PTCONT.1122148,,,3130-540,SOURE,-8.566862828148398,40.03335981529717
pt.ine.add.PTCONT.1122152,R ALTO,,3130-537,SOURE,-8.615369374613186,40.01700213181941
pt.ine.add.PTCONT.1122153,R PRINCIPAL,,3130-548,SOURE,-8.645721761554071,40.028399654068416
pt.ine.add.PTCONT.1122154,R SENHOR,,3130-400,VILA NOVA DE ANÇOS,-8.63604227619897,40.10931623140461
pt.ine.add.PTCONT.1122155,R CASAL DENTRO,9,3130-434,VINHA DA RAINHA,-8.732676127898435,40.07167064243548
pt.ine.add.PTCONT.1122160,R S SEBASTIÃO,,3130-537,SOURE,-8.61155927329045,40.01653159456347
pt.ine.add.PTCONT.1122164,LG MISERICÓRDIA,6,3130-216,SOURE,-8.626109795196717,40.059213471920366
pt.ine.add.PTCONT.1122165,R CASAL DE CIDA,,3130-520,SOURE,-8.580320925206763,40.032795308613316
pt.ine.add.PTCONT.1122166,R PRINCIPAL,,3130-548,SOURE,-8.645204822183025,40.02506968479095
pt.ine.add.PTCONT.1122182,R PRINCIPAL,,3130-505,SOURE,-8.620399830819121,39.99635704746918
pt.ine.add.PTCONT.1122183,R EIRAS,,3130-387,TAPÉUS,-8.53918767889306,40.03701751750862
pt.ine.add.PTCONT.1122215,R AREEIRO,,3130-388,TAPÉUS,-8.56047956228759,40.03368073523746
pt.ine.add.PTCONT.1122250,R HEROIS 25 DE ABRIL,,3130-243,SOURE,-8.635014937113397,40.057283965837314
pt.ine.add.PTCONT.1122277,R CAIS,9,3130-231,SOURE,-8.628419379397016,40.0593026875406
pt.ine.add.PTCONT.1122352,R ALEGRIA,,3130-045,FIGUEIRÓ DO CAMPO,-8.613362090242585,40.16153883824242
pt.ine.add.PTCONT.1122353,R ALF BARRILARO RUAS,32,3130-220,SOURE,-8.62780322618993,40.05999878575082
pt.ine.add.PTCONT.1122385,R SANTO ANTÓNIO,,3130-080,GRANJA DO ULMEIRO,-8.63422150928939,40.16325161739091
pt.ine.add.PTCONT.1122386,R SANTO ANTÓNIO,,3130-422,VINHA DA RAINHA,-8.707808337384039,40.06141273988737
pt.ine.add.PTCONT.1122507,SANTO ANTÓNIO,,3130-197,SOURE,-8.619539402546142,40.06153778670934
pt.ine.add.PTCONT.1122508,SANTO ANTÓNIO,,3130-197,SOURE,-8.619539402546142,40.06153778670934
pt.ine.add.PTCONT.1122509,SANTO ANTÓNIO,,3130-197,SOURE,-8.619539402546142,40.06153778670934
pt.ine.add.PTCONT.1122510,SANTO ANTÓNIO,,3130-197,SOURE,-8.619539402546142,40.06153778670934
pt.ine.add.PTCONT.1122511,SANTO ANTÓNIO,,3130-197,SOURE,-8.619539402546142,40.06153778670934
pt.ine.add.PTCONT.1122512,SANTO ANTÓNIO,,3130-197,SOURE,-8.619539402546142,40.06153778670934
pt.ine.add.PTCONT.1122513,R ALEXANDRE HERCULANO,9,3130-219,SOURE,-8.626422212382375,40.05865376703767
pt.ine.add.PTCONT.1122514,R ALEXANDRE HERCULANO,9,3130-219,SOURE,-8.626422212382375,40.05865376703767
pt.ine.add.PTCONT.1122524,R CABINE,2A,3130-040,FIGUEIRÓ DO CAMPO,-8.57904063015686,40.149085845068754
pt.ine.add.PTCONT.1122525,R CABINE,2A,3130-040,FIGUEIRÓ DO CAMPO,-8.57904063015686,40.149085845068754
pt.ine.add.PTCONT.1122526,R CABINE,2A,3130-040,FIGUEIRÓ DO CAMPO,-8.57904063015686,40.149085845068754
pt.ine.add.PTCONT.1122586,R ESTRADA LARGA,N 37,3130-080,GRANJA DO ULMEIRO,-8.633621580403522,40.15828296114241
pt.ine.add.PTCONT.1122587,R S JOAO,,3130-080,GRANJA DO ULMEIRO,-8.633621580403522,40.15828296114241
pt.ine.add.PTCONT.1122588,R ESTRADA LARGA,37,3130-080,GRANJA DO ULMEIRO,-8.633621580403522,40.15828296114241
pt.ine.add.PTCONT.1122589,R ALF BARRILARO RUAS,26,3130-220,SOURE,-8.62765073244667,40.05998142468918
pt.ine.add.PTCONT.1122590,R ALF BARRILARO RUAS,38,3130-220,SOURE,-8.627908838913338,40.06001634684107
pt.ine.add.PTCONT.1122591,CAM MUNICIPAL 1116,,3130-534,SOURE,-8.6376361614929,40.06149641627854
pt.ine.add.PTCONT.1122592,,,3130-506,SOURE,-8.651583759612443,40.05682374359419
pt.ine.add.PTCONT.1122686,R BAIXO,17,3130-080,GRANJA DO ULMEIRO,-8.637030837000804,40.162185736058
pt.ine.add.PTCONT.1122687,R ADRO,22,3130-080,GRANJA DO ULMEIRO,-8.634622929201289,40.16197104346698
pt.ine.add.PTCONT.1122688,TV NSA SRA DA VIDA,5,3130-080,GRANJA DO ULMEIRO,-8.636239750321026,40.161558764182104
