id,street,house,postcode,city,lon,lat
pt.ine.add.PTCONT.3552988,R PENA,,4605-465,TRAVANCA AMT,-8.198511317893495,41.27210395106725
pt.ine.add.PTCONT.3546190,R CASAL,,4600-520,ANSIÃES,-7.953171418654314,41.25296500724766
pt.ine.add.PTCONT.3543057,R RAPOSEIRA,50,4600-304,AMARANTE,-8.094396242350113,41.26437239485904
pt.ine.add.PTCONT.3543046,R CASAL,516,4600-520,ANSIÃES,-7.952419895099362,41.25290980493789
pt.ine.add.PTCONT.3543047,R PAROQUIA,,4600-520,ANSIÃES,-7.953885553745884,41.24923836726383
pt.ine.add.PTCONT.3543048,R EIDO,440,4600-520,ANSIÃES,-7.952870064393049,41.24974101950197
pt.ine.add.PTCONT.3543049,R S LOURENÇO,483,4600-520,ANSIÃES,-7.938394835273781,41.23474338439579
pt.ine.add.PTCONT.3543050,VLA CAPELA,5,4600-530,BUSTELO AMT,-7.993433673963114,41.24461993045811
pt.ine.add.PTCONT.3543051,R CENTRAL DE BACEIROS,102,4600-530,BUSTELO AMT,-7.99375597023332,41.24453027847774
pt.ine.add.PTCONT.3543052,R ARQUEOLOGO JOSE PINHO,74,4600-051,AMARANTE,-8.069142653843333,41.26685530271576
pt.ine.add.PTCONT.3543053,R ARQUEOLOGO JOSE PINHO,5 B,4600-051,AMARANTE,-8.069142653843333,41.26685530271576
pt.ine.add.PTCONT.3543054,R CAP SALGUEIRO MAIA,42,4600-125,AMARANTE,-8.065993066363408,41.265917071189286
pt.ine.add.PTCONT.3543055,R ANTÓNIO CARNEIRO,107,4600-012,AMARANTE,-8.073032499155458,41.26751470590919
pt.ine.add.PTCONT.3543056,R BACELO,70,4600-283,AMARANTE,-8.093381566989832,41.26492130667155
pt.ine.add.PTCONT.3543058,TV INFESTA,,4600-741,SÃO SIMÃO GOUVEIA,-8.041957751120734,41.23215264555319
pt.ine.add.PTCONT.3543059,R BARREIRO,218,4600-741,SÃO SIMÃO GOUVEIA,-8.047192116575218,41.2244490093034
pt.ine.add.PTCONT.3543060,TV S ANA,,4615-220,TELÕES AMT,-8.105107399650777,41.332077837065334
pt.ine.add.PTCONT.3543061,R COSTA,277,4600-758,TELÕES AMT,-8.086178559593852,41.29147197927804
pt.ine.add.PTCONT.3543062,R COSTA,377,4600-755,TELÕES AMT,-8.083923511652216,41.289733231231224
pt.ine.add.PTCONT.3543063,R COSTA,464,4600-758,TELÕES AMT,-8.085235816203006,41.29094034455637
pt.ine.add.PTCONT.3543064,R PADRE ANTÓNIO MAGALHÃES,540,4600-788,VILA CAIZ,-8.134623352763475,41.241526134056336
pt.ine.add.PTCONT.3543065,CAM FERREIRO,65,4600-810,VILA GARCIA AMT,-8.08217484207842,41.31242296204284
pt.ine.add.PTCONT.3543066,R SANTO AMARO,1075,4600-810,VILA GARCIA AMT,-8.070392986062034,41.30710469778908
pt.ine.add.PTCONT.3543067,R ALAMBIQUE,32,4600-810,VILA GARCIA AMT,-8.085758837038187,41.31057864197531
pt.ine.add.PTCONT.3543112,R PORTELINHA,,4600-530,BUSTELO AMT,-7.997705442255183,41.23841209794977
pt.ine.add.PTCONT.3543113,LAD EIRA VELHA,,4600-530,BUSTELO AMT,-7.998230915353929,41.23811557411551
pt.ine.add.PTCONT.3543114,R VENDA,23,4600-530,BUSTELO AMT,-8.000129794666908,41.237019262968595
pt.ine.add.PTCONT.3543115,R NSA SRA DOS PRAZERES,,4600-530,BUSTELO AMT,-8.004274946708792,41.215746866905896
pt.ine.add.PTCONT.3543116,R NSA SRA DOS PRAZERES,,4600-530,BUSTELO AMT,-8.00415637295729,41.215404570990785
pt.ine.add.PTCONT.3543117,CAM DA FORJA,1,4600-540,CANADELO,-7.974238039558865,41.32357976274322
pt.ine.add.PTCONT.3543118,R CENTRAL DE CANDEMIL,195,4600-552,CANDEMIL AMT,-7.969372909174433,41.253484419420865
pt.ine.add.PTCONT.3543119,R VELHA DE CANDEMIL,59,4600-552,CANDEMIL AMT,-7.969164152931524,41.24630774382871
pt.ine.add.PTCONT.3543120,,,4600-761,TELÕES AMT,-8.118585108374653,41.31921343208354
pt.ine.add.PTCONT.3543121,R AMIAIS,,4600-761,TELÕES AMT,-8.092981411080915,41.31425507769659
pt.ine.add.PTCONT.3543122,R BOAVISTA,151,4600-756,TELÕES AMT,-8.09415574160173,41.287531123342696
pt.ine.add.PTCONT.3543123,R BOAVISTA DE BAIXO,156,4600-756,TELÕES AMT,-8.094574025875147,41.286738895810124
pt.ine.add.PTCONT.3543124,R NSA SRA DO CARMO,,4605-453,TRAVANCA AMT,-8.189604606093113,41.28210332901355
pt.ine.add.PTCONT.3543125,R PASSINHOS,,4600-790,VILA CAIZ,-8.116229273123276,41.23810328819074
pt.ine.add.PTCONT.3543126,R PADRAO,203,4600-789,VILA CAIZ,-8.12939925305254,41.22511130013059
pt.ine.add.PTCONT.3543127,R PADRAO,203,4600-789,VILA CAIZ,-8.12939925305254,41.22511130013059
pt.ine.add.PTCONT.3543128,R PADRAO,203,4600-789,VILA CAIZ,-8.12939925305254,41.22511130013059
pt.ine.add.PTCONT.3543129,R BELMONTE,92,4600-783,VILA CAIZ,-8.135267354977698,41.236078545654955
pt.ine.add.PTCONT.3543161,R GRANJA,224,4600-553,CANDEMIL AMT,-7.943444919526561,41.22905211304682
pt.ine.add.PTCONT.3543162,R MURGIDO,65,4600-553,CANDEMIL AMT,-7.944895465921809,41.226479271210344
pt.ine.add.PTCONT.3543163,R VENDA,187,4600-560,CARNEIRO,-7.966159026265252,41.2129876244777
pt.ine.add.PTCONT.3543164,R MQ DE POMBAL,,4600-560,CARNEIRO,-7.97192868645537,41.20878183168977
pt.ine.add.PTCONT.3543165,R ANTÓNIO TEIXEIRA MENDES,136,4600-570,CARVALHO DE REI,-8.030792946747024,41.23253045010169
pt.ine.add.PTCONT.3543166,AV CASTELO,692,4600-570,CARVALHO DE REI,-8.031413030145213,41.232630046359695
pt.ine.add.PTCONT.3543167,R MQ DE POMBAL,1265,4600-530,BUSTELO AMT,-8.008134607335032,41.230329054746264
pt.ine.add.PTCONT.3543168,R CENTRAL DA GATEIRA,,4605-102,MANCELOS,-8.145967148635425,41.29747760663276
pt.ine.add.PTCONT.3543169,R NOVA DA GATEIRA,153,4605-177,MANCELOS,-8.148915301252666,41.29375851646386
pt.ine.add.PTCONT.3543170,TV TROUXAINHO,136,4605-172,MANCELOS,-8.146383013164828,41.287527943769845
pt.ine.add.PTCONT.3543171,R GUNHEIRO,226,4605-130,MANCELOS,-8.149904272267266,41.28615884762239
pt.ine.add.PTCONT.3543172,TV EIDO PEQUENO,114,4605-124,MANCELOS,-8.162434313087727,41.27668392521838
pt.ine.add.PTCONT.3543173,R CASA DA PEDREIRA,,4605-442,TRAVANCA AMT,-8.183091826297758,41.27254387996586
pt.ine.add.PTCONT.3543174,R MESURAS,67,4600-781,VILA CAIZ,-8.1389168963637,41.230234648019284
pt.ine.add.PTCONT.3543175,R IGREJA,206,4600-786,VILA CAIZ,-8.1389168963637,41.230234648019284
pt.ine.add.PTCONT.3543176,R BATALHA,184,4600-781,VILA CAIZ,-8.132655081083977,41.23274698574904
pt.ine.add.PTCONT.3543177,R AMETADE,197,4600-787,VILA CAIZ,-8.141642460832706,41.233330421749436
pt.ine.add.PTCONT.3543178,R ESPORÕES,137,4600-791,VILA CAIZ,-8.145767970677326,41.22622505643398
pt.ine.add.PTCONT.3543217,R CARVALHINHAS,211,4600-206,AMARANTE,-8.07980103828869,41.26511391263125
pt.ine.add.PTCONT.3543218,TV S SEBASTIÃO,51,4605-133,MANCELOS,-8.158371379459835,41.26423206384436
pt.ine.add.PTCONT.3543219,R OLIVAL DE PADRAO,82,4605-142,MANCELOS,-8.17574094934722,41.26320708906377
pt.ine.add.PTCONT.3543220,TV TAPADA CARNEIRAS,68,4605-117,MANCELOS,-8.174270041275028,41.264242640726394
pt.ine.add.PTCONT.3543221,R NOVA DA LAGE,,4600-801,VILA CHÃ DO MARÃO,-8.034038184258062,41.28719794717157
pt.ine.add.PTCONT.3543222,R CRASTO,122,4600-810,VILA GARCIA AMT,-8.074039207151214,41.315741603327524
pt.ine.add.PTCONT.3543288,TV BOAVISTA,141,4600-107,AMARANTE,-8.084373404715752,41.2626847990365
pt.ine.add.PTCONT.3543289,TV BOAVISTA,141,4600-107,AMARANTE,-8.084373404715752,41.2626847990365
pt.ine.add.PTCONT.3543290,PCT DEVESA,69,4600-211,AMARANTE,-8.083960240921053,41.25668780745481
pt.ine.add.PTCONT.3543291,R CARVALHA,162,4600-120,AMARANTE,-8.080738546930961,41.25674041256077
pt.ine.add.PTCONT.3543292,R NSA SRA DA ASSUNÇAO,207,4600-026,AMARANTE,-8.078211244293763,41.254001947911924
pt.ine.add.PTCONT.3543293,R JUNQUEIRA,,4600-580,CHAPA,-8.057353251327893,41.31734357209847
pt.ine.add.PTCONT.3543294,R REGADAS,,4600-580,CHAPA,-8.06227652434914,41.31483455211439
pt.ine.add.PTCONT.3543295,R MO,4398,4600-595,FREGIM,-8.129456036373016,41.27627340901283
pt.ine.add.PTCONT.3543296,TV RIBEIRA,99,4605-067,VILA MEÃ,-8.187350803407107,41.255956177257545
pt.ine.add.PTCONT.3543297,R CENTRAL DE OLO,,4600-690,OLO,-8.000464219700557,41.30166987832535
pt.ine.add.PTCONT.3543356,R S SEBASTIÃO,,4600-593,FREGIM,-8.109085867596212,41.265582962416666
pt.ine.add.PTCONT.3543357,R CAMPO,156A,4600-591,FREGIM,-8.112057763256544,41.26429594064273
pt.ine.add.PTCONT.3543358,CC 1 DE MAIO,40,4600-701,PADRONELO,-8.059702490468517,41.25660286353659
pt.ine.add.PTCONT.3543359,R TRAS DO OUTEIRO,42,4600-701,PADRONELO,-8.052992806190737,41.25001629273645
pt.ine.add.PTCONT.3543360,R CHARRASCAL,138,4605-318,VILA MEÃ,-8.165276320867514,41.255046028636336
pt.ine.add.PTCONT.3591112,R MONTE,,4605-136,MANCELOS,-8.164763616048576,41.280501088592594
pt.ine.add.PTCONT.3543426,R BOAVISTA,121,4600-593,FREGIM,-8.103474880365868,41.270371897577014
pt.ine.add.PTCONT.3543427,R ALTO SECO,406,4600-591,FREGIM,-8.107381693249389,41.2596217980075
pt.ine.add.PTCONT.3543428,CC S SEBASTIÃO,117,4600-611,FREIXO DE BAIXO,-8.111973857329062,41.30244668401525
pt.ine.add.PTCONT.3543429,R PROF JOSE RIBEIRO SOARES,264,4605-362,VILA MEÃ,-8.17345749121651,41.248533386272946
pt.ine.add.PTCONT.3543430,R PINHEIRO MANSO,,4605-305,VILA MEÃ,-8.172995118316265,41.25333280838251
pt.ine.add.PTCONT.3543431,R STA COMBA,128,4605-362,VILA MEÃ,-8.175341620692558,41.247137052340626
pt.ine.add.PTCONT.3543432,CAM ROBIM,,4605-384,VILA MEÃ,-8.180431700863855,41.25790414321263
pt.ine.add.PTCONT.3543474,R FREIXO BAIXO,194,4600-614,FREIXO DE BAIXO,-8.102211555391136,41.291999641119574
pt.ine.add.PTCONT.3543475,R LAMACEIRO,82,4615-036,FREIXO DE CIMA,-8.144979055691381,41.31337905364933
pt.ine.add.PTCONT.3543476,R SOUTO,,4605-335,VILA MEÃ,-8.177105366862396,41.24424602759279
pt.ine.add.PTCONT.3543509,AV LAGARTEIRA,1240,4615-034,FREIXO DE CIMA,-8.14685373073844,41.312055235692036
pt.ine.add.PTCONT.3543510,R LAMACEIRO,37,4615-034,FREIXO DE CIMA,-8.144811772238432,41.31287483867557
pt.ine.add.PTCONT.3543511,R S BRÁS,187,4605-363,VILA MEÃ,-8.181076646121047,41.24241657814424
pt.ine.add.PTCONT.3543512,R REI DO FERRO,313,4605-370,VILA MEÃ,-8.184210491769212,41.237796045186585
pt.ine.add.PTCONT.3543513,R ADEGAS,,4600-723,SALVADOR DO MONTE,-8.090732807286761,41.245705324476404
pt.ine.add.PTCONT.3543514,R DIVINO SALVADOR,684,4600-723,SALVADOR DO MONTE,-8.093128194176124,41.2303178968177
pt.ine.add.PTCONT.3543572,R RANHADOURO,,4615-045,FREIXO DE CIMA,-8.12545417980106,41.30559982528794
pt.ine.add.PTCONT.3543573,R BOUCOS,111,4615-047,FREIXO DE CIMA,-8.129764707546318,41.308688456061304
pt.ine.add.PTCONT.3543574,R SERRADO,16,4615-047,FREIXO DE CIMA,-8.123006194675902,41.30617590247499
pt.ine.add.PTCONT.3543575,R ALTO DA BEATRIZ,,4600-730,SANCHE,-8.006754195572087,41.27823007416003
pt.ine.add.PTCONT.3543576,CAM FRAGA DA BAGANHA,54,4600-730,SANCHE,-8.005654557518831,41.272880366782594
pt.ine.add.PTCONT.3543577,R ERMIDA,71,4615-098,FIGUEIRÓ (SANTA CRISTINA),-8.187431838399517,41.296141894306295
pt.ine.add.PTCONT.3543578,R ERMIDA,76,4615-098,FIGUEIRÓ (SANTA CRISTINA),-8.187180951044265,41.29594392066274
pt.ine.add.PTCONT.3543579,R ERMIDA,76,4615-098,FIGUEIRÓ (SANTA CRISTINA),-8.187180951044265,41.29594392066274
pt.ine.add.PTCONT.3543580,CC DEVEZINHA,141,4615-096,FIGUEIRÓ (SANTA CRISTINA),-8.18604618920046,41.2952781393765
pt.ine.add.PTCONT.3543581,CC DEVEZINHA,141,4615-096,FIGUEIRÓ (SANTA CRISTINA),-8.18604618920046,41.2952781393765
pt.ine.add.PTCONT.3543642,R BOAVISTA,365,4600-633,GATÃO,-8.073317131466956,41.29562594652964
pt.ine.add.PTCONT.3543643,R SERRINHA,86,4615-207,FIGUEIRÓ (SANTIAGO),-8.171453317074254,41.30998771986275
pt.ine.add.PTCONT.3543644,VIA ESCOLAS,302,4615-182,FIGUEIRÓ (SANTIAGO),-8.172479148805383,41.30806048528317
pt.ine.add.PTCONT.3543711,AV TARDINHADE,,4600-634,GATÃO,-8.065616045056464,41.30573452166713
pt.ine.add.PTCONT.3543712,AV TEIXEIRA DE PASCOAES,887,4600-632,GATÃO,-8.073611172804963,41.287369267614295
pt.ine.add.PTCONT.3543713,R VAL DE INFANTE,33,4600-632,GATÃO,-8.077923250731747,41.28429198344721
pt.ine.add.PTCONT.3543714,R VENDA NOVA,655,4615-209,FIGUEIRÓ (SANTIAGO),-8.156510837937374,41.30064541271308
pt.ine.add.PTCONT.3543715,R SEARAS,224,4615-187,FIGUEIRÓ (SANTIAGO),-8.154063939983008,41.3031850579041
pt.ine.add.PTCONT.3543716,R ALTOS,229,4615-172,FIGUEIRÓ (SANTIAGO),-8.144081055582523,41.29953075208772
pt.ine.add.PTCONT.3543717,R ALTOS,229,4615-172,FIGUEIRÓ (SANTIAGO),-8.144081055582523,41.29953075208772
pt.ine.add.PTCONT.3543718,R ALTOS,290,4615-172,FIGUEIRÓ (SANTIAGO),-8.143400523772726,41.29978293158732
pt.ine.add.PTCONT.3543775,R RAMADAS,,4600-641,GONDAR AMT,-8.01657108140709,41.24827438390839
pt.ine.add.PTCONT.3543776,CAM VALE DE MOINHOS,74,4600-644,GONDAR AMT,-8.018019616062475,41.245457511785986
pt.ine.add.PTCONT.3543777,R RIO,448,4600-644,GONDAR AMT,-8.02340341003953,41.24344581506507
pt.ine.add.PTCONT.3543778,R DR ANTÓNIO FERNANDES DA FONSECA,390,4600-650,GONDAR AMT,-8.019562301243734,41.23641877071062
pt.ine.add.PTCONT.3543779,R CAP SALGUEIRO MAIA,140,4600-125,AMARANTE,-8.082762447921784,41.27819836187832
pt.ine.add.PTCONT.3543780,TV JOSE MOURA BASTO,132,4600-135,AMARANTE,-8.093781288592924,41.274952136328146
pt.ine.add.PTCONT.3543781,R ARMANDO PEREIRA DOS ANJOS,93,4600-069,AMARANTE,-8.085606038995982,41.27429174652492
pt.ine.add.PTCONT.3543782,R ARMANDO PEREIRA DOS ANJOS,93,4600-069,AMARANTE,-8.085606038995982,41.27429174652492
pt.ine.add.PTCONT.3543835,R CARVALHAL,62,4600-652,JAZENTE,-8.061156462020545,41.2364342650991
pt.ine.add.PTCONT.3543836,R PADRE PAULINO CABRAL,208,4600-652,JAZENTE,-8.059482350124366,41.24012495393459
pt.ine.add.PTCONT.3543837,R ALTO,1400,4600-661,LOMBA AMT,-8.075397886669158,41.25117324108028
pt.ine.add.PTCONT.3543838,R ARMANDO PEREIRA DOS ANJOS,93,4600-069,AMARANTE,-8.085606038995982,41.27429174652492
pt.ine.add.PTCONT.3543839,R ARMANDO PEREIRA DOS ANJOS,93,4600-069,AMARANTE,-8.085606038995982,41.27429174652492
pt.ine.add.PTCONT.3543840,R GOLAS,9025 4,4600-261,AMARANTE,-8.090960539524355,41.281173040042574
pt.ine.add.PTCONT.3543841,R FREITAS,87,4600-069,AMARANTE,-8.083420960460003,41.27551539600727
pt.ine.add.PTCONT.3543879,CAM OUTEIRO DA VÁRZEA,52,4600-500,ABOADELA,-7.986437191456966,41.26312393560885
pt.ine.add.PTCONT.3543880,R ERINHA,31,4600-500,ABOADELA,-7.986927174590454,41.26280040685515
pt.ine.add.PTCONT.3543881,VLA FRAGA,5,4600-500,ABOADELA,-7.9871433741869335,41.262170385726364
pt.ine.add.PTCONT.3543882,R LAVANDEIRA,21 CASA 2,4600-670,LOUREDO AMT,-8.120759117753424,41.254293504124576
pt.ine.add.PTCONT.3543883,R BARREIROS,150,4600-670,LOUREDO AMT,-8.123539605749267,41.251394403710755
pt.ine.add.PTCONT.3543884,R ALTO DA BELA,108,4600-681,LUFREI,-8.05727550895002,41.28136287631355
pt.ine.add.PTCONT.3543885,R MURTORIO,154,4600-681,LUFREI,-8.059313825311074,41.28387637036512
pt.ine.add.PTCONT.3543886,AV GEN VITORINO LARANJEIRA,52,4600-018,AMARANTE,-8.077679665379343,41.2759089599425
pt.ine.add.PTCONT.3543887,AV GEN VITORINO LARANJEIRA,52,4600-018,AMARANTE,-8.077679665379343,41.2759089599425
pt.ine.add.PTCONT.3543888,AV GEN VITORINO LARANJEIRA,52,4600-018,AMARANTE,-8.077679665379343,41.2759089599425
pt.ine.add.PTCONT.3543932,R SANGUINHEDO,362,4600-510,ABOIM AMT,-8.071538704780552,41.32047646866305
pt.ine.add.PTCONT.3543933,R SANGUINHEDO NASCENTE,180,4600-510,ABOIM AMT,-8.066008437236203,41.320815534711826
pt.ine.add.PTCONT.3543934,R PINHEIROS MANSOS,,4600-580,CHAPA,-8.065317361978936,41.31921239408862
pt.ine.add.PTCONT.3543935,R MEIA LARANJA,38,4600-520,ANSIÃES,-7.948250337853031,41.25063411900222
pt.ine.add.PTCONT.3543936,R VENDA NOVA,523,4600-681,LUFREI,-8.05956057152598,41.27674520562188
pt.ine.add.PTCONT.3543937,R ESCOLA,,4600-683,LUFREI,-8.048830105578906,41.26767961764881
pt.ine.add.PTCONT.3543938,TV CAMPO,,4600-683,LUFREI,-8.046980590854677,41.26748015620201
pt.ine.add.PTCONT.3543939,TV CAMPO,9,4600-683,LUFREI,-8.046885817759756,41.26694883655487
pt.ine.add.PTCONT.3543940,R OUTEIRO,,4600-114,AMARANTE,-8.09644667396258,41.26816384181501
pt.ine.add.PTCONT.3543941,R DR FRANCISCO SA CARNEIRO,490,4600-073,AMARANTE,-8.086695749633675,41.2692048127391
pt.ine.add.PTCONT.3591547,R EIDO,,4600-520,ANSIÃES,-7.95209533791654,41.24946067277465
pt.ine.add.PTCONT.3552962,EN 15,,4615-188,FIGUEIRÓ (SANTIAGO),-8.156097293791628,41.31305322092505
pt.ine.add.PTCONT.3552963,EN 15,,4615-188,FIGUEIRÓ (SANTIAGO),-8.156097293791628,41.31305322092505
pt.ine.add.PTCONT.3544734,R CORUJEIRAS,,4600-530,BUSTELO AMT,-8.004147136448541,41.21403590764074
pt.ine.add.PTCONT.3544768,R S JOÃO,2539,4600-670,LOUREDO AMT,-8.117715445620398,41.259029364165144
pt.ine.add.PTCONT.3544771,R CENTRAL DE PADRAO,64,4605-142,MANCELOS,-8.181880078995686,41.26154406347461
pt.ine.add.PTCONT.3544788,R BOUCOS,111,4615-047,FREIXO DE CIMA,-8.129764707546318,41.308688456061304
pt.ine.add.PTCONT.3544795,TV CAMPO,9,4600-683,LUFREI,-8.046885817759756,41.26694883655487
pt.ine.add.PTCONT.3544826,R DE S BRÁS,7,4600-500,ABOADELA,-7.986845350439218,41.26203494420121
pt.ine.add.PTCONT.3544862,R GATEIRA,350,4605-443,TRAVANCA AMT,-8.200066702628414,41.275875819019504
pt.ine.add.PTCONT.3591656,R VESSADA,,4615-220,TELÕES AMT,-8.100508387557143,41.33184251936997
pt.ine.add.PTCONT.3544946,R CUMIEIRA,138,4615-095,FIGUEIRÓ (SANTA CRISTINA),-8.180951364364157,41.299602370607175
pt.ine.add.PTCONT.3545017,CAM EIRA BAIXO,,4600-520,ANSIÃES,-7.952776153656491,41.2491826096583
pt.ine.add.PTCONT.3545018,R ESCOLA,320,4600-741,SÃO SIMÃO GOUVEIA,-8.06375017303222,41.22017413240908
pt.ine.add.PTCONT.3545019,R CACHADA,,4600-758,TELÕES AMT,-8.090730687904369,41.28590015585822
pt.ine.add.PTCONT.3545045,R VENDA NOVA,657,4615-209,FIGUEIRÓ (SANTIAGO),-8.156510837937374,41.30064541271308
pt.ine.add.PTCONT.3545159,R ESTALAGEM,,4605-326,VILA MEÃ,-8.173544985839369,41.25498939618719
pt.ine.add.PTCONT.3545179,R CASA NOVA,52,4615-026,FREIXO DE CIMA,-8.13199785318574,41.30389828856406
pt.ine.add.PTCONT.3545226,AV ALTO DA LIXA,1156,4615-013,FREIXO DE CIMA,-8.145600444315244,41.31539591586084
pt.ine.add.PTCONT.3591657,,,4615-220,TELÕES AMT,-8.129728578864162,41.31457716719124
pt.ine.add.PTCONT.3546146,R PLANA,193,4600-635,GATÃO,-8.060611794179316,41.29751852620699
pt.ine.add.PTCONT.3546147,URB BOAVISTA,51,4600-111,AMARANTE,-8.082977001037332,41.26298133885819
pt.ine.add.PTCONT.3615241,R CASAL,,4600-520,ANSIÃES,-7.954977233425131,41.25253811961887
pt.ine.add.PTCONT.3546082,R S BRÁS,215,4600-500,ABOADELA,-7.987510177470966,41.263575508445754
pt.ine.add.PTCONT.3546068,R MOSTEIRO,1021,4600-643,GONDAR AMT,-8.033954459651712,41.263642882318265
pt.ine.add.PTCONT.3546083,CC TERREIRO,5,4600-500,ABOADELA,-7.987202377852024,41.26246759979432
pt.ine.add.PTCONT.3546107,R S FAUSTINO,777,4600-620,FRIDÃO,-8.036800113780036,41.30859419156424
pt.ine.add.PTCONT.3546145,R S FAUSTINO,2105,4600-620,FRIDÃO,-8.029458687008564,41.314494534562655
pt.ine.add.PTCONT.3546144,R S MAMEDE,2565,4600-530,BUSTELO AMT,-7.9990701873561,41.236027565626266
pt.ine.add.PTCONT.3546142,CC S BRÁS,3,4600-500,ABOADELA,-7.9873441930422935,41.2630890705962
pt.ine.add.PTCONT.3546143,R DR FERNANDO BROCHADO,645,4600-631,GATÃO,-8.069245756106486,41.295758822475676
pt.ine.add.PTCONT.3546148,R CAMPO,94,4600-591,FREGIM,-8.111246362163243,41.264079688116425
pt.ine.add.PTCONT.3546149,R RIBEIRO,15,4600-500,ABOADELA,-7.950036442727959,41.29889047451588
pt.ine.add.PTCONT.3546150,R TRAS DAS TAPADAS,13,4600-510,ABOIM AMT,-8.070466664802211,41.32993022156795
pt.ine.add.PTCONT.3546151,CAM VERDEAL,,4600-611,FREIXO DE BAIXO,-8.125335950524692,41.295659219942095
pt.ine.add.PTCONT.3546152,R TAPADINHAS,32,4600-620,FRIDÃO,-8.036206821492128,41.314104230910054
pt.ine.add.PTCONT.3546153,R AVELEIRA,,4600-510,ABOIM AMT,-8.068356164008387,41.32605728173728
pt.ine.add.PTCONT.3546154,R S PEDRO,749,4600-510,ABOIM AMT,-8.069776753117116,41.32691346382559
pt.ine.add.PTCONT.3546155,R S SEBASTIÃO,273,4600-611,FREIXO DE BAIXO,-8.114206529227731,41.30306835937523
pt.ine.add.PTCONT.3546156,R S SEBASTIAO,,4600-611,FREIXO DE BAIXO,-8.114206529227731,41.30306835937523
pt.ine.add.PTCONT.3546157,R CALE,289,4600-632,GATÃO,-8.060927014952423,41.29316970935732
pt.ine.add.PTCONT.3546158,R AGREIRAS,50,4600-631,GATÃO,-8.07507839287492,41.30209183939595
pt.ine.add.PTCONT.3546159,R S LOURENÇO,499,4600-520,ANSIÃES,-7.938537944390707,41.23475263056057
pt.ine.add.PTCONT.3546160,R VILA BOA,285,4605-045,VILA MEÃ,-8.191457720549142,41.245176091196626
pt.ine.add.PTCONT.3546161,R REBEICADO,243,4600-540,CANADELO,-7.972776893003412,41.32031824302635
pt.ine.add.PTCONT.3546162,R URBANIZAÇÃO DO ALTO DA LIXA,5,4615-013,FREIXO DE CIMA,-8.133156103655397,41.31449617951586
pt.ine.add.PTCONT.3546163,R TORRE,366,4600-580,CHAPA,-8.054899540173777,41.311849404883716
pt.ine.add.PTCONT.3546164,R BELA VISTA,55,4600-580,CHAPA,-8.050944663568345,41.31347640000593
pt.ine.add.PTCONT.3546165,R RANHADOURO,378,4615-045,FREIXO DE CIMA,-8.12857075462308,41.305816090080164
pt.ine.add.PTCONT.3546166,R DEVESA,61,4600-620,FRIDÃO,-8.037373041716245,41.30877475248013
pt.ine.add.PTCONT.3546167,R SANGUINHEDO,280,4600-510,ABOIM AMT,-8.071168758065536,41.32015212140591
pt.ine.add.PTCONT.3546168,R SEIXO,269,4605-024,VILA MEÃ,-8.202181345215479,41.24384653265789
pt.ine.add.PTCONT.3546169,TV CARVALHINHAS,23,4600-553,CANDEMIL AMT,-7.943746756451795,41.22778300757212
pt.ine.add.PTCONT.3546170,R MO,3172,4600-595,FREGIM,-8.123403926797005,41.28136943432352
pt.ine.add.PTCONT.3546171,TV CARVALHINHOS,204,4615-023,FREIXO DE CIMA,-8.13657164212421,41.31374878354238
pt.ine.add.PTCONT.3546172,R 25 DE ABRIL,268,4605-016,VILA MEÃ,-8.19143757609702,41.24935407222899
pt.ine.add.PTCONT.3546173,R FIJOS,74,4600-596,FREGIM,-8.124943821161748,41.280721251783966
pt.ine.add.PTCONT.3546174,R S GENS DE BAIXO,53,4615-047,FREIXO DE CIMA,-8.125537569657984,41.307301616134794
pt.ine.add.PTCONT.3546175,TV PENOUCOS,84,4600-500,ABOADELA,-7.984829902126197,41.28258896580207
pt.ine.add.PTCONT.3546176,TV PENOUCOS,84,4600-500,ABOADELA,-7.984829902126197,41.28258896580207
pt.ine.add.PTCONT.3546177,R BUSTELO DE BAIXO,234,4600-530,BUSTELO AMT,-8.000033419785385,41.243367152078406
pt.ine.add.PTCONT.3546178,CAM FUNDO DA EIRA,12,4600-553,CANDEMIL AMT,-7.945061198485983,41.22691174711977
pt.ine.add.PTCONT.3546179,PCT DEVESA,,4600-211,AMARANTE,-8.083554122810703,41.257254900024336
pt.ine.add.PTCONT.3546180,R ZE DO TELHADO,90,4605-046,VILA MEÃ,-8.195816376816012,41.24959488531682
pt.ine.add.PTCONT.3546181,R TABUAS,281,4600-613,FREIXO DE BAIXO,-8.11694022421314,41.30581504407409
pt.ine.add.PTCONT.3546182,R TABUAS,281,4600-613,FREIXO DE BAIXO,-8.11694022421314,41.30581504407409
pt.ine.add.PTCONT.3546183,R TABUAS,281,4600-613,FREIXO DE BAIXO,-8.11694022421314,41.30581504407409
pt.ine.add.PTCONT.3546184,R RAINHA,86,4600-632,GATÃO,-8.067917705175319,41.286582820255646
pt.ine.add.PTCONT.3546185,R PESO,246,4600-520,ANSIÃES,-7.949552164890048,41.25014997291542
pt.ine.add.PTCONT.3546186,R PESO,,4600-520,ANSIÃES,-7.950221218438669,41.24981788076885
pt.ine.add.PTCONT.3546187,R CARVALHADA,13,4600-551,CANDEMIL AMT,-7.967583765524287,41.253256755412444
pt.ine.add.PTCONT.3546188,R TABUAS,281,4600-613,FREIXO DE BAIXO,-8.11694022421314,41.30581504407409
pt.ine.add.PTCONT.3546189,R BARRAL,46,4600-500,ABOADELA,-7.990175401225063,41.27811163874561
pt.ine.add.PTCONT.3546191,AV CAMPELO,481,4615-021,FREIXO DE CIMA,-8.144071391337125,41.31311802348324
pt.ine.add.PTCONT.3546192,R PAREDES,170,4600-594,FREGIM,-8.12545737224704,41.27828114953811
pt.ine.add.PTCONT.3546193,R AGUA NOVA,207,4615-012,FREIXO DE CIMA,-8.144545892854563,41.301231335135896
pt.ine.add.PTCONT.3546194,TV LAPA,70,4600-530,BUSTELO AMT,-7.9988619906572085,41.238674575632416
pt.ine.add.PTCONT.3546195,CC CALVÁRIO,16,4600-205,AMARANTE,-8.074991600864482,41.26534569509965
pt.ine.add.PTCONT.3546196,TV BARRACAO,50,4600-591,FREGIM,-8.09943905094058,41.27417956831861
pt.ine.add.PTCONT.3546197,R S PEDRO,,4600-660,LOMBA AMT,-8.080042884721605,41.2464482468261
pt.ine.add.PTCONT.3546198,R TROVISCAIS,172,4600-681,LUFREI,-8.059293790104089,41.269874825526934
pt.ine.add.PTCONT.3546199,R ALDEIA,108,4600-643,GONDAR AMT,-8.03374893220898,41.26539852788307
pt.ine.add.PTCONT.3546200,R ESCOLA,,4600-683,LUFREI,-8.049404123600155,41.26675260220725
pt.ine.add.PTCONT.3546201,R ATAUDES,84,4600-237,AMARANTE,-8.060712893840197,41.2708661898121
pt.ine.add.PTCONT.3546202,R SETE CASAS,242,4600-246,AMARANTE,-8.066005331934191,41.265592926481325
pt.ine.add.PTCONT.3546203,R SETE CASAS,242,4600-246,AMARANTE,-8.066005331934191,41.265592926481325
pt.ine.add.PTCONT.3546204,R ESTRADA REAL,615,4600-078,AMARANTE,-8.06649556357284,41.26465677235492
pt.ine.add.PTCONT.3546205,R DR AMADEU DE SOUSA PINTO,54,4605-159,MANCELOS,-8.138456769827586,41.29198565466987
pt.ine.add.PTCONT.3546206,CC BOAVISTA,35,4605-108,MANCELOS,-8.162600330550935,41.274279760434325
pt.ine.add.PTCONT.3546207,R FORNOS,,4600-652,JAZENTE,-8.06173996205304,41.23734405883429
pt.ine.add.PTCONT.3546208,R FORNOS,,4600-652,JAZENTE,-8.06173996205304,41.23734405883429
pt.ine.add.PTCONT.3546209,R PIDRE,290,4605-145,MANCELOS,-8.13689151288227,41.26918709299085
pt.ine.add.PTCONT.3546210,R PIDRE,290,4605-145,MANCELOS,-8.13689151288227,41.26918709299085
pt.ine.add.PTCONT.3546211,R MOURE,191,4600-683,LUFREI,-8.049548627114685,41.265735230647934
pt.ine.add.PTCONT.3546212,R SANTO ANDRÉ,1163,4600-704,PADRONELO,-8.053450101855976,41.25660771182567
pt.ine.add.PTCONT.3546213,R CRUZES,166,4605-307,VILA MEÃ,-8.17590419570612,41.249973182025265
pt.ine.add.PTCONT.3546214,R MEM GUNDAR,2117,4600-648,GONDAR AMT,-8.027660141734225,41.259621405904966
pt.ine.add.PTCONT.3546215,TV TROUXAINHO,126,4605-172,MANCELOS,-8.146036826315699,41.287554995722424
pt.ine.add.PTCONT.3546216,R TAPADA DE SALGUEIROS,,4605-304,VILA MEÃ,-8.1751426316609,41.25310693845351
pt.ine.add.PTCONT.3546217,TV MIRADOURO,66,4605-336,VILA MEÃ,-8.173635125406163,41.24639031298733
pt.ine.add.PTCONT.3546218,CAM AMIEIRAL,22,4600-648,GONDAR AMT,-8.028822297757245,41.25666907727795
pt.ine.add.PTCONT.3546219,R CACHADA,98 B,4600-670,LOUREDO AMT,-8.120962210288292,41.25291587729648
pt.ine.add.PTCONT.3546220,R BARRAL,87,4600-690,OLO,-8.01118637898612,41.30176277128428
pt.ine.add.PTCONT.3546221,ESTR POMBALINA,239,4605-359,VILA MEÃ,-8.180630287807924,41.25202429557368
pt.ine.add.PTCONT.3546222,ESTR POMBALINA,239,4605-359,VILA MEÃ,-8.180630287807924,41.25202429557368
pt.ine.add.PTCONT.3546223,ESTR POMBALINA,239,4605-359,VILA MEÃ,-8.180630287807924,41.25202429557368
pt.ine.add.PTCONT.3546224,R DR ANTÓNIO FERNANDES DA FONSECA,817,4600-650,GONDAR AMT,-8.021325286427306,41.23783416475291
pt.ine.add.PTCONT.3546225,R PENA,569,4600-681,LUFREI,-8.050859389097909,41.27679334339298
pt.ine.add.PTCONT.3546226,R PENA,,4600-681,LUFREI,-8.049224222210112,41.27677415519398
pt.ine.add.PTCONT.3546227,R EIRASTOS,26,4600-661,LOMBA AMT,-8.067104730411831,41.25224929460219
pt.ine.add.PTCONT.3546228,R ANA GUEDES DA COSTA,680,4605-105,MANCELOS,-8.172930157734088,41.26424595728578
pt.ine.add.PTCONT.3546229,R ANA GUEDES DA COSTA,680,4605-105,MANCELOS,-8.172930157734088,41.26424595728578
pt.ine.add.PTCONT.3546230,ESC AREAL,22,4600-701,PADRONELO,-8.052812090989715,41.25144784124776
pt.ine.add.PTCONT.3546231,TV COSTA GRANDE DE BAIXO,92,4600-063,AMARANTE,-8.06820316966543,41.27557985616232
pt.ine.add.PTCONT.3546232,R COSTA GRANDE DE BAIXO,44,4600-063,AMARANTE,-8.069923493382065,41.27390603117336
pt.ine.add.PTCONT.3546233,R COSTA GRANDE DE CIMA,929,4600-064,AMARANTE,-8.064444249487433,41.27485733938965
pt.ine.add.PTCONT.3546234,R COSTA GRANDE CIMA,925,4600-064,AMARANTE,-8.064444249487433,41.27485733938965
pt.ine.add.PTCONT.3546235,R AMADEU DE SOUSA CARDOSO,699,4605-133,MANCELOS,-8.155447655427311,41.26412461759441
pt.ine.add.PTCONT.3546236,R OUTEIRO DE BAIXO,61,4600-690,OLO,-8.012728473526465,41.30078294071616
pt.ine.add.PTCONT.3546237,R EIRASTOS,160,4600-661,LOMBA AMT,-8.066341663456956,41.25172660873781
pt.ine.add.PTCONT.3546238,R PORTELA,,4600-681,LUFREI,-8.056421648707502,41.28680084102181
pt.ine.add.PTCONT.3546239,R ARQUEOLOGO JOSE PINHO,226,4600-051,AMARANTE,-8.069190749411929,41.266486156533865
pt.ine.add.PTCONT.3546240,LAD SANTÃO,97,4605-159,MANCELOS,-8.154630070082778,41.28184505397243
pt.ine.add.PTCONT.3546241,R TRIGUEIRA,,4605-171,MANCELOS,-8.157064792564096,41.28089012846194
pt.ine.add.PTCONT.3546242,R CENTRAL MANCELOS,984,4605-159,MANCELOS,-8.153102066620193,41.28146715332977
pt.ine.add.PTCONT.3546243,R FIJOS,284,4605-206,VILA MEÃ,-8.190216476407743,41.25826887919643
pt.ine.add.PTCONT.3546244,R IGREJA,193,4600-661,LOMBA AMT,-8.066106232988652,41.24860199975314
pt.ine.add.PTCONT.3546245,R PORTELA,56,4600-720,SALVADOR DO MONTE,-8.09824560968546,41.22913999977263
pt.ine.add.PTCONT.3546246,LAD SEQUEIROS,54,4600-722,SALVADOR DO MONTE,-8.093664099958826,41.25152310866002
pt.ine.add.PTCONT.3546247,R ESPADANIDO,153,4615-188,FIGUEIRÓ (SANTIAGO),-8.157888327508966,41.312224467921645
pt.ine.add.PTCONT.3546248,R SANTO ISIDORO,,4600-730,SANCHE,-8.007743780986276,41.266327595672614
pt.ine.add.PTCONT.3546249,R BARREIRA,52,4600-254,AMARANTE,-8.084884576167017,41.28155783563166
pt.ine.add.PTCONT.3546250,LG PRESA,75,4615-202,FIGUEIRÓ (SANTIAGO),-8.158802342012848,41.29813276169131
pt.ine.add.PTCONT.3546251,LG PRESA,75 B,4615-202,FIGUEIRÓ (SANTIAGO),-8.158802342012848,41.29813276169131
pt.ine.add.PTCONT.3546252,R FOGUETEIRO,619,4615-173,FIGUEIRÓ (SANTIAGO),-8.152965377011574,41.30306819856158
pt.ine.add.PTCONT.3546253,TV RAPOSEIRA CIMA,,4615-121,FIGUEIRÓ (SANTA CRISTINA),-8.176430173755014,41.30567296527224
pt.ine.add.PTCONT.3546254,R TALEFE,101,4615-174,FIGUEIRÓ (SANTIAGO),-8.149719221367636,41.30960572952163
pt.ine.add.PTCONT.3546255,R DIVINO SALVADOR,1331,4600-723,SALVADOR DO MONTE,-8.091264030011436,41.235827847763666
pt.ine.add.PTCONT.3546256,AV LAGARTEIRA,399,4615-166,FIGUEIRÓ (SANTIAGO),-8.148022420398261,41.30486077274312
pt.ine.add.PTCONT.3546257,R SANTO ISIDÓRO,2205,4600-730,SANCHE,-7.998677613859569,41.28206571716478
pt.ine.add.PTCONT.3546258,CAM S BENTO,233,4615-126,FIGUEIRÓ (SANTA CRISTINA),-8.17443334904962,41.30142373617731
pt.ine.add.PTCONT.3546259,VIA ESCOLAS,1015,4615-186,FIGUEIRÓ (SANTIAGO),-8.167701259524993,41.305549861181404
pt.ine.add.PTCONT.3546260,R IGREJA,742,4600-721,SALVADOR DO MONTE,-8.095399695876203,41.24180810572516
pt.ine.add.PTCONT.3546261,R IGREJA,742,4600-721,SALVADOR DO MONTE,-8.095399695876203,41.24180810572516
pt.ine.add.PTCONT.3546262,R VILA NOVA,163,4600-730,SANCHE,-8.007782994269576,41.27702463621046
pt.ine.add.PTCONT.3546263,R CESTEIRO,,4615-186,FIGUEIRÓ (SANTIAGO),-8.168417400549565,41.30496437354906
pt.ine.add.PTCONT.3546264,AV ESTRADA NACIONAL IS,,4615-188,FIGUEIRÓ (SANTIAGO),-8.156443624171786,41.313062155381814
pt.ine.add.PTCONT.3546265,AV ESTRADA NACIONAL IS,,4615-188,FIGUEIRÓ (SANTIAGO),-8.156443624171786,41.313062155381814
pt.ine.add.PTCONT.3546266,AV ESTRADA NACIONAL IS,,4615-188,FIGUEIRÓ (SANTIAGO),-8.156443624171786,41.313062155381814
pt.ine.add.PTCONT.3546267,AV ESTRADA NACIONAL IS,,4615-188,FIGUEIRÓ (SANTIAGO),-8.156443624171786,41.313062155381814
pt.ine.add.PTCONT.3546268,AV ESTRADA NACIONAL IS,,4615-188,FIGUEIRÓ (SANTIAGO),-8.156443624171786,41.313062155381814
pt.ine.add.PTCONT.3546269,AV ESTRADA NACIONAL IS,,4615-188,FIGUEIRÓ (SANTIAGO),-8.156443624171786,41.313062155381814
pt.ine.add.PTCONT.3546270,AV ESTRADA NACIONAL IS,,4615-188,FIGUEIRÓ (SANTIAGO),-8.156443624171786,41.313062155381814
pt.ine.add.PTCONT.3546271,R CASAL,138,4600-741,SÃO SIMÃO GOUVEIA,-8.0571118860247,41.21657723023896
pt.ine.add.PTCONT.3546272,TV CASAL,26,4600-741,SÃO SIMÃO GOUVEIA,-8.055477408553381,41.21724245780613
pt.ine.add.PTCONT.3546273,TV PENALTA,127,4600-753,TELÕES AMT,-8.093364402679965,41.29322149472307
pt.ine.add.PTCONT.3546274,R CARVALHO,,4605-425,TRAVANCA AMT,-8.20101114164529,41.265835571448406
pt.ine.add.PTCONT.3546275,R CRUZEIRO,,4600-741,SÃO SIMÃO GOUVEIA,-8.062931343714574,41.216409841998235
pt.ine.add.PTCONT.3546276,R SARDAO,223,4600-755,TELÕES AMT,-8.089592684136703,41.29185149592638
pt.ine.add.PTCONT.3546277,R MONTINHO,489,4605-453,TRAVANCA AMT,-8.190632819941065,41.283993700019984
pt.ine.add.PTCONT.3546278,R JOAQUIM AUGUSTO F CARDOSO,431,4600-787,VILA CAIZ,-8.14430895103075,41.22761505602474
pt.ine.add.PTCONT.3546279,R SELALA,185,4600-791,VILA CAIZ,-8.151464154881241,41.22954900658993
pt.ine.add.PTCONT.3546280,R DR LUIS VAN ZELLER MACEDO,110,4600-114,AMARANTE,-8.096482853738369,41.26748853716145
pt.ine.add.PTCONT.3546281,TV PAREDES,53,4600-770,VÁRZEA AMT,-8.011945767158515,41.265629765539984
pt.ine.add.PTCONT.3546282,TV PAREDES,53,4600-770,VÁRZEA AMT,-8.011945767158515,41.265629765539984
pt.ine.add.PTCONT.3546283,R S JOÃO DE VÁRZEA,,4600-770,VÁRZEA AMT,-7.998599967438071,41.26174313318697
pt.ine.add.PTCONT.3546284,R S MIGUEL,994,4600-788,VILA CAIZ,-8.138857834507194,41.23678975929753
pt.ine.add.PTCONT.3546285,R TROVOADA,,4605-490,TRAVANCA AMT,-8.20272323083721,41.28231224438727
pt.ine.add.PTCONT.3546286,R SALGUEIRAL,80,4600-790,VILA CAIZ,-8.119260383346209,41.23227793186529
pt.ine.add.PTCONT.3546287,R SALGUEIRAL,80,4600-790,VILA CAIZ,-8.119260383346209,41.23227793186529
pt.ine.add.PTCONT.3546288,R PASSINHOS,770,4600-790,VILA CAIZ,-8.116754215138025,41.23777921048718
pt.ine.add.PTCONT.3546289,CAM CANEIRO,276,4600-802,VILA CHÃ DO MARÃO,-8.024528630802484,41.305954058190196
pt.ine.add.PTCONT.3546290,R SOALHEIRA,,4600-782,VILA CAIZ,-8.11694448717554,41.24015636227373
pt.ine.add.PTCONT.3546291,CC RIBEIRA,64,4600-802,VILA CHÃ DO MARÃO,-8.030567370635348,41.300512079994526
pt.ine.add.PTCONT.3546292,R CANTO,339,4600-790,VILA CAIZ,-8.12582063629477,41.231648234877824
pt.ine.add.PTCONT.3546293,R FORNOS,27,4600-758,TELÕES AMT,-8.084954666634442,41.28363783337383
pt.ine.add.PTCONT.3546294,R S JOAO VARZEA,1519,4600-770,VÁRZEA AMT,-7.993339261026518,41.255334861824245
pt.ine.add.PTCONT.3546295,R ESCOLA EB 23 DO MARÃO,194,4600-770,VÁRZEA AMT,-8.001998954998886,41.268662292442706
pt.ine.add.PTCONT.3546296,R POLDRAS,286,4600-770,VÁRZEA AMT,-8.002755716083007,41.266195997273115
pt.ine.add.PTCONT.3546297,R PORTELA,,4600-761,TELÕES AMT,-8.107070653233919,41.32166953170957
pt.ine.add.PTCONT.3546298,R SOBRADO,102,4600-752,TELÕES AMT,-8.093035507719383,41.284415290130546
pt.ine.add.PTCONT.3546299,VLA RUA NOVA,6,4600-801,VILA CHÃ DO MARÃO,-8.033882709204688,41.28738690112409
pt.ine.add.PTCONT.3546300,R CARVALHAL DE BAIXO,34,4600-784,VILA CAIZ,-8.147194885677532,41.232512013979985
pt.ine.add.PTCONT.3546301,R CASARÃO,,4600-257,AMARANTE,-8.094016332199885,41.26108572489899
pt.ine.add.PTCONT.3546302,TV ILDA TEIXEIRA CUNHA,,4600-761,TELÕES AMT,-8.112255024407736,41.319401546180586
pt.ine.add.PTCONT.3546303,RAMP HOSPITAL,,4600-761,TELÕES AMT,-8.113091188890765,41.3190055126826
pt.ine.add.PTCONT.3546304,R FONTE MOR CIMA,,4600-761,TELÕES AMT,-8.112744813391158,41.31905947673867
pt.ine.add.PTCONT.3546305,R ESCOLA,76,4600-801,VILA CHÃ DO MARÃO,-8.025203558166806,41.28768523549416
pt.ine.add.PTCONT.3546306,R NSA SRA DA GRAÇA,354,4600-792,VILA CAIZ,-8.137689097743072,41.24035549936559
pt.ine.add.PTCONT.3546307,R ESCOLA,366,4600-741,SÃO SIMÃO GOUVEIA,-8.064763878700264,41.22012971704489
pt.ine.add.PTCONT.3546308,R TABUAS,1484,4600-802,VILA CHÃ DO MARÃO,-8.040102356791488,41.29569394515065
pt.ine.add.PTCONT.3552964,EN 15,,4615-188,FIGUEIRÓ (SANTIAGO),-8.156097293791628,41.31305322092505
pt.ine.add.PTCONT.3546316,R CENTRAL DE NOVIOS,456,4600-801,VILA CHÃ DO MARÃO,-8.039976674083983,41.29172300296281
pt.ine.add.PTCONT.3546406,R RIBAS,358,4600-801,VILA CHÃ DO MARÃO,-8.035946474593818,41.28836111314137
pt.ine.add.PTCONT.3546416,CAM CRUZEIRO,182,4600-801,VILA CHÃ DO MARÃO,-8.03670693150395,41.28267110665126
pt.ine.add.PTCONT.3546437,R CRUZ BOUCAS,140,4600-810,VILA GARCIA AMT,-8.08291797923992,41.30887565408803
pt.ine.add.PTCONT.3559664,R TODEIA,,4615-220,TELÕES AMT,-8.103468683786605,41.336804585077324
pt.ine.add.PTCONT.3572120,TV LAGOA,29,4600-661,LOMBA AMT,-8.071435182634147,41.25287298807014
pt.ine.add.PTCONT.3572162,R CABINE,,4615-182,FIGUEIRÓ (SANTIAGO),-8.17302945845075,41.30970805540165
pt.ine.add.PTCONT.3551486,R CAMPO DE VILAR,,4600-730,SANCHE,-8.003775756751422,41.275417456748606
pt.ine.add.PTCONT.3551487,AV ESTRADA NACIONAL IS,,4615-188,FIGUEIRÓ (SANTIAGO),-8.156443624171786,41.313062155381814
pt.ine.add.PTCONT.3551673,CAM S BENTO,233,4615-126,FIGUEIRÓ (SANTA CRISTINA),-8.17443334904962,41.30142373617731
pt.ine.add.PTCONT.3551676,ESTR POMBALINA,239,4605-359,VILA MEÃ,-8.180630287807924,41.25202429557368
pt.ine.add.PTCONT.3551677,R ENCOSTA,386,4600-788,VILA CAIZ,-8.133418490577029,41.240634722083925
pt.ine.add.PTCONT.3551679,R TORRE,260,4600-690,OLO,-8.008636699262354,41.30196924524676
pt.ine.add.PTCONT.3551680,R S MIGUEL,430,4600-788,VILA CAIZ,-8.132607330653263,41.237942447490795
pt.ine.add.PTCONT.3551681,R BELMONTE,209,4600-783,VILA CAIZ,-8.135004963690795,41.237159062050985
pt.ine.add.PTCONT.3551687,,,4600-757,TELÕES AMT,-8.109786233132528,41.30955954468463
pt.ine.add.PTCONT.3551699,R MURTORIO,226,4600-681,LUFREI,-8.060316141939667,41.2842281718723
pt.ine.add.PTCONT.3551704,TV LUZES,56,4600-631,GATÃO,-8.072950141751322,41.294013004435534
pt.ine.add.PTCONT.3551705,TV CARVALHINHAS,24 2,4600-553,CANDEMIL AMT,-7.943650692873452,41.228007956359306
pt.ine.add.PTCONT.3551708,R SABUGUEIROS,163,4600-785,VILA CAIZ,-8.135445815325811,41.22304935499798
pt.ine.add.PTCONT.3551710,R PALHAIS,6,4605-143,MANCELOS,-8.15993922040611,41.275378924334994
pt.ine.add.PTCONT.3551711,R TALEFE,95,4615-174,FIGUEIRÓ (SANTIAGO),-8.149719221367636,41.30960572952163
pt.ine.add.PTCONT.3551713,R OVELHINHA,49,4600-642,GONDAR AMT,-8.030159743820715,41.24839538627118
pt.ine.add.PTCONT.3551716,R SEBASTIÃO FERRAZ,242,4600-633,GATÃO,-8.068738513201213,41.3016562690956
pt.ine.add.PTCONT.3551821,BOAVISTA,,4605-999,VILA MEÃ,-8.178323513828502,41.24614545264599
pt.ine.add.PTCONT.3551853,LAD RECHÃO,59,4615-139,FIGUEIRÓ (SANTA CRISTINA),-8.190009068079707,41.294249773097036
pt.ine.add.PTCONT.3551857,CAM LAGOAS,,4600-530,BUSTELO AMT,-7.983463483437006,41.227544328910014
pt.ine.add.PTCONT.3551858,R MO,1409,4600-595,FREGIM,-8.108269416559308,41.278674909000024
pt.ine.add.PTCONT.3551859,AV ALTO DA LIXA,1341,4615-013,FREIXO DE CIMA,-8.146424121705028,41.31356798258261
pt.ine.add.PTCONT.3551860,AV BOCA,400,4615-017,FREIXO DE CIMA,-8.144584200906428,41.309066106946226
pt.ine.add.PTCONT.3551861,R VELHA DE BALANCEIROS,13,4605-307,VILA MEÃ,-8.179590129692027,41.2489992946654
pt.ine.add.PTCONT.3551862,TV DE STA RITA,105,4605-359,VILA MEÃ,-8.175445340697985,41.259959049026435
pt.ine.add.PTCONT.3551863,R NSA SRA DE FÁTIMA,1204,4605-307,VILA MEÃ,-8.166972167811327,41.25802594358905
pt.ine.add.PTCONT.3551864,R MOS D ALEM,213,4600-723,SALVADOR DO MONTE,-8.088884221219478,41.244858229736955
pt.ine.add.PTCONT.3551921,R ESTAÇÃO,349,4600-580,CHAPA,-8.045279418632212,41.316866777639504
pt.ine.add.PTCONT.3552685,R FONTAÍNHAS,555,4600-216,AMARANTE,-8.073257358021689,41.256511660929284
pt.ine.add.PTCONT.3552867,R S BRÁS,151,4600-500,ABOADELA,-7.9872490682701525,41.26293587839415
pt.ine.add.PTCONT.3552868,R ROJAO,,4600-560,CARNEIRO,-7.964140579451514,41.20962607700397
pt.ine.add.PTCONT.3552869,R ESTORRINHEIRA,382,4600-634,GATÃO,-8.060825402441825,41.298698206455676
pt.ine.add.PTCONT.3552870,R VÁRZEA DE ABOADELA,297,4600-500,ABOADELA,-7.987883579507865,41.26200924577906
pt.ine.add.PTCONT.3552871,AV PADRE JOÃO MARQUES,1017,4600-635,GATÃO,-8.063310067325219,41.297565214696235
pt.ine.add.PTCONT.3552872,R COSTA,116,4600-570,CARVALHO DE REI,-8.031719977105807,41.23468329003532
pt.ine.add.PTCONT.3552873,R CALÇADA,167,4600-053,AMARANTE,-8.084074807005429,41.26304484118449
pt.ine.add.PTCONT.3552874,R AGRAS,327,4600-614,FREIXO DE BAIXO,-8.112820748131728,41.30527414237316
pt.ine.add.PTCONT.3552875,R VINHAS,59,4600-552,CANDEMIL AMT,-7.968123153313629,41.24753083405925
pt.ine.add.PTCONT.3552876,URB BOAVISTA,,4600-111,AMARANTE,-8.08100766042426,41.26343967988978
pt.ine.add.PTCONT.3552877,R QUINTA,20,4600-218,AMARANTE,-8.07341725752215,41.26436342968273
pt.ine.add.PTCONT.3552878,R GERALDES,15,4600-082,AMARANTE,-8.072547264749877,41.263120392773644
pt.ine.add.PTCONT.3552879,R LAMACEIRO,66,4615-036,FREIXO DE CIMA,-8.144919324306773,41.31327101006095
pt.ine.add.PTCONT.3552880,R PADRE FRANCISCO BABO,19,4605-040,VILA MEÃ,-8.199499039946133,41.24570298622081
pt.ine.add.PTCONT.3552881,R VINHAS,76,4600-592,FREGIM,-8.099530979790952,41.25781893017464
pt.ine.add.PTCONT.3552882,TV MATO,25,4605-018,VILA MEÃ,-8.188452741980383,41.246798339676594
pt.ine.add.PTCONT.3552883,TV MATO,25,4605-018,VILA MEÃ,-8.188452741980383,41.246798339676594
pt.ine.add.PTCONT.3552884,R STA RITA,151,4600-553,CANDEMIL AMT,-7.940741114579116,41.231883972271916
pt.ine.add.PTCONT.3552885,CAM FORMIGUEIRO,36,4600-553,CANDEMIL AMT,-7.940145456125899,41.231639860470764
pt.ine.add.PTCONT.3552886,AV ASSOCIAÇÃO DESPORTIVA FREIXO DE CIMA,173,4615-028,FREIXO DE CIMA,-8.131866321367099,41.313631775072444
pt.ine.add.PTCONT.3552887,CC LEIRINHAS,83,4600-530,BUSTELO AMT,-8.011153282574503,41.2297470136305
pt.ine.add.PTCONT.3552888,TV AGROCHAO,67,4600-611,FREIXO DE BAIXO,-8.108596502904684,41.29770982356332
pt.ine.add.PTCONT.3552889,TV AGROCHAO,67,4600-611,FREIXO DE BAIXO,-8.108596502904684,41.29770982356332
pt.ine.add.PTCONT.3552890,R CARVALHINHOS,275,4615-023,FREIXO DE CIMA,-8.135974538456749,41.31417199469957
pt.ine.add.PTCONT.3552891,R SEIXO,341,4605-024,VILA MEÃ,-8.202730206985466,41.243936244623946
pt.ine.add.PTCONT.3552892,R CENTRAL DE MURGIDO,573,4600-553,CANDEMIL AMT,-7.942284272302305,41.226231858328966
pt.ine.add.PTCONT.3552893,R CENTRAL DE MURGIDO,573,4600-553,CANDEMIL AMT,-7.942284272302305,41.226231858328966
pt.ine.add.PTCONT.3552894,R CENTRAL DE MURGIDO,,4600-553,CANDEMIL AMT,-7.942927908764045,41.22636798723262
pt.ine.add.PTCONT.3552895,R IGREJA,1985,4600-591,FREGIM,-8.11068581010047,41.263152145411986
pt.ine.add.PTCONT.3552896,R PICADEIRO,103,4600-598,FREGIM,-8.108777350378283,41.2608466763579
pt.ine.add.PTCONT.3552897,R VAU,78,4600-635,GATÃO,-8.065415158695693,41.29394679500462
pt.ine.add.PTCONT.3552898,R EIRA,,4600-540,CANADELO,-7.97183497042516,41.32450384552476
pt.ine.add.PTCONT.3552899,R TAMEGA,,4600-592,FREGIM,-8.105224018270711,41.25463295088006
pt.ine.add.PTCONT.3552900,R MOSTEIRO,374,4600-613,FREIXO DE BAIXO,-8.112334160313328,41.29585569965969
pt.ine.add.PTCONT.3552901,TV SANOANE,,4600-611,FREIXO DE BAIXO,-8.11503229551323,41.29628835517337
pt.ine.add.PTCONT.3552902,R CORUJEIRA,243,4600-612,FREIXO DE BAIXO,-8.11773098448923,41.294514925310274
pt.ine.add.PTCONT.3552903,R CASAL DO SINO,208,4600-594,FREGIM,-8.118785942824273,41.27470584461039
pt.ine.add.PTCONT.3552904,CAM LOUROSA,19,4600-560,CARNEIRO,-7.965622329184545,41.21303186665603
pt.ine.add.PTCONT.3552905,R IGREJA,,4600-219,AMARANTE,-8.084143020608204,41.25160049150597
pt.ine.add.PTCONT.3552906,R FRIEIRA,,4600-232,AMARANTE,-8.084143020608204,41.25160049150597
pt.ine.add.PTCONT.3552907,R MO,3433 B,4600-595,FREGIM,-8.125707876210749,41.27962279146815
pt.ine.add.PTCONT.3552908,R TABULADOS,,4600-613,FREIXO DE BAIXO,-8.125167659096492,41.305086568934655
pt.ine.add.PTCONT.3552909,R FREIXO DE BAIXO,568,4600-614,FREIXO DE BAIXO,-8.105530986197726,41.29073089495191
pt.ine.add.PTCONT.3552910,CAM FUNDO DO POVO,69,4600-560,CARNEIRO,-7.966237594852726,41.21022341858378
pt.ine.add.PTCONT.3552911,AV LAGARTEIRA,494,4615-034,FREIXO DE CIMA,-8.14771215389599,41.30573421575
pt.ine.add.PTCONT.3552912,TV CABO,16,4600-632,GATÃO,-8.053292985572211,41.297441651098495
pt.ine.add.PTCONT.3552913,AV TEIXEIRA DE PASCOAES,703,4600-632,GATÃO,-8.075438462145854,41.28642475802876
pt.ine.add.PTCONT.3552914,R IGREJA,103,4600-642,GONDAR AMT,-8.027240907047377,41.253219012454544
pt.ine.add.PTCONT.3552915,AV BOAVISTA,204,4605-006,VILA MEÃ,-8.198557432574097,41.25852556262499
pt.ine.add.PTCONT.3552916,R PADRE PAULINO CABRAL,817,4600-652,JAZENTE,-8.057516800431168,41.23774655569576
pt.ine.add.PTCONT.3552917,R PLANTA,179,4600-652,JAZENTE,-8.065189661829182,41.23506806632605
pt.ine.add.PTCONT.3552918,TV RIBEIRA,77,4605-067,VILA MEÃ,-8.187446057186005,41.25571301802267
pt.ine.add.PTCONT.3552919,R BOUCA,55,4600-702,PADRONELO,-8.056419510682003,41.2580323964527
pt.ine.add.PTCONT.3552941,TV FUNDO DE VILA,63,4605-128,MANCELOS,-8.149617127598022,41.283592695286835
pt.ine.add.PTCONT.3552920,R DR ÁLVARO PEREIRA TEIXEIRA VASCONCELOS,499,4600-644,GONDAR AMT,-8.019042572051005,41.247196349415354
pt.ine.add.PTCONT.3552921,R ESTRADA REAL,,4600-078,AMARANTE,-8.062917638729765,41.26267371797087
pt.ine.add.PTCONT.3552922,R CARREIROS,,4605-116,MANCELOS,-8.136140408993409,41.2855747607303
pt.ine.add.PTCONT.3552923,R RIBEIRA,300,4605-067,VILA MEÃ,-8.188830275609902,41.25585642419075
pt.ine.add.PTCONT.3552924,R ALTO DA MADALENA,84,4600-024,AMARANTE,-8.062518997362124,41.267175583991616
pt.ine.add.PTCONT.3552925,TV TROUXAINHO,279,4605-172,MANCELOS,-8.146872606773853,41.28823921683493
pt.ine.add.PTCONT.3552926,TV TROUXAINHO,279,4605-172,MANCELOS,-8.146872606773853,41.28823921683493
pt.ine.add.PTCONT.3552927,R OLIVAL,121,4600-703,PADRONELO,-8.049633976789176,41.254939225211515
pt.ine.add.PTCONT.3552928,R QUINTA,538,4600-643,GONDAR AMT,-8.027475654655024,41.26303383768962
pt.ine.add.PTCONT.3552929,R OUTEIRO,338,4600-670,LOUREDO AMT,-8.121284257924831,41.25346516938358
pt.ine.add.PTCONT.3552930,LG ESTREMADOURO,48,4600-670,LOUREDO AMT,-8.122441506852704,41.254095579058536
pt.ine.add.PTCONT.3552931,R DEVESA,288,4600-683,LUFREI,-8.0463035967079,41.265030500766194
pt.ine.add.PTCONT.3552932,R REBOLA,15,4605-145,MANCELOS,-8.14387245431003,41.26531483877407
pt.ine.add.PTCONT.3552933,R TORRE,327,4600-690,OLO,-8.009203073802912,41.30240895308836
pt.ine.add.PTCONT.3552934,R EIRASTOS,54,4600-661,LOMBA AMT,-8.067856586022137,41.25206063411165
pt.ine.add.PTCONT.3552935,R VENDA,143,4600-683,LUFREI,-8.050807022253785,41.26146813620714
pt.ine.add.PTCONT.3552936,R VAU,229,4600-642,GONDAR AMT,-8.035153453237845,41.251866375956986
pt.ine.add.PTCONT.3552937,R PALHAZOES,632,4600-642,GONDAR AMT,-8.034739212564963,41.24963297106668
pt.ine.add.PTCONT.3552938,R CENTRAL DE OLO,2069,4600-690,OLO,-8.006673529052623,41.301469770006875
pt.ine.add.PTCONT.3552939,R MIRÃO,24,4600-690,OLO,-8.007182718971649,41.30157214088031
pt.ine.add.PTCONT.3552940,R PALMAZOES,379,4600-642,GONDAR AMT,-8.03469471882165,41.24748091865823
pt.ine.add.PTCONT.3552942,R ANA GUEDES DA COSTA,,4605-105,MANCELOS,-8.177104799040698,41.26118300171899
pt.ine.add.PTCONT.3552943,R ALEXANDRE HERCULANO,788,4600-015,AMARANTE,-8.069947702209047,41.273554880429295
pt.ine.add.PTCONT.3552944,R RAMALHADA,778,4605-350,VILA MEÃ,-8.17987044357953,41.24055319316708
pt.ine.add.PTCONT.3552945,R VENDA NOVA,221,4600-681,LUFREI,-8.056314138688977,41.27668005650843
pt.ine.add.PTCONT.3552946,R VENDA NOVA,231,4600-681,LUFREI,-8.056314138688977,41.27668005650843
pt.ine.add.PTCONT.3552947,R SANTIAGO,,4600-681,LUFREI,-8.054748788545771,41.278164694669144
pt.ine.add.PTCONT.3552948,AV ALEXANDRE HERCULANO,374,4600-015,AMARANTE,-8.071788514744272,41.27055747415901
pt.ine.add.PTCONT.3552949,R ARQUEOLOGO JOSE PINHO,94,4600-051,AMARANTE,-8.068951870277568,41.26669312066084
pt.ine.add.PTCONT.3552950,R ARQUEOLOGO JOSE PINHO,94,4600-051,AMARANTE,-8.068951870277568,41.26669312066084
pt.ine.add.PTCONT.3552951,R JAZENTE,210,4600-652,JAZENTE,-8.052380361185325,41.24355081514992
pt.ine.add.PTCONT.3552952,R SANTIAGO,,4600-681,LUFREI,-8.054748788545771,41.278164694669144
pt.ine.add.PTCONT.3552953,R CENTRAL DE MANCELOS,3413,4605-159,MANCELOS,-8.137251332007176,41.297487254426265
pt.ine.add.PTCONT.3552954,R MEM GUNDAR,1772,4600-648,GONDAR AMT,-8.028308932987262,41.25684869577885
pt.ine.add.PTCONT.3552955,R SERRA DE AGUA E LEITE,1636,4605-163,MANCELOS,-8.149619772015894,41.29408256787154
pt.ine.add.PTCONT.3552956,R BASEIRA DE BAIXO,68,4600-066,AMARANTE,-8.075819657987491,41.27369301516047
pt.ine.add.PTCONT.3552957,EN 15,DG,4615-188,FIGUEIRÓ (SANTIAGO),-8.156097293791628,41.31305322092505
pt.ine.add.PTCONT.3552958,EN 15,,4615-188,FIGUEIRÓ (SANTIAGO),-8.156097293791628,41.31305322092505
pt.ine.add.PTCONT.3552959,EN 15,,4615-188,FIGUEIRÓ (SANTIAGO),-8.156097293791628,41.31305322092505
pt.ine.add.PTCONT.3552960,EN 15,,4615-188,FIGUEIRÓ (SANTIAGO),-8.156097293791628,41.31305322092505
pt.ine.add.PTCONT.3552961,EN 15,DG,4615-188,FIGUEIRÓ (SANTIAGO),-8.156097293791628,41.31305322092505
pt.ine.add.PTCONT.3552965,VIA SANTIAGO,350,4615-174,FIGUEIRÓ (SANTIAGO),-8.153242021913051,41.30961417141646
pt.ine.add.PTCONT.3552966,VIA NORA,1460,4615-194,FIGUEIRÓ (SANTIAGO),-8.153594377227195,41.29077739617402
pt.ine.add.PTCONT.3552967,R SOUTELO,,4600-710,REBORDELO AMT,-7.988586665733478,41.34356978640954
pt.ine.add.PTCONT.3552968,R PENEDINHOS,277,4600-710,REBORDELO AMT,-7.991930579041012,41.33872973244291
pt.ine.add.PTCONT.3552969,R DIVINO SALVADOR,1382,4600-723,SALVADOR DO MONTE,-8.090739134790446,41.235908694215084
pt.ine.add.PTCONT.3552970,R MONTE NOVO,183,4615-191,FIGUEIRÓ (SANTIAGO),-8.162032951118714,41.31379022227254
pt.ine.add.PTCONT.3552971,R BASEIRA,99,4600-066,AMARANTE,-8.07603168291535,41.27695729819826
pt.ine.add.PTCONT.3552972,R ERMIDA,96,4615-098,FIGUEIRÓ (SANTA CRISTINA),-8.187013891330789,41.29605204906491
pt.ine.add.PTCONT.3552973,R SANTO ISIDORO,1991,4600-730,SANCHE,-7.99973095252598,41.28063527589132
pt.ine.add.PTCONT.3552974,TV ANTÓNIO COSTA,49,4615-194,FIGUEIRÓ (SANTIAGO),-8.147399834574072,41.29724332927864
pt.ine.add.PTCONT.3552975,R OUTEIRO,503,4615-116,FIGUEIRÓ (SANTA CRISTINA),-8.171782743334537,41.30162274877529
pt.ine.add.PTCONT.3552976,R SAMPAIO,70,4615-205,FIGUEIRÓ (SANTIAGO),-8.155028863487342,41.296440758214814
pt.ine.add.PTCONT.3552977,R SAMPAIO,55,4615-205,FIGUEIRÓ (SANTIAGO),-8.154861755368751,41.29656684830423
pt.ine.add.PTCONT.3552978,R SAPATEIRO,233,4615-175,FIGUEIRÓ (SANTIAGO),-8.15122022628954,41.29642341210262
pt.ine.add.PTCONT.3552979,R LOUREDO DE BAIXO,662,4600-720,SALVADOR DO MONTE,-8.099078676456987,41.2326609199321
pt.ine.add.PTCONT.3552980,R SOBREIRO,126,4600-306,AMARANTE,-8.077710759379992,41.28148257360239
pt.ine.add.PTCONT.3552981,R COVELAS,,4600-722,SALVADOR DO MONTE,-8.111281145159351,41.231286225880325
pt.ine.add.PTCONT.3552982,R CAMPO DE VILAR,,4600-730,SANCHE,-8.004432222798663,41.275409188134454
pt.ine.add.PTCONT.3552983,R BURGO,307 3,4600-802,VILA CHÃ DO MARÃO,-8.037150949436743,41.29735729411307
pt.ine.add.PTCONT.3552984,R BURGADA,,4600-255,AMARANTE,-8.09883450796363,41.26623767506163
pt.ine.add.PTCONT.3552985,R POÇO DE LINHO,49,4600-786,VILA CAIZ,-8.14608069270519,41.23791014711354
pt.ine.add.PTCONT.3552986,R CRUZEIRO,132,4600-741,SÃO SIMÃO GOUVEIA,-8.063801505655762,41.21673452361333
pt.ine.add.PTCONT.3552987,R SARDAO,195,4600-755,TELÕES AMT,-8.089545044159273,41.29168039852816
pt.ine.add.PTCONT.3552989,BR COR CARVALHO LIMA,368,4600-062,AMARANTE,-8.075749158498171,41.27242338686846
pt.ine.add.PTCONT.3552990,BR COR CARVALHO LIMA,368,4600-062,AMARANTE,-8.075749158498171,41.27242338686846
pt.ine.add.PTCONT.3552991,BR COR CARVALHO LIMA,368,4600-062,AMARANTE,-8.075749158498171,41.27242338686846
pt.ine.add.PTCONT.3552992,BR COR CARVALHO LIMA,368,4600-062,AMARANTE,-8.075749158498171,41.27242338686846
pt.ine.add.PTCONT.3552993,R PONTE DO PEGO,274,4600-754,TELÕES AMT,-8.097627761634437,41.290926822388585
pt.ine.add.PTCONT.3552994,R PONTE DO PEGO,274,4600-754,TELÕES AMT,-8.097627761634437,41.290926822388585
pt.ine.add.PTCONT.3552995,R S VERISSIMO,194,4600-010,AMARANTE,-8.093190202620704,41.265623569607044
pt.ine.add.PTCONT.3552996,R PONTE DO PEGO,274,4600-754,TELÕES AMT,-8.097627761634437,41.290926822388585
pt.ine.add.PTCONT.3552997,R PONTE DO PEGO,274,4600-754,TELÕES AMT,-8.097627761634437,41.290926822388585
pt.ine.add.PTCONT.3552998,R PINHEIRAIS,1,4605-495,TRAVANCA AMT,-8.198116431867472,41.283089298384866
pt.ine.add.PTCONT.3552999,R CALÇADA DO SOUTO,,4600-770,VÁRZEA AMT,-7.998566940566378,41.26039246112622
pt.ine.add.PTCONT.3553000,R S JOÃO DE VÁRZEA,2897,4600-770,VÁRZEA AMT,-7.996175551086602,41.26271273119905
pt.ine.add.PTCONT.3553001,R ALDEIA NOVA,440,4600-781,VILA CAIZ,-8.13762886486153,41.23182846220684
pt.ine.add.PTCONT.3553002,R S SEBASTIÃO,14,4600-101,AMARANTE,-8.080715432148523,41.27073296263595
pt.ine.add.PTCONT.3553003,R S SEBASTIÃO,14,4600-101,AMARANTE,-8.080715432148523,41.27073296263595
pt.ine.add.PTCONT.3553004,R S SEBASTIÃO,14,4600-101,AMARANTE,-8.080715432148523,41.27073296263595
pt.ine.add.PTCONT.3553005,R S SEBASTIÃO,14,4600-101,AMARANTE,-8.080715432148523,41.27073296263595
pt.ine.add.PTCONT.3553006,R S SEBASTIÃO,14,4600-101,AMARANTE,-8.080715432148523,41.27073296263595
pt.ine.add.PTCONT.3553007,R PEDRA QTA DA PEDRA,,4600-741,SÃO SIMÃO GOUVEIA,-8.043278950178106,41.23417064000077
pt.ine.add.PTCONT.3553008,TV ESTRADINHA,31,4600-760,TELÕES AMT,-8.091028225298112,41.28729591383644
pt.ine.add.PTCONT.3553009,R S JOÃO DE VÁRZEA,,4600-770,VÁRZEA AMT,-7.99195193938476,41.25683687588569
pt.ine.add.PTCONT.3553010,R CARVALHAL,234,4600-784,VILA CAIZ,-8.150165251421218,41.23397930831558
pt.ine.add.PTCONT.3553011,R CÂNDIDO DOS REIS,131,4600-055,AMARANTE,-8.081289681125169,41.26897740115829
pt.ine.add.PTCONT.3553012,R EIDO,189,4600-741,SÃO SIMÃO GOUVEIA,-8.068502070967357,41.22661496000961
pt.ine.add.PTCONT.3553013,R S BRÁS,,4600-761,TELÕES AMT,-8.099489106821204,41.31617504440672
pt.ine.add.PTCONT.3553014,R MATOUCE,,4605-449,TRAVANCA AMT,-8.191176613427606,41.26453533977022
pt.ine.add.PTCONT.3553015,R PINHEIROS MANSOS,826,4600-301,AMARANTE,-8.093699159850996,41.27259300621668
pt.ine.add.PTCONT.3553016,R CÂNDIDO DOS REIS,131,4600-055,AMARANTE,-8.081289681125169,41.26897740115829
pt.ine.add.PTCONT.3553017,R MANUEL BARROS,536,4600-085,AMARANTE,-8.083723988789552,41.26935664801566
pt.ine.add.PTCONT.3553018,,,4600-761,TELÕES AMT,-8.115144902871448,41.32101377335722
pt.ine.add.PTCONT.3553019,TV MOINHOS,35,4600-752,TELÕES AMT,-8.091529982440013,41.286701819909425
pt.ine.add.PTCONT.3553020,TV MOINHOS,35,4600-752,TELÕES AMT,-8.091529982440013,41.286701819909425
pt.ine.add.PTCONT.3553021,TV MOINHOS,,4600-752,TELÕES AMT,-8.091529982440013,41.286701819909425
pt.ine.add.PTCONT.3553022,R BOAVISTA,775,4600-801,VILA CHÃ DO MARÃO,-8.02339983899375,41.288358844374415
pt.ine.add.PTCONT.3553023,R MOSQUEIROS,,4600-758,TELÕES AMT,-8.099740839548245,41.3143472769948
pt.ine.add.PTCONT.3553024,R MOINHOS,,4600-752,TELÕES AMT,-8.091410739203717,41.28649468050199
pt.ine.add.PTCONT.3553025,R EIDOS,38,4605-432,TRAVANCA AMT,-8.195913854527843,41.26417268424818
pt.ine.add.PTCONT.3553026,R NSA SRA DA GRAÇA,556,4600-792,VILA CAIZ,-8.136418104857535,41.241818408848914
pt.ine.add.PTCONT.3553027,R CARVALHAL,323,4600-784,VILA CAIZ,-8.15067795645114,41.233249885402714
pt.ine.add.PTCONT.3553028,R S VERISSIMO,359,4600-010,AMARANTE,-8.092772291496173,41.26600160113908
pt.ine.add.PTCONT.3553029,RUELA DO OUTEIRO DE BAIXO,5,4600-266,AMARANTE,-8.093392338433857,41.26683920894795
pt.ine.add.PTCONT.3553030,R PADRAO,135,4605-415,TRAVANCA AMT,-8.18331238881123,41.26444899532707
pt.ine.add.PTCONT.3553031,R NSA SRA DA GRAÇA,6,4600-792,VILA CAIZ,-8.139885315077905,41.239821023375896
pt.ine.add.PTCONT.3553032,R CAPELA,,4600-759,TELÕES AMT,-8.102532145199035,41.295745463424105
pt.ine.add.PTCONT.3553033,R MOSTEIRO,,4605-457,TRAVANCA AMT,-8.197289119694943,41.279344017843215
pt.ine.add.PTCONT.3553034,R CRUZEIRO,355,4600-792,VILA CAIZ,-8.145495544315356,41.23738460659598
pt.ine.add.PTCONT.3553035,R CENTRAL DE NOVIOS,1603,4600-801,VILA CHÃ DO MARÃO,-8.04146311571297,41.29591113657853
pt.ine.add.PTCONT.3553045,TV NOVIOS,33,4600-802,VILA CHÃ DO MARÃO,-8.042360874977613,41.2942370718675
pt.ine.add.PTCONT.3553046,TV NOVIOS,9,4600-802,VILA CHÃ DO MARÃO,-8.042325345491063,41.29402994787405
pt.ine.add.PTCONT.3553047,R CENTRAL DE NOVIOS,986,4600-801,VILA CHÃ DO MARÃO,-8.041884398988655,41.293462336358786
pt.ine.add.PTCONT.3553157,R PINHEIRO,84,4600-810,VILA GARCIA AMT,-8.084985297549611,41.30693163996322
pt.ine.add.PTCONT.3553158,R MASSACORTE,20,4600-810,VILA GARCIA AMT,-8.078261884120028,41.30754991946541
pt.ine.add.PTCONT.3553180,R RAPOSEIRA,151,4600-810,VILA GARCIA AMT,-8.066908435230108,41.31664714126661
pt.ine.add.PTCONT.3553190,R AMEAIS,,4600-810,VILA GARCIA AMT,-8.092778854176412,41.31349865887317
pt.ine.add.PTCONT.3558238,R S SEBASTIÃO,14,4600-101,AMARANTE,-8.080715432148523,41.27073296263595
pt.ine.add.PTCONT.3558242,CC CHAMUSCA,30,4615-090,FIGUEIRÓ (SANTA CRISTINA),-8.164950076596945,41.29575412449952
pt.ine.add.PTCONT.3558246,R MIRADOURO,150,4600-632,GATÃO,-8.076464709479147,41.286857468458884
pt.ine.add.PTCONT.3558252,VLA MOURE,385,4600-683,LUFREI,-8.047447205285279,41.26657107852766
pt.ine.add.PTCONT.3558466,TV STA RITA,95,4600-553,CANDEMIL AMT,-7.9409933311277126,41.231290111789
pt.ine.add.PTCONT.3558467,AV ALEXANDRE HERCULANO,374,4600-015,AMARANTE,-8.071788514744272,41.27055747415901
pt.ine.add.PTCONT.3558470,R SANTO AMARO,70,4605-479,TRAVANCA AMT,-8.19212204067369,41.267515255224176
pt.ine.add.PTCONT.3558482,R FOJO,231,4600-723,SALVADOR DO MONTE,-8.090060777450562,41.23354032028106
pt.ine.add.PTCONT.3558487,AV LAGARTEIRA,301,4615-166,FIGUEIRÓ (SANTIAGO),-8.147783394013555,41.30392437098963
pt.ine.add.PTCONT.3558599,TV COVELAS DE CIMA,,4600-757,TELÕES AMT,-8.101253264903425,41.323135741954275
pt.ine.add.PTCONT.3558642,TV PEREIRA,350,4605-466,TRAVANCA AMT,-8.184862145240983,41.26243136335094
pt.ine.add.PTCONT.3558684,TV FORMIGA,32,4600-741,SÃO SIMÃO GOUVEIA,-8.053205767745498,41.231899875994706
pt.ine.add.PTCONT.3559512,R 5 DE OUTUBRO,30,4600-632,GATÃO,-8.077553446048634,41.2840036715173
pt.ine.add.PTCONT.3559513,R CENTRAL DE CARNEIRO,,4600-560,CARNEIRO,-7.970650600363542,41.20970747901048
pt.ine.add.PTCONT.3559514,R PICOTES,318,4600-620,FRIDÃO,-8.03369516362814,41.316560219215425
pt.ine.add.PTCONT.3559515,R VÁRZEA DE ABOADELA,325,4600-500,ABOADELA,-7.9873226295665365,41.262053557969246
pt.ine.add.PTCONT.3559516,R TORREIRA,279,4600-593,FREGIM,-8.113977581516153,41.2693116247173
pt.ine.add.PTCONT.3559517,R S SEBASTIÃO,92,4600-611,FREIXO DE BAIXO,-8.112368009726335,41.30206858091286
pt.ine.add.PTCONT.3559518,R CABANELAS,,4600-611,FREIXO DE BAIXO,-8.10692768518598,41.290920308832064
pt.ine.add.PTCONT.3559519,R PLANA,55,4600-635,GATÃO,-8.059800565297547,41.296932741500456
pt.ine.add.PTCONT.3559520,CAM EIRA DE CIMA,21,4600-520,ANSIÃES,-7.952548802555894,41.24942536781402
pt.ine.add.PTCONT.3559521,R S PEDRO,76,4605-044,VILA MEÃ,-8.189884744900361,41.247229846369244
pt.ine.add.PTCONT.3559522,R MARQUES DE POMBAL,,4600-530,BUSTELO AMT,-8.002295527635814,41.22768431740289
pt.ine.add.PTCONT.3559523,R RIO TAMEGA,508,4600-635,GATÃO,-8.058858213085681,41.29617578728742
pt.ine.add.PTCONT.3559524,R VÁRZEA,146,4600-632,GATÃO,-8.05701824305889,41.29731811533163
pt.ine.add.PTCONT.3559525,R BOAVISTA,1597,4600-593,FREGIM,-8.116627881782899,41.26582740293615
pt.ine.add.PTCONT.3559526,AV BELA VISTA,291,4600-591,FREGIM,-8.098714262955724,41.267966448818754
pt.ine.add.PTCONT.3559527,R S PEDRO,540,4600-510,ABOIM AMT,-8.06915714450945,41.325355407857444
pt.ine.add.PTCONT.3559528,R GERALDES,261,4600-082,AMARANTE,-8.0731192430115,41.26401211017778
pt.ine.add.PTCONT.3559529,R VALES,218,4600-580,CHAPA,-8.060362239328985,41.31794879022141
pt.ine.add.PTCONT.3559530,R VALINHOS,712,4600-530,BUSTELO AMT,-8.001726367481414,41.21410520569459
pt.ine.add.PTCONT.3559531,R TAPADO NOVO,342,4600-530,BUSTELO AMT,-8.004874938402745,41.21382061722719
pt.ine.add.PTCONT.3559532,R PORTELA,45,4600-570,CARVALHO DE REI,-8.017829114932205,41.22487357223606
pt.ine.add.PTCONT.3559533,TV BOAVISTA,112,4600-107,AMARANTE,-8.083800844649945,41.26237841165149
pt.ine.add.PTCONT.3559534,AV S GENS,1009,4615-047,FREIXO DE CIMA,-8.131938036290848,41.3102552208541
pt.ine.add.PTCONT.3559535,AV S GENS,967,4615-047,FREIXO DE CIMA,-8.131281244472081,41.30998508781957
pt.ine.add.PTCONT.3559536,R S LOURENGO,,4600-520,ANSIÃES,-7.937651250187589,41.23610176783045
pt.ine.add.PTCONT.3559537,TV MATO,,4605-018,VILA MEÃ,-8.185015649800963,41.245305235021014
pt.ine.add.PTCONT.3559538,R CARVALHAS,286,4600-540,CANADELO,-7.9705414492427105,41.32111647495133
pt.ine.add.PTCONT.3559539,R IGREJA,47,4600-620,FRIDÃO,-8.036809869191597,41.31007988431335
pt.ine.add.PTCONT.3559540,R EIRA NOVA,,4600-540,CANADELO,-7.9729958435631625,41.32357804151894
pt.ine.add.PTCONT.3559541,R CARREIRA,150,4600-553,CANDEMIL AMT,-7.943115187497142,41.22759287754825
pt.ine.add.PTCONT.3559542,R OUTEIRO ALTO,437,4600-222,AMARANTE,-8.087633386030395,41.25946261985975
pt.ine.add.PTCONT.3559543,R GUIMAREI,,4600-591,FREGIM,-8.109599990359353,41.26286379368344
pt.ine.add.PTCONT.3559544,R FRIDÃO,1505,4600-620,FRIDÃO,-8.044146515760799,41.30684429391255
pt.ine.add.PTCONT.3559545,R ANTÓNIO COELHO NASCIMENTO,165,4600-210,AMARANTE,-8.074959881659012,41.260744521277104
pt.ine.add.PTCONT.3559546,R S GENS DE BAIXO,93,4615-047,FREIXO DE CIMA,-8.125931622600666,41.30738267876077
pt.ine.add.PTCONT.3559547,TV COVAL,60,4600-520,ANSIÃES,-7.945919626911501,41.2520980438251
pt.ine.add.PTCONT.3559548,TV PESO,173,4600-520,ANSIÃES,-7.949478739645959,41.25080716513337
pt.ine.add.PTCONT.3559549,AV ESTRADA REAL,,4615-028,FREIXO DE CIMA,-8.124009117462156,41.307085405766905
pt.ine.add.PTCONT.3559550,R RAMADAS,,4600-620,FRIDÃO,-8.039973166562136,41.31097389775083
pt.ine.add.PTCONT.3559551,R BARRELA,,4600-520,ANSIÃES,-7.9507222091156775,41.249854692389185
pt.ine.add.PTCONT.3559552,TV NOGUEIRA,95,4600-530,BUSTELO AMT,-7.99327820248939,41.24479982673067
pt.ine.add.PTCONT.3559553,R BUCAQUEIRA,121,4600-551,CANDEMIL AMT,-7.96710724011054,41.2529679338897
pt.ine.add.PTCONT.3559554,R ÁLVARO ERNESTO PINTO,433,4600-206,AMARANTE,-8.089996977584574,41.2580228523752
pt.ine.add.PTCONT.3559555,R CORUJEIRA,360,4600-612,FREIXO DE BAIXO,-8.118614393932214,41.294839190176035
pt.ine.add.PTCONT.3559556,AV TEIXEIRA DE PASCOAES,821,4600-632,GATÃO,-8.073850047532959,41.28723432805132
pt.ine.add.PTCONT.3559557,R CARVALHA,44,4600-120,AMARANTE,-8.082063516174125,41.256083698561696
pt.ine.add.PTCONT.3559558,R CASAL DO SINO,271,4600-594,FREGIM,-8.117330149723122,41.27339104022299
pt.ine.add.PTCONT.3559559,CC SOBREIROS,141,4600-613,FREIXO DE BAIXO,-8.12037915053141,41.30622966688654
pt.ine.add.PTCONT.3559560,CC SOBREIROS,43,4600-613,FREIXO DE BAIXO,-8.119388083102177,41.306031461603176
pt.ine.add.PTCONT.3559561,R ALTO DA CORUJEIRA,,4600-612,FREIXO DE BAIXO,-8.118137005040921,41.29409178264075
pt.ine.add.PTCONT.3559562,R MIRADOURO,114,4600-632,GATÃO,-8.075975302018561,41.28682120987483
pt.ine.add.PTCONT.3559563,R TEÓFILO FREITAS,122,4600-017,AMARANTE,-8.07878634875027,41.26551862822141
pt.ine.add.PTCONT.3559564,R SILVARES,309,4600-632,GATÃO,-8.068129034138849,41.302187172207255
pt.ine.add.PTCONT.3559565,R FEIRA,40,4605-032,VILA MEÃ,-8.195732070582148,41.24876654071843
pt.ine.add.PTCONT.3559566,R TAPADO,35,4600-560,CARNEIRO,-7.963860887264782,41.21174167684759
pt.ine.add.PTCONT.3559567,R MACIEIRAS,1366,4600-595,FREGIM,-8.127689583826037,41.27605723855712
pt.ine.add.PTCONT.3559568,R PENSAIS,461,4600-611,FREIXO DE BAIXO,-8.103454049761202,41.29002805262237
pt.ine.add.PTCONT.3559569,R VAL DE INFANTE,30,4600-632,GATÃO,-8.077731907507344,41.28470608426615
pt.ine.add.PTCONT.3559570,R PORTELINHA,638,4600-710,REBORDELO AMT,-7.983023141480015,41.34694820385829
pt.ine.add.PTCONT.3559571,R COVELO,,4600-641,GONDAR AMT,-8.015005917345848,41.24953338316379
pt.ine.add.PTCONT.3559572,R CALVÁRIO,40,4600-652,JAZENTE,-8.056630600184832,41.24073538471063
pt.ine.add.PTCONT.3559573,R BARREIROS,,4600-681,LUFREI,-8.064689946115129,41.27959369498383
pt.ine.add.PTCONT.3559574,R BARREIROS,,4600-681,LUFREI,-8.064689946115129,41.27959369498383
pt.ine.add.PTCONT.3559575,R BOAVISTA,15,4605-204,VILA MEÃ,-8.191993657133015,41.25744859899324
pt.ine.add.PTCONT.3559576,R NOVA DA BOAVISTA,14,4605-310,VILA MEÃ,-8.176891550415169,41.24562375955762
pt.ine.add.PTCONT.3559577,R NOVA DA BOAVISTA,110,4605-310,VILA MEÃ,-8.17740507676229,41.24641593711765
pt.ine.add.PTCONT.3559578,R VALE DO LOBO,,4605-173,MANCELOS,-8.15168007466181,41.27602885553548
pt.ine.add.PTCONT.3559579,PC 25 DE ABRIL,70,4605-325,VILA MEÃ,-8.175153870255514,41.25202642561622
pt.ine.add.PTCONT.3559580,R AUGUSTO VICENTE DA CUNHA BROCHADO,872,4600-649,GONDAR AMT,-8.021779753773767,41.251196912257775
pt.ine.add.PTCONT.3559581,R REAL,76,4600-642,GONDAR AMT,-8.030827726398774,41.24847701977445
pt.ine.add.PTCONT.3559622,R TAPADA,,4600-690,OLO,-8.004857107340223,41.29614629956849
pt.ine.add.PTCONT.3559582,R SOUTO E TEIXUGUEIRA,63,4600-683,LUFREI,-8.05290242085093,41.26538645135086
pt.ine.add.PTCONT.3559583,R BOAVISTA,580,4605-108,MANCELOS,-8.162015467732443,41.27419887091922
pt.ine.add.PTCONT.3559584,R SANTO ANDRÉ,1185,4600-704,PADRONELO,-8.053569225429902,41.256769870358276
pt.ine.add.PTCONT.3559585,TV JAZENTE,113,4600-652,JAZENTE,-8.063172948539698,41.235877243058894
pt.ine.add.PTCONT.3559586,QTA DEVESA,36,4600-670,LOUREDO AMT,-8.116247842043183,41.25867799364075
pt.ine.add.PTCONT.3559587,CAM BARROCA,349,4600-705,PADRONELO,-8.049206266978556,41.25350724082625
pt.ine.add.PTCONT.3559588,R MANINHO,158,4605-327,VILA MEÃ,-8.17093419784957,41.23822437211283
pt.ine.add.PTCONT.3559589,R DEVESSA,59,4605-145,MANCELOS,-8.138156547366725,41.26914202340389
pt.ine.add.PTCONT.3559590,R PACO,445,4605-344,VILA MEÃ,-8.166311719986016,41.24978725866088
pt.ine.add.PTCONT.3559591,R BARREIROS,389,4600-670,LOUREDO AMT,-8.124863791669066,41.2527001210251
pt.ine.add.PTCONT.3559592,R POMBALINA,2166,4600-701,PADRONELO,-8.052033932513886,41.25358130051269
pt.ine.add.PTCONT.3559593,R RIBEIRA DOS VALES,2,4600-670,LOUREDO AMT,-8.116130063853403,41.2527081686529
pt.ine.add.PTCONT.3559594,R RIBEIRA DOS VALES,2,4600-670,LOUREDO AMT,-8.116130063853403,41.2527081686529
pt.ine.add.PTCONT.3559595,R MONTE CRASTO,1242,4605-145,MANCELOS,-8.142989354576658,41.26523387997196
pt.ine.add.PTCONT.3559596,R DR ANTÓNIO FERNANDES DA FONSECA,1872,4600-650,GONDAR AMT,-8.029992308797436,41.241065776841346
pt.ine.add.PTCONT.3559597,R ANA GUEDES DA COSTA,852,4605-105,MANCELOS,-8.171964298141226,41.26550687812404
pt.ine.add.PTCONT.3559598,R STA RITA,361,4605-359,VILA MEÃ,-8.175003395817686,41.25927488932883
pt.ine.add.PTCONT.3559599,R STA RITA,361,4605-359,VILA MEÃ,-8.175003395817686,41.25927488932883
pt.ine.add.PTCONT.3559600,R STA RITA,361,4605-359,VILA MEÃ,-8.175003395817686,41.25927488932883
pt.ine.add.PTCONT.3559601,R STA RITA,361,4605-359,VILA MEÃ,-8.175003395817686,41.25927488932883
pt.ine.add.PTCONT.3559602,R S RITA,364,4605-359,VILA MEÃ,-8.175003395817686,41.25927488932883
pt.ine.add.PTCONT.3559603,R STA RITA,361,4605-359,VILA MEÃ,-8.175003395817686,41.25927488932883
pt.ine.add.PTCONT.3559604,R STA RITA,361,4605-359,VILA MEÃ,-8.175003395817686,41.25927488932883
pt.ine.add.PTCONT.3559605,R STA RITA,361,4605-359,VILA MEÃ,-8.175003395817686,41.25927488932883
pt.ine.add.PTCONT.3559606,R S PEDRO,527,4600-660,LOMBA AMT,-8.079946961636567,41.24704248297243
pt.ine.add.PTCONT.3559607,TV CIMO DO LUGAR,12,4600-681,LUFREI,-8.039047217497474,41.273884945460104
pt.ine.add.PTCONT.3559608,R STA RITA,361,4605-359,VILA MEÃ,-8.175003395817686,41.25927488932883
pt.ine.add.PTCONT.3559609,R SOUTO,285,4605-335,VILA MEÃ,-8.177713650830203,41.24404770000179
pt.ine.add.PTCONT.3559610,R ARQUEOLOGO JOSE PINHO,42,4600-051,AMARANTE,-8.069381130250722,41.26706253194004
pt.ine.add.PTCONT.3559611,R ARQUEOLOGO JOSE PINHO,3B,4600-051,AMARANTE,-8.069381130250722,41.26706253194004
pt.ine.add.PTCONT.3559612,TV MURTAS,68,4600-109,AMARANTE,-8.07119437257733,41.26781987543087
pt.ine.add.PTCONT.3559613,R OUTEIROS,142,4605-343,VILA MEÃ,-8.179108496086737,41.242714521649525
pt.ine.add.PTCONT.3559614,R RIO,21,4600-642,GONDAR AMT,-8.02277448748672,41.24145527413161
pt.ine.add.PTCONT.3559615,R ESTRADA REAL,325,4600-078,AMARANTE,-8.070742308973152,41.26631592731658
pt.ine.add.PTCONT.3559616,R ESTRADA REAL,211,4600-078,AMARANTE,-8.070742308973152,41.26631592731658
pt.ine.add.PTCONT.3559617,R ESTRADA REAL,211,4600-078,AMARANTE,-8.070742308973152,41.26631592731658
pt.ine.add.PTCONT.3559618,R ESTRADA REAL,325,4600-078,AMARANTE,-8.070742308973152,41.26631592731658
pt.ine.add.PTCONT.3559619,R ESTRADA REAL,211,4600-078,AMARANTE,-8.070742308973152,41.26631592731658
pt.ine.add.PTCONT.3559620,R BANDOLEIRO,301,4600-701,PADRONELO,-8.049976272191463,41.24846542439637
pt.ine.add.PTCONT.3559621,CAM ALDEIA,,4605-102,MANCELOS,-8.142038864687589,41.296037311139244
pt.ine.add.PTCONT.3559623,R FRANCOS,25,4605-326,VILA MEÃ,-8.171970338615251,41.25556620948838
pt.ine.add.PTCONT.3559624,R TABULADOS,268,4600-642,GONDAR AMT,-8.027902751917242,41.25715446920104
pt.ine.add.PTCONT.3559625,R BOAVISTA,366,4605-204,VILA MEÃ,-8.195872597138338,41.258473032121906
pt.ine.add.PTCONT.3559626,R SAÚDE,294,4615-204,FIGUEIRÓ (SANTIAGO),-8.168034140650926,41.302803492305124
pt.ine.add.PTCONT.3559627,EN 15,8,4615-174,FIGUEIRÓ (SANTIAGO),-8.14974361056956,41.31159564285003
pt.ine.add.PTCONT.3559628,VIA,111,4615-174,FIGUEIRÓ (SANTIAGO),-8.14974361056956,41.31159564285003
pt.ine.add.PTCONT.3559629,R ALTO PACO,8,4615-174,FIGUEIRÓ (SANTIAGO),-8.14974361056956,41.31159564285003
pt.ine.add.PTCONT.3559630,EN 15,8,4615-174,FIGUEIRÓ (SANTIAGO),-8.14974361056956,41.31159564285003
pt.ine.add.PTCONT.3559631,VIA,111,4615-174,FIGUEIRÓ (SANTIAGO),-8.14974361056956,41.31159564285003
pt.ine.add.PTCONT.3559632,R ALTO DO PACO,121,4615-174,FIGUEIRÓ (SANTIAGO),-8.152023756243045,41.30887603769012
pt.ine.add.PTCONT.3559633,TV SEARAS,63,4615-187,FIGUEIRÓ (SANTIAGO),-8.15480318961692,41.299979439012276
pt.ine.add.PTCONT.3559634,R CENTRAL ERMIDA,1036 B,4615-098,FIGUEIRÓ (SANTA CRISTINA),-8.186479614178854,41.29971699444046
pt.ine.add.PTCONT.3559635,R CENTRAL ERMIDA,1036 A,4615-098,FIGUEIRÓ (SANTA CRISTINA),-8.186479614178854,41.29971699444046
pt.ine.add.PTCONT.3559636,PCT BOUCA DO POMBAL,70,4600-272,AMARANTE,-8.083287273985373,41.27866680852599
pt.ine.add.PTCONT.3559637,PCT BOUCA DO POMBAL,70,4600-272,AMARANTE,-8.083287273985373,41.27866680852599
pt.ine.add.PTCONT.3559638,PCT BOUCA DO POMBAL,70,4600-272,AMARANTE,-8.083287273985373,41.27866680852599
pt.ine.add.PTCONT.3559639,PCT BOUCA DO POMBAL,70,4600-272,AMARANTE,-8.083287273985373,41.27866680852599
pt.ine.add.PTCONT.3559640,R SERRINHA,145,4615-207,FIGUEIRÓ (SANTIAGO),-8.171226722670621,41.31050103161388
pt.ine.add.PTCONT.3559641,R SERRINHA,145,4615-207,FIGUEIRÓ (SANTIAGO),-8.171226722670621,41.31050103161388
pt.ine.add.PTCONT.3559642,R SERRINHA,145,4615-207,FIGUEIRÓ (SANTIAGO),-8.171226722670621,41.31050103161388
pt.ine.add.PTCONT.3559643,R SERRINHA,,4615-207,FIGUEIRÓ (SANTIAGO),-8.169782334197253,41.311527973703924
pt.ine.add.PTCONT.3559644,R FRANCILHEIRA,,4600-723,SALVADOR DO MONTE,-8.089741363467663,41.24759584756393
pt.ine.add.PTCONT.3559645,VIA NORA,634,4615-194,FIGUEIRÓ (SANTIAGO),-8.147590704169652,41.296513967638845
pt.ine.add.PTCONT.3559646,R GOLAS,181,4600-261,AMARANTE,-8.087606320479575,41.28126180513619
pt.ine.add.PTCONT.3559647,R SALGUEIRINHA,,4600-730,SANCHE,-8.007566391512617,41.27794282839577
pt.ine.add.PTCONT.3559648,R SANTO ISIDORO,1307,4600-730,SANCHE,-8.003904898033177,41.276507109955254
pt.ine.add.PTCONT.3559649,CC CAMPO DE VILAR,2,4600-730,SANCHE,-8.003533896536378,41.27701092812869
pt.ine.add.PTCONT.3559650,TV ENGENHO,75,4615-181,FIGUEIRÓ (SANTIAGO),-8.15946194840474,41.30540797582064
pt.ine.add.PTCONT.3559651,R CAMPO DE VILAR,291,4600-730,SANCHE,-8.000394329636938,41.27724146093401
pt.ine.add.PTCONT.3559652,R MÁRIO CAL BRANDÃO,833,4600-088,AMARANTE,-8.07755799687187,41.27863717403486
pt.ine.add.PTCONT.3559653,TV RELAS,8,4600-279,AMARANTE,-8.08972339495506,41.27475258617475
pt.ine.add.PTCONT.3559654,R FONTE DE MENDO,365,4605-440,TRAVANCA AMT,-8.190966229137484,41.28305709712082
pt.ine.add.PTCONT.3559655,R CENTRAL DE TRAVANCA,620,4605-467,TRAVANCA AMT,-8.208304368015773,41.26734374750501
pt.ine.add.PTCONT.3559656,R ENCOSTA,,4600-788,VILA CAIZ,-8.134503996489402,41.23854572569289
pt.ine.add.PTCONT.3559657,R JOAQUIM AUGUSTO F CARDOSO,1191,4600-787,VILA CAIZ,-8.140693822701177,41.229841123585445
pt.ine.add.PTCONT.3559658,TV OUTEIRO DE BAIXO,11,4600-266,AMARANTE,-8.093129177715188,41.267847590092785
pt.ine.add.PTCONT.3559659,R DR LUIS VAN ZELLER MACEDO,179,4600-114,AMARANTE,-8.096316667194783,41.26590374192085
pt.ine.add.PTCONT.3559660,R SEIXOSO,,4615-220,TELÕES AMT,-8.110374034146261,41.33627491381701
pt.ine.add.PTCONT.3559661,R MOSTEIRO,306,4605-457,TRAVANCA AMT,-8.195414037432766,41.278183506357685
pt.ine.add.PTCONT.3559662,R NOVA DE MOREIRA DE CIMA,,4605-452,TRAVANCA AMT,-8.19377337633171,41.27231364188765
pt.ine.add.PTCONT.3559663,R S SEBASTIÃO,,4605-483,TRAVANCA AMT,-8.194132697363754,41.27368209146093
pt.ine.add.PTCONT.3559665,R SORDO,364,4600-784,VILA CAIZ,-8.15661644328054,41.228926774962744
pt.ine.add.PTCONT.3559666,R S VERISSIMO,,4600-010,AMARANTE,-8.093500766375897,41.26514645323743
pt.ine.add.PTCONT.3559667,R CRUZEIRO,138,4615-220,TELÕES AMT,-8.111569911832191,41.33256544999223
pt.ine.add.PTCONT.3559668,R CARVALHAL DE BAIXO,327,4600-770,VÁRZEA AMT,-7.999137575036246,41.2614376164382
pt.ine.add.PTCONT.3559669,R S VICENCIO,,4600-770,VÁRZEA AMT,-7.997094026728232,41.262893904307795
pt.ine.add.PTCONT.3559670,R SARDOEIRA,11,4600-783,VILA CAIZ,-8.137116043477315,41.2328459638775
pt.ine.add.PTCONT.3559671,LG SERTÓRIO DE CARVALHO,171,4600-037,AMARANTE,-8.080320712847657,41.27182229173207
pt.ine.add.PTCONT.3559672,LG SERTÓRIO DE CARVALHO,171,4600-037,AMARANTE,-8.080320712847657,41.27182229173207
pt.ine.add.PTCONT.3559673,LG SERTÓRIO DE CARVALHO,171,4600-037,AMARANTE,-8.080320712847657,41.27182229173207
pt.ine.add.PTCONT.3559674,LG SERTÓRIO DE CARVALHO,171,4600-037,AMARANTE,-8.080320712847657,41.27182229173207
pt.ine.add.PTCONT.3559675,LG SERTÓRIO DE CARVALHO,171,4600-037,AMARANTE,-8.080320712847657,41.27182229173207
pt.ine.add.PTCONT.3559676,LG SERTÓRIO DE CARVALHO,171,4600-037,AMARANTE,-8.080320712847657,41.27182229173207
pt.ine.add.PTCONT.3559677,LG SERTÓRIO DE CARVALHO,171,4600-037,AMARANTE,-8.080320712847657,41.27182229173207
pt.ine.add.PTCONT.3559678,R TODEIA,,4615-220,TELÕES AMT,-8.097138795774397,41.333462256165525
pt.ine.add.PTCONT.3559679,CAM FONTE,81,4615-220,TELÕES AMT,-8.101595741162031,41.33123954645826
pt.ine.add.PTCONT.3559680,R QUINTA DE CAMPOS,20,4600-764,TELÕES AMT,-8.08387682209958,41.2883195546814
pt.ine.add.PTCONT.3559681,R QUINTA DE CAMPOS,20,4600-764,TELÕES AMT,-8.08387682209958,41.2883195546814
pt.ine.add.PTCONT.3559682,CC N SENHORA,11,4605-490,TRAVANCA AMT,-8.20333111464535,41.28148348945915
pt.ine.add.PTCONT.3559683,LG SERTÓRIO DE CARVALHO,171,4600-037,AMARANTE,-8.080320712847657,41.27182229173207
pt.ine.add.PTCONT.3559684,LG SERTÓRIO DE CARVALHO,171,4600-037,AMARANTE,-8.080320712847657,41.27182229173207
pt.ine.add.PTCONT.3559685,LG SERTÓRIO DE CARVALHO,171,4600-037,AMARANTE,-8.080320712847657,41.27182229173207
pt.ine.add.PTCONT.3559686,LG SERTÓRIO DE CARVALHO,171,4600-037,AMARANTE,-8.080320712847657,41.27182229173207
pt.ine.add.PTCONT.3559687,LG SERTÓRIO DE CARVALHO,171,4600-037,AMARANTE,-8.080320712847657,41.27182229173207
pt.ine.add.PTCONT.3559688,LG SERTÓRIO DE CARVALHO,171,4600-037,AMARANTE,-8.080320712847657,41.27182229173207
pt.ine.add.PTCONT.3559689,LG SERTÓRIO DE CARVALHO,171,4600-037,AMARANTE,-8.080320712847657,41.27182229173207
pt.ine.add.PTCONT.3559690,LG SERTÓRIO DE CARVALHO,171,4600-037,AMARANTE,-8.080320712847657,41.27182229173207
pt.ine.add.PTCONT.3559691,,,4600-761,TELÕES AMT,-8.111025430014656,41.31767252271201
pt.ine.add.PTCONT.3559692,R ESCOLA,149,4600-789,VILA CAIZ,-8.132571600725772,41.231099203584606
pt.ine.add.PTCONT.3559693,LAD CASAS,,4600-802,VILA CHÃ DO MARÃO,-8.032502399545708,41.300027562578606
pt.ine.add.PTCONT.3559694,,,4600-761,TELÕES AMT,-8.116851886343156,41.3249398274334
pt.ine.add.PTCONT.3559695,R DR PAULINO ANTÓNIO CABRAL,,4600-075,AMARANTE,-8.083482731349775,41.272751131566885
pt.ine.add.PTCONT.3559696,R COSTA,490,4600-758,TELÕES AMT,-8.084961182813588,41.29101226345612
pt.ine.add.PTCONT.3559697,R TALEGRE,,4600-761,TELÕES AMT,-8.094185801948393,41.317289886528975
pt.ine.add.PTCONT.3559698,TV DEVESA,34,4600-070,AMARANTE,-8.080427575877469,41.272506660526595
pt.ine.add.PTCONT.3559699,R DR FRANCISCO SA CARNEIRO,121,4600-073,AMARANTE,-8.08410466252799,41.270995577201504
pt.ine.add.PTCONT.3559700,R DR FRANCISCO SA CARNEIRO,121,4600-073,AMARANTE,-8.08410466252799,41.270995577201504
pt.ine.add.PTCONT.3559701,R DR FRANCISCO SA CARNEIRO,121,4600-073,AMARANTE,-8.08410466252799,41.270995577201504
pt.ine.add.PTCONT.3559702,R DR FRANCISCO SA CARNEIRO,121,4600-073,AMARANTE,-8.08410466252799,41.270995577201504
pt.ine.add.PTCONT.3559703,R DR FRANCISCO SA CARNEIRO,121,4600-073,AMARANTE,-8.08410466252799,41.270995577201504
pt.ine.add.PTCONT.3559704,R LEIJINHA,,4600-741,SÃO SIMÃO GOUVEIA,-8.047756416422875,41.22155004922645
pt.ine.add.PTCONT.3559705,,,4600-761,TELÕES AMT,-8.119612461642076,41.318160073213846
pt.ine.add.PTCONT.3559706,R ARIEIRO,,4600-761,TELÕES AMT,-8.100901217017748,41.31038578338976
pt.ine.add.PTCONT.3559707,CAM REGUENGO DE ALEM,,4600-758,TELÕES AMT,-8.097863474074993,41.29659952497971
pt.ine.add.PTCONT.3559708,R PADRE ÁLVARO DA SILVA BARBOSA,1405,4600-782,VILA CAIZ,-8.129183744478683,41.23907691868968
pt.ine.add.PTCONT.3559709,R CÂNDIDO DOS REIS,,4600-055,AMARANTE,-8.082350988014253,41.27006738367658
pt.ine.add.PTCONT.3559710,R SENHORA DO CAMPO,172,4600-741,SÃO SIMÃO GOUVEIA,-8.06702792640615,41.221895879017005
pt.ine.add.PTCONT.3559711,R SALGUEIRINHOS,,4600-762,TELÕES AMT,-8.096086557960641,41.292988293763266
pt.ine.add.PTCONT.3559712,R GATEIRA,444,4605-443,TRAVANCA AMT,-8.200771001195852,41.27597445347213
pt.ine.add.PTCONT.3559713,R PEREIRA,124,4605-466,TRAVANCA AMT,-8.18661474335997,41.26051266222731
pt.ine.add.PTCONT.3559794,R FERMIL,585,4600-810,VILA GARCIA AMT,-8.080469563190517,41.309369788782014
pt.ine.add.PTCONT.3559837,R CRUZ BOUCAS,491,4600-810,VILA GARCIA AMT,-8.086487136643767,41.31079503880529
pt.ine.add.PTCONT.3564577,R STA COMBA DO MONTE,228,4605-370,VILA MEÃ,-8.186441448049315,41.23817321249583
pt.ine.add.PTCONT.3564587,R DR FRANCISCO SA CARNEIRO,121,4600-073,AMARANTE,-8.08410466252799,41.270995577201504
pt.ine.add.PTCONT.3564589,R FREIXO DE BAIXO,,4600-614,FREIXO DE BAIXO,-8.116546155398833,41.30587801714376
pt.ine.add.PTCONT.3564590,PCT BOUCA DO POMBAL,70,4600-272,AMARANTE,-8.083287273985373,41.27866680852599
pt.ine.add.PTCONT.3564591,R CARVALHAS DE SA,294,4600-059,AMARANTE,-8.091228788910001,41.27234001627164
pt.ine.add.PTCONT.3564617,R RIBAS,37,4600-801,VILA CHÃ DO MARÃO,-8.037309477523976,41.286930590327
pt.ine.add.PTCONT.3564621,R CARVALHAL,62,4600-652,JAZENTE,-8.060834297345561,41.236524105981
pt.ine.add.PTCONT.3564780,R GATEIRA,295,4605-443,TRAVANCA AMT,-8.199683850768302,41.274975620738815
pt.ine.add.PTCONT.3564786,LG SERTÓRIO DE CARVALHO,171,4600-037,AMARANTE,-8.080320712847657,41.27182229173207
pt.ine.add.PTCONT.3564788,R RELVINHAS,78,4600-510,ABOIM AMT,-8.069670969991646,41.32513959319161
pt.ine.add.PTCONT.3564789,R PORTELA,177,4600-681,LUFREI,-8.05730494172057,41.2868734595005
pt.ine.add.PTCONT.3564790,LG SERTÓRIO DE CARVALHO,171,4600-037,AMARANTE,-8.080320712847657,41.27182229173207
pt.ine.add.PTCONT.3564796,R DR FRANCISCO SA CARNEIRO,6,4600-073,AMARANTE,-8.08410466252799,41.270995577201504
pt.ine.add.PTCONT.3564801,TV VILA GARCIA,81,4605-493,TRAVANCA AMT,-8.194622529277538,41.26149012297441
pt.ine.add.PTCONT.3564805,PCT BOUCA DO POMBAL,70,4600-272,AMARANTE,-8.083287273985373,41.27866680852599
pt.ine.add.PTCONT.3564807,R OLIVAIS,,4600-520,ANSIÃES,-7.957900668373294,41.25130651739803
pt.ine.add.PTCONT.3564808,R BOAVISTA,2474,4600-593,FREGIM,-8.126544631199573,41.26744915454456
pt.ine.add.PTCONT.3564889,R DE FERMIL,81,4600-810,VILA GARCIA AMT,-8.084603219319728,41.306877454676126
pt.ine.add.PTCONT.3564906,R ESTALAGEM,,4605-326,VILA MEÃ,-8.17334220715403,41.25508851381567
pt.ine.add.PTCONT.3564934,R RAINHA,110,4600-632,GATÃO,-8.066903283184564,41.28632111996134
pt.ine.add.PTCONT.3564935,R SILVOSO,477,4600-721,SALVADOR DO MONTE,-8.09699819216431,41.2418716479088
pt.ine.add.PTCONT.3565259,CC CRUZEIRO,80,4600-643,GONDAR AMT,-8.03258207576495,41.263677709124465
pt.ine.add.PTCONT.3565834,R CARVALHAS,,4600-540,CANADELO,-7.97148318060314,41.32185613954777
pt.ine.add.PTCONT.3565765,LG SERTÓRIO DE CARVALHO,171,4600-037,AMARANTE,-8.080320712847657,41.27182229173207
pt.ine.add.PTCONT.3565814,VLA FRAGA,12,4600-500,ABOADELA,-7.987214872014802,41.262215497450974
pt.ine.add.PTCONT.3565815,R SOLEIRO,275,4600-520,ANSIÃES,-7.961206938753664,41.25533639326925
pt.ine.add.PTCONT.3565816,R RASCÕES,501,4600-068,AMARANTE,-8.079535690583866,41.253948546351104
pt.ine.add.PTCONT.3565817,TV TRIGAIS,31,4600-620,FRIDÃO,-8.034055946321555,41.314912772826844
pt.ine.add.PTCONT.3565818,R REVILHAES,445,4600-552,CANDEMIL AMT,-7.986298397321594,41.245169317367186
pt.ine.add.PTCONT.3565819,R ALMINHAS,398,4600-510,ABOIM AMT,-8.069519441694094,41.333567364531596
pt.ine.add.PTCONT.3565820,R CAPELA,562,4600-593,FREGIM,-8.112080414000758,41.268086720690455
pt.ine.add.PTCONT.3565821,R MIMOSAS,333,4600-593,FREGIM,-8.105826043673073,41.27022841134317
pt.ine.add.PTCONT.3565822,TV BAIRRO NOVO,48,4600-620,FRIDÃO,-8.02658089656203,41.31426680376263
pt.ine.add.PTCONT.3565823,R CENTRAL DE ANSIAES,392,4600-520,ANSIÃES,-7.953827137861566,41.24442100636058
pt.ine.add.PTCONT.3565824,TV SERRA,,4600-580,CHAPA,-8.050924612272134,41.31993235257049
pt.ine.add.PTCONT.3565825,AV BELA VISTA,,4600-591,FREGIM,-8.10039694353725,41.268020964489814
pt.ine.add.PTCONT.3565826,AV S GENS,1076,4615-047,FREIXO DE CIMA,-8.131746952588419,41.31096654649833
pt.ine.add.PTCONT.3565827,R CARREGAL,121,4600-500,ABOADELA,-7.986580745491917,41.28965048720475
pt.ine.add.PTCONT.3565828,R S SEBASTIÃO,293,4600-611,FREIXO DE BAIXO,-8.114385608319312,41.30316743440484
pt.ine.add.PTCONT.3565829,TV ALTO DA LIXA,,4615-013,FREIXO DE CIMA,-8.137777936927453,41.315261436878046
pt.ine.add.PTCONT.3565830,URB BOAVISTA,59,4600-111,AMARANTE,-8.083824582182602,41.262549502066996
pt.ine.add.PTCONT.3565831,URB BOAVISTA,59,4600-111,AMARANTE,-8.083824582182602,41.262549502066996
pt.ine.add.PTCONT.3565832,R OUTEIRO,282,4600-500,ABOADELA,-7.990244108121008,41.2849188921647
pt.ine.add.PTCONT.3565833,R OUTEIRO,,4600-500,ABOADELA,-7.990244108121008,41.2849188921647
pt.ine.add.PTCONT.3565835,R CIMO DO POVO,,4600-520,ANSIÃES,-7.9375598763790745,41.234741969480176
pt.ine.add.PTCONT.3565836,R EIDO,,4600-540,CANADELO,-7.973342840905219,41.32332640820723
pt.ine.add.PTCONT.3565837,R DEVESA,26,4600-620,FRIDÃO,-8.037289042407307,41.309053811230015
pt.ine.add.PTCONT.3565838,R SANGUINHEDO,14,4600-510,ABOIM AMT,-8.06840935775372,41.32058280183631
pt.ine.add.PTCONT.3565839,R PONTE NOVA,188,4600-510,ABOIM AMT,-8.066416580061967,41.31879884601955
pt.ine.add.PTCONT.3565840,R CIMO CALVÁRIO,18,4600-540,CANADELO,-7.971283903694261,41.32516037297948
pt.ine.add.PTCONT.3565841,R CIMO DE VILA,,4600-551,CANDEMIL AMT,-7.9439506266163775,41.22739615892967
pt.ine.add.PTCONT.3565842,CAM FONTENARIO,,4600-530,BUSTELO AMT,-7.999651563015214,41.24342073563253
pt.ine.add.PTCONT.3565843,R ALTO SECO,120 A,4600-591,FREGIM,-8.106952662883556,41.25826206266786
pt.ine.add.PTCONT.3565844,AV LAGARTEIRA,,4615-013,FREIXO DE CIMA,-8.147379100228882,41.311667993451046
pt.ine.add.PTCONT.3565845,R VÁRZEA,,4600-620,FRIDÃO,-8.040640349274089,41.312081945552876
pt.ine.add.PTCONT.3565846,R PEDREIRO,,4600-632,GATÃO,-8.067903338398875,41.289022945904364
pt.ine.add.PTCONT.3565847,R OVELHA E HONRA DO MARÃO,58,4600-500,ABOADELA,-7.994319145748521,41.277180272248444
pt.ine.add.PTCONT.3565848,R SOBREIROS DE CIMA,44,4600-613,FREIXO DE BAIXO,-8.120773102386096,41.306778963236454
pt.ine.add.PTCONT.3565849,R SOBREIROS DE CIMA,44,4600-613,FREIXO DE BAIXO,-8.120773102386096,41.306778963236454
pt.ine.add.PTCONT.3565850,R SOBREIROS DE CIMA,44,4600-613,FREIXO DE BAIXO,-8.120773102386096,41.306778963236454
pt.ine.add.PTCONT.3565851,R CORUJEIRA,382,4600-612,FREIXO DE BAIXO,-8.118411382526139,41.29505526459442
pt.ine.add.PTCONT.3565852,CC IGREJA,64,4600-500,ABOADELA,-7.988254954313717,41.27755097827507
pt.ine.add.PTCONT.3565853,R CASINHA,250,4600-206,AMARANTE,-8.089067269468229,41.25651879375767
pt.ine.add.PTCONT.3565854,AV CAMPELO,201,4615-021,FREIXO DE CIMA,-8.14208899688209,41.313352302975005
pt.ine.add.PTCONT.3565855,CAM ESTERCADA,,4600-560,CARNEIRO,-7.968480198118916,41.21459373073012
pt.ine.add.PTCONT.3565856,R CASAIS,266,4615-021,FREIXO DE CIMA,-8.143020234543796,41.31158741398878
pt.ine.add.PTCONT.3565857,R S BRÁS,556,4600-500,ABOADELA,-7.988411062798981,41.26631392600514
pt.ine.add.PTCONT.3565858,R CARVALHINHA,67,4600-551,CANDEMIL AMT,-7.977156732476481,41.25158632747417
pt.ine.add.PTCONT.3565859,CAM AREAL,7,4600-551,CANDEMIL AMT,-7.978136080526999,41.25116445063022
pt.ine.add.PTCONT.3565860,R CALVÁRIO,,4600-560,CARNEIRO,-7.969031102824445,41.213640061679165
pt.ine.add.PTCONT.3565861,TV CRUZEIRO,205,4600-551,CANDEMIL AMT,-7.98009656658427,41.249537305373025
pt.ine.add.PTCONT.3565862,R RIO,259,4600-594,FREGIM,-8.113559409506497,41.27088729160571
pt.ine.add.PTCONT.3565863,AV LAGARTEIRA,556,4615-034,FREIXO DE CIMA,-8.14779587007828,41.30631047107276
pt.ine.add.PTCONT.3565864,AV LAGARTEIRA,556,4615-034,FREIXO DE CIMA,-8.14779587007828,41.30631047107276
pt.ine.add.PTCONT.3565865,AV LAGARTEIRA,556,4615-034,FREIXO DE CIMA,-8.14779587007828,41.30631047107276
pt.ine.add.PTCONT.3565866,AV LAGARTEIRA,556,4615-034,FREIXO DE CIMA,-8.14779587007828,41.30631047107276
pt.ine.add.PTCONT.3565867,TV LOUREIRO,,4600-652,JAZENTE,-8.059921514039324,41.24210617039035
pt.ine.add.PTCONT.3565868,TV COVELO,,4600-641,GONDAR AMT,-8.01494835646599,41.24837177677434
pt.ine.add.PTCONT.3565869,R OUTEIRO,222,4605-118,MANCELOS,-8.136988455399738,41.2939756364957
pt.ine.add.PTCONT.3565870,R PADRE PAULINO CABRAL,,4600-652,JAZENTE,-8.0573961117932,41.23896205164206
pt.ine.add.PTCONT.3565871,R SETE CASAS,451,4600-246,AMARANTE,-8.067103872227156,41.264954261947615
pt.ine.add.PTCONT.3565872,TV PINHEIRO MANSO,25,4605-305,VILA MEÃ,-8.172661510746963,41.2541162921447
pt.ine.add.PTCONT.3565873,R FORNOS,177,4600-652,JAZENTE,-8.061931345800087,41.23685794708602
pt.ine.add.PTCONT.3565874,R CENTRAL DA VENDA NOVA,81,4600-681,LUFREI,-8.05700563387497,41.27734682650888
pt.ine.add.PTCONT.3565875,VLA SETE CASAS,27,4600-246,AMARANTE,-8.066208773901742,41.26503478329779
pt.ine.add.PTCONT.3565876,R VENTUSEIRA,213,4605-176,MANCELOS,-8.137919205107314,41.28744757093036
pt.ine.add.PTCONT.3565877,R CARREIROS,,4605-116,MANCELOS,-8.139196514925137,41.28724941839267
pt.ine.add.PTCONT.3565878,R TELHADO,71,4605-168,MANCELOS,-8.15104743790255,41.275839867586164
pt.ine.add.PTCONT.3565879,TV NSA SRA DE FÁTIMA,,4605-307,VILA MEÃ,-8.171874458032107,41.25484590298191
pt.ine.add.PTCONT.3565920,R PORTELA,,4600-720,SALVADOR DO MONTE,-8.098997036168635,41.2290952034355
pt.ine.add.PTCONT.3565880,R ALDEIA,287,4600-643,GONDAR AMT,-8.035801259679088,41.26557136087029
pt.ine.add.PTCONT.3565881,R POUSADOUROS,68,4600-670,LOUREDO AMT,-8.117739262013314,41.25923646462349
pt.ine.add.PTCONT.3565882,R CHARQUINHOS,88,4600-681,LUFREI,-8.060240004428115,41.27755601568358
pt.ine.add.PTCONT.3565883,TV DEVESA,36,4600-706,PADRONELO,-8.053712420914195,41.2567609649587
pt.ine.add.PTCONT.3565884,TV PAREDES,23,4600-251,AMARANTE,-8.063148670728872,41.26982320721141
pt.ine.add.PTCONT.3565885,R POMBAL,,4605-125,MANCELOS,-8.165331814894142,41.27084842499767
pt.ine.add.PTCONT.3565886,R ALTO DOS SALGUEIROS,13,4605-304,VILA MEÃ,-8.17635959780874,41.25305246231151
pt.ine.add.PTCONT.3565887,R BURACO,198,4600-643,GONDAR AMT,-8.021759494105382,41.26312749782426
pt.ine.add.PTCONT.3565888,R CENTRAL DE MANCELOS,1474,4605-159,MANCELOS,-8.14906827827163,41.284619250369545
pt.ine.add.PTCONT.3565889,R VALDOSA,,4605-145,MANCELOS,-8.138013258125634,41.268106544922226
pt.ine.add.PTCONT.3565890,R PIDRE,209,4605-145,MANCELOS,-8.135948703527603,41.269232141179074
pt.ine.add.PTCONT.3565891,R SOBREIROS,357,4600-683,LUFREI,-8.045494751043957,41.2630579638384
pt.ine.add.PTCONT.3565892,R BAIRRO NOVO,160,4605-120,MANCELOS,-8.140841714453869,41.26869166364916
pt.ine.add.PTCONT.3565893,R TOJAL,216,4600-701,PADRONELO,-8.053047953378822,41.25370806937572
pt.ine.add.PTCONT.3565894,R MEM GUNDAR,728,4600-648,GONDAR AMT,-8.0350101178023,41.25197430479484
pt.ine.add.PTCONT.3565895,R MANHUFE,1702,4605-133,MANCELOS,-8.16313207035677,41.262610160754484
pt.ine.add.PTCONT.3565896,R AMADEU DE SOUSA CARDOSO,,4605-133,MANCELOS,-8.154875106488563,41.26489008604189
pt.ine.add.PTCONT.3565897,CAM CASAIS CASA 2,560,4600-690,OLO,-8.007087223003547,41.30365823414241
pt.ine.add.PTCONT.3565898,R SILVARINHOS,172,4600-703,PADRONELO,-8.043133096126802,41.25354767633992
pt.ine.add.PTCONT.3565899,R LANGEAIS,375,4600-642,GONDAR AMT,-8.032540310558757,41.252008191018874
pt.ine.add.PTCONT.3565900,R ALTO DA SERRA,,4605-133,MANCELOS,-8.159147090906208,41.26433093745676
pt.ine.add.PTCONT.3565901,R ESCRITOR MANUEL SEQUEIRA AMARAL,244,4600-124,AMARANTE,-8.072399204334058,41.26836977413907
pt.ine.add.PTCONT.3565902,R ESCRITOR MANUEL SEQUEIRA AMARAL,244,4600-124,AMARANTE,-8.072399204334058,41.26836977413907
pt.ine.add.PTCONT.3565903,R ESCRITOR MANUEL SEQUEIRA AMARAL,244,4600-124,AMARANTE,-8.072399204334058,41.26836977413907
pt.ine.add.PTCONT.3565904,R ESCRITOR MANUEL SEQUEIRA AMARAL,244,4600-124,AMARANTE,-8.072399204334058,41.26836977413907
pt.ine.add.PTCONT.3565905,R ESCRITOR MANUEL SEQUEIRA AMARAL,244,4600-124,AMARANTE,-8.072399204334058,41.26836977413907
pt.ine.add.PTCONT.3565906,R ESCRITOR MANUEL SEQUEIRA AMARAL,244,4600-124,AMARANTE,-8.072399204334058,41.26836977413907
pt.ine.add.PTCONT.3565907,R ESCRITOR MANUEL SEQUEIRA AMARAL,244,4600-124,AMARANTE,-8.072399204334058,41.26836977413907
pt.ine.add.PTCONT.3565908,R ESCRITOR MANUEL SEQUEIRA AMARAL,244,4600-124,AMARANTE,-8.072399204334058,41.26836977413907
pt.ine.add.PTCONT.3565909,R CAMPO DE JOGOS,112,4600-644,GONDAR AMT,-8.01995641973778,41.24305529649507
pt.ine.add.PTCONT.3565910,R ACACIO LINO,122,4600-045,AMARANTE,-8.070955844986367,41.2676576710378
pt.ine.add.PTCONT.3565911,R S RITA,144,4605-148,MANCELOS,-8.173536485209357,41.26055401411928
pt.ine.add.PTCONT.3565912,R S PAIO,,4600-690,OLO,-8.011512494833314,41.29975518821048
pt.ine.add.PTCONT.3565913,R ALTO DE CHEDAS,318,4600-643,GONDAR AMT,-8.024499460841898,41.258745057761026
pt.ine.add.PTCONT.3565914,R RAIMUNDO MAGALHÃES,77,4605-383,VILA MEÃ,-8.181387341826948,41.243136788669446
pt.ine.add.PTCONT.3565915,R ENXERTADA E LAMEIRO LONGO,,4600-652,JAZENTE,-8.047906909086393,41.243421532383216
pt.ine.add.PTCONT.3565916,AV 25 DE ABRIL,425,4600-014,AMARANTE,-8.069735926685329,41.27039428683896
pt.ine.add.PTCONT.3565917,R EIDO GRANDE,,4605-124,MANCELOS,-8.161814951515515,41.27963745874145
pt.ine.add.PTCONT.3565918,R TOUTAO,,4600-661,LOMBA AMT,-8.068170069338917,41.24875625438323
pt.ine.add.PTCONT.3565919,CAM VALE DO PORCO,235,4600-703,PADRONELO,-8.046705782894483,41.25867382125573
pt.ine.add.PTCONT.3565942,R PENALTA,289,4600-753,TELÕES AMT,-8.093973916574475,41.29215020653064
pt.ine.add.PTCONT.3565921,R ARMANDO PEREIRA DOS ANJOS,143,4600-069,AMARANTE,-8.08568927946143,41.27471497847201
pt.ine.add.PTCONT.3565922,R ARMANDO PEREIRA DOS ANJOS,143,4600-069,AMARANTE,-8.08568927946143,41.27471497847201
pt.ine.add.PTCONT.3565923,R ARMANDO PEREIRA DOS ANJOS,143,4600-069,AMARANTE,-8.08568927946143,41.27471497847201
pt.ine.add.PTCONT.3565924,R ARMANDO PEREIRA DOS ANJOS,143,4600-069,AMARANTE,-8.08568927946143,41.27471497847201
pt.ine.add.PTCONT.3565925,R VAL INFANTE,,4600-632,GATÃO,-8.074724871451187,41.28344401200215
pt.ine.add.PTCONT.3565926,TV D AMÁLIA MOTA,498,4600-721,SALVADOR DO MONTE,-8.093957890598286,41.2390523214163
pt.ine.add.PTCONT.3565927,R DEVESA ALTA,325,4615-183,FIGUEIRÓ (SANTIAGO),-8.155699796856124,41.3032027568075
pt.ine.add.PTCONT.3565928,R CARREIRA DA LAMA,144,4615-172,FIGUEIRÓ (SANTIAGO),-8.147985717944163,41.30098898839069
pt.ine.add.PTCONT.3565929,R CARREIRA DA LAMA,144,4615-172,FIGUEIRÓ (SANTIAGO),-8.147985717944163,41.30098898839069
pt.ine.add.PTCONT.3565930,R CARREIRA DA LAMA,144,4615-172,FIGUEIRÓ (SANTIAGO),-8.147985717944163,41.30098898839069
pt.ine.add.PTCONT.3565931,R CARREIRA DA LAMA,144,4615-172,FIGUEIRÓ (SANTIAGO),-8.147985717944163,41.30098898839069
pt.ine.add.PTCONT.3565932,R CARREIRA DA LAMA,144,4615-172,FIGUEIRÓ (SANTIAGO),-8.147985717944163,41.30098898839069
pt.ine.add.PTCONT.3565933,R CENTRAL DE MOUQUIM,619,4600-710,REBORDELO AMT,-7.967382552161,41.3422356139501
pt.ine.add.PTCONT.3565934,R VILA NOVA,11,4600-723,SALVADOR DO MONTE,-8.079496912741485,41.22840345085485
pt.ine.add.PTCONT.3565935,R ERMIDA,123,4615-098,FIGUEIRÓ (SANTA CRISTINA),-8.186739532876487,41.296349314845585
pt.ine.add.PTCONT.3565936,R PENA,100,4600-723,SALVADOR DO MONTE,-8.093835740063609,41.24383354025694
pt.ine.add.PTCONT.3565937,R PENA,28,4600-723,SALVADOR DO MONTE,-8.093692810858458,41.243455312772745
pt.ine.add.PTCONT.3565938,CAM LENTEIRO,4,4615-110,FIGUEIRÓ (SANTA CRISTINA),-8.168185815481532,41.296176380076105
pt.ine.add.PTCONT.3565939,R CUMIEIRA,193,4615-182,FIGUEIRÓ (SANTIAGO),-8.173649060510808,41.307501821727676
pt.ine.add.PTCONT.3565940,CAM FONTE,45,4615-097,FIGUEIRÓ (SANTA CRISTINA),-8.171133389664377,41.293735313308176
pt.ine.add.PTCONT.3565941,R ESCOLAS,775,4615-186,FIGUEIRÓ (SANTIAGO),-8.16902653156371,41.305234309810125
pt.ine.add.PTCONT.3565943,R BORRALHEIRO,110,4600-802,VILA CHÃ DO MARÃO,-8.050826915400107,41.29314492505438
pt.ine.add.PTCONT.3565944,R TUBARAL,8,4600-741,SÃO SIMÃO GOUVEIA,-8.060393045096971,41.21490454965476
pt.ine.add.PTCONT.3565945,,,4600-757,TELÕES AMT,-8.112854464310288,41.312081286949166
pt.ine.add.PTCONT.3565946,R TRAVESSA DE SEDÕES,58,4600-770,VÁRZEA AMT,-8.00973699203056,41.26618568131032
pt.ine.add.PTCONT.3565947,R S MARTINHO,,4615-220,TELÕES AMT,-8.110433916813337,41.33584272841475
pt.ine.add.PTCONT.3565948,R NSA SRA DE FÁTIMA,589,4600-756,TELÕES AMT,-8.096732125633341,41.291403764351585
pt.ine.add.PTCONT.3565949,R VALE DA LOIRA,147,4600-786,VILA CAIZ,-8.13842829729454,41.23538511450655
pt.ine.add.PTCONT.3565950,R CERCA,41,4600-119,AMARANTE,-8.079975698857087,41.27047150150985
pt.ine.add.PTCONT.3565951,R S VERISSIMO,137,4600-010,AMARANTE,-8.09375106882731,41.26565077535644
pt.ine.add.PTCONT.3565952,R PARADELA,,4615-220,TELÕES AMT,-8.093102344978018,41.33131794477843
pt.ine.add.PTCONT.3565953,TV REGO,,4615-220,TELÕES AMT,-8.104783919493586,41.33425675329348
pt.ine.add.PTCONT.3565954,R CARVALHAL DE BAIXO,285,4600-770,VÁRZEA AMT,-7.998887279594393,41.26129325736154
pt.ine.add.PTCONT.3565955,LUGAR DE SOBRADELO,,4600-741,SÃO SIMÃO GOUVEIA,-8.047189249848179,41.23574937062433
pt.ine.add.PTCONT.3565956,CC TROVOADA,,4605-490,TRAVANCA AMT,-8.202959823836915,41.280304165864415
pt.ine.add.PTCONT.3565957,R S JOÃO VÁRZEA,1910,4600-770,VÁRZEA AMT,-7.9914135772714925,41.25749352331826
pt.ine.add.PTCONT.3565958,R CADAFAZ,97,4600-802,VILA CHÃ DO MARÃO,-8.031075963351807,41.303609963025714
pt.ine.add.PTCONT.3565959,R CARVALHEIRAS,,4615-220,TELÕES AMT,-8.099219768143191,41.32890680488957
pt.ine.add.PTCONT.3565960,R CENTRAL DE TRAVANCA,1571,4605-467,TRAVANCA AMT,-8.209459963690643,41.275869972726866
pt.ine.add.PTCONT.3565961,R S SEBASTIÃO,,4605-483,TRAVANCA AMT,-8.190278427206625,41.27457548622858
pt.ine.add.PTCONT.3565962,,,4600-761,TELÕES AMT,-8.117293997800695,41.32425557539757
pt.ine.add.PTCONT.3565963,R TALEGRE,,4600-761,TELÕES AMT,-8.093552736648391,41.317424732789796
pt.ine.add.PTCONT.3565964,R MOINHOS,16 5,4600-752,TELÕES AMT,-8.092461622153102,41.28587376745237
pt.ine.add.PTCONT.3565965,R MOINHOS,164,4600-752,TELÕES AMT,-8.092724216254751,41.28591888080315
pt.ine.add.PTCONT.3565966,R MONTE,41,4600-784,VILA CAIZ,-8.147528743072348,41.23198072062941
pt.ine.add.PTCONT.3565967,R GOLAS,278,4600-752,TELÕES AMT,-8.088047284083704,41.28226144406562
pt.ine.add.PTCONT.3565968,R ESTRADINHA,299,4600-760,TELÕES AMT,-8.09180400568358,41.28755731614717
pt.ine.add.PTCONT.3565969,CAM NOGUEIRA DE S BENTO,151,4605-481,TRAVANCA AMT,-8.171184969173442,41.27977880818451
pt.ine.add.PTCONT.3565970,R ENCOSTA S BRÁS,,4600-761,TELÕES AMT,-8.094617283963636,41.31468783517029
pt.ine.add.PTCONT.3565971,R STA BARBARA,1106,4600-801,VILA CHÃ DO MARÃO,-8.025919435187562,41.28792001300666
pt.ine.add.PTCONT.3565972,R RIO ODRES,,4605-484,TRAVANCA AMT,-8.183464791358306,41.27642452975948
pt.ine.add.PTCONT.3565973,R CÂNDIDO DOS REIS,327,4600-055,AMARANTE,-8.08254157140724,41.270544690748224
pt.ine.add.PTCONT.3565974,,,4600-757,TELÕES AMT,-8.1140235622936,41.316304429780295
pt.ine.add.PTCONT.3565975,,,4600-757,TELÕES AMT,-8.113558154704219,41.315079788549035
pt.ine.add.PTCONT.3565976,CC COMBE,,4600-758,TELÕES AMT,-8.100174020647641,41.30789142785878
pt.ine.add.PTCONT.3565977,R GATEIRA,482,4605-443,TRAVANCA AMT,-8.200926759790722,41.27655063073737
pt.ine.add.PTCONT.3566075,CC FERMIL,59,4600-810,VILA GARCIA AMT,-8.083062000807946,41.307930280865534
pt.ine.add.PTCONT.3566090,R CRESTILHAS,521,4600-801,VILA CHÃ DO MARÃO,-8.040197033036243,41.2878693920702
pt.ine.add.PTCONT.3566120,R MURO,240,4600-810,VILA GARCIA AMT,-8.087141373317118,41.31445098484727
pt.ine.add.PTCONT.3566123,R SANTO AMARO,388,4600-810,VILA GARCIA AMT,-8.071940952464407,41.311805696947594
pt.ine.add.PTCONT.3570680,TV VILA BOA,57,4605-045,VILA MEÃ,-8.191266434276962,41.244716971165545
pt.ine.add.PTCONT.3570681,R CARREIRA DA LAMA,144,4615-172,FIGUEIRÓ (SANTIAGO),-8.147985717944163,41.30098898839069
pt.ine.add.PTCONT.3570683,R CASTANHEIRO REDONDO,,4600-761,TELÕES AMT,-8.118847869969551,41.31918645253137
pt.ine.add.PTCONT.3570890,TV PARDELHINHAS,129,4600-611,FREIXO DE BAIXO,-8.126278966337024,41.29735206386063
pt.ine.add.PTCONT.3570894,R MONTE,41,4600-784,VILA CAIZ,-8.147528743072348,41.23198072062941
pt.ine.add.PTCONT.3570899,AV CARVALHINHOS,241,4615-023,FREIXO DE CIMA,-8.136416348017889,41.312911402680065
pt.ine.add.PTCONT.3570910,R DIVINO SALVADOR,1105,4600-723,SALVADOR DO MONTE,-8.092803985221114,41.23385646253932
pt.ine.add.PTCONT.3571019,AV LAGARTEIRA,,4615-034,FREIXO DE CIMA,-8.147020836394413,41.311659033162236
pt.ine.add.PTCONT.3571026,R GIESTAS,277,4600-595,FREGIM,-8.131795326442324,41.28074854638908
pt.ine.add.PTCONT.3571027,R RECHÃO,152,4615-098,FIGUEIRÓ (SANTA CRISTINA),-8.18895858475982,41.29441236266041
pt.ine.add.PTCONT.3571031,R PROF JOSE RIBEIRO SOARES,22,4605-362,VILA MEÃ,-8.175019214800251,41.2466869577281
pt.ine.add.PTCONT.3571094,R CAPELINHA,122,4600-632,GATÃO,-8.070221717030996,41.28650306422076
pt.ine.add.PTCONT.3571978,R VELHA DE MANHUFE,726,4605-133,MANCELOS,-8.153920652236067,41.26561060011399
pt.ine.add.PTCONT.3572035,AV NOVA,72,4605-373,VILA MEÃ,-8.193119434620248,41.24894801693963
pt.ine.add.PTCONT.3572036,AV NOVA,72,4605-373,VILA MEÃ,-8.193119434620248,41.24894801693963
pt.ine.add.PTCONT.3572037,AV NOVA,4,4605-373,VILA MEÃ,-8.193119434620248,41.24894801693963
pt.ine.add.PTCONT.3572038,AV NOVA,72,4605-373,VILA MEÃ,-8.193119434620248,41.24894801693963
pt.ine.add.PTCONT.3572039,AV NOVA,72,4605-373,VILA MEÃ,-8.193119434620248,41.24894801693963
pt.ine.add.PTCONT.3572040,AV NOVA,72,4605-373,VILA MEÃ,-8.193119434620248,41.24894801693963
pt.ine.add.PTCONT.3572041,AV NOVA,72,4605-373,VILA MEÃ,-8.193119434620248,41.24894801693963
pt.ine.add.PTCONT.3572042,AV NOVA,72,4605-373,VILA MEÃ,-8.193119434620248,41.24894801693963
pt.ine.add.PTCONT.3572043,AV NOVA,72,4605-373,VILA MEÃ,-8.193119434620248,41.24894801693963
pt.ine.add.PTCONT.3572044,AV NOVA,72,4605-373,VILA MEÃ,-8.193119434620248,41.24894801693963
pt.ine.add.PTCONT.3572045,AV NOVA,72,4605-373,VILA MEÃ,-8.193119434620248,41.24894801693963
pt.ine.add.PTCONT.3572046,AV NOVA,72,4605-373,VILA MEÃ,-8.193119434620248,41.24894801693963
