id,street,house,postcode,city,lon,lat
pt.ine.add.PTCONT.849695,R DA SENHORA DA CONCEIÇÃO,21,5160-041,CARDANHA,-7.03846832783467,41.25329537502059
pt.ine.add.PTCONT.849696,R DO VALE REDONDO,39,5160-069,CARVIÇAIS,-6.886513079274114,41.183634916216334
pt.ine.add.PTCONT.849697,R DO CABO DOS TAPADOS,42,5160-069,CARVIÇAIS,-6.878759544163076,41.184604197005825
pt.ine.add.PTCONT.849723,AV DO SOL,22,5160-069,CARVIÇAIS,-6.887719733191278,41.18159504576876
pt.ine.add.PTCONT.849724,R DIREITA,64,5160-069,CARVIÇAIS,-6.893026564295553,41.18078792377822
pt.ine.add.PTCONT.849738,R DIREITA,23,5160-076,FELGAR,-6.9585130284056795,41.211593107222356
pt.ine.add.PTCONT.849739,R B,8,5160-079,FELGAR,-6.960775581177464,41.20574552070464
pt.ine.add.PTCONT.849754,R DE STO ANTÓNIO,6,5160-081,FELGAR,-6.983989879819084,41.18318117740412
pt.ine.add.PTCONT.849755,R DO IMACULADO CORAÇÃO DE MARIA,2,5160-091,FELGUEIRAS TMC,-7.010610801589488,41.15623323534525
pt.ine.add.PTCONT.849756,R DA NOGUEIRA,2,5160-091,FELGUEIRAS TMC,-7.012044026743781,41.15392412166724
pt.ine.add.PTCONT.849757,R DO CANTO,10,5160-091,FELGUEIRAS TMC,-7.011707753925021,41.15408292298072
pt.ine.add.PTCONT.849779,R DAS FRAGAS,,5160-091,FELGUEIRAS TMC,-7.013376310568701,41.15264048230889
pt.ine.add.PTCONT.849780,R DO CEMITÉRIO,78,5160-102,HORTA DA VILARIÇA,-7.148469930107795,41.242421365644255
pt.ine.add.PTCONT.849781,R DO FUNDO DO POVO,8,5160-101,HORTA DA VILARIÇA,-7.121961291748585,41.234033916364254
pt.ine.add.PTCONT.849782,R DA IGREJA,12,5160-101,HORTA DA VILARIÇA,-7.123488647221817,41.233218943878214
pt.ine.add.PTCONT.849808,R DO PINHAL DO REI VELHO,280,5160-114,LARINHO,-7.016410200386694,41.19917626263628
pt.ine.add.PTCONT.849809,BR DE STA LUZIA,,5160-114,LARINHO,-7.017285395726177,41.1953760134751
pt.ine.add.PTCONT.849810,BR DO SANTO,43,5160-134,LOUSA TMC,-7.175777269988879,41.171167771644
pt.ine.add.PTCONT.849811,R DAS LAGES,38,5160-133,LOUSA TMC,-7.1784873662209945,41.16835394343073
pt.ine.add.PTCONT.849812,R DA CRUZ,,5160-133,LOUSA TMC,-7.177870537211419,41.16652097579831
pt.ine.add.PTCONT.849837,R DO CARRASCAL,30,5160-152,MÓS TMC,-6.906236364095406,41.16073324310419
pt.ine.add.PTCONT.849838,R DO CARRASCAL,31,5160-152,MÓS TMC,-6.906100474225518,41.16035362306967
pt.ine.add.PTCONT.849839,SIT DA CALEJA,,5160-161,PEREDO DOS CASTELHANOS,-7.078900098478554,41.110794943580906
pt.ine.add.PTCONT.849857,TV DA IGREJA,3,5160-171,SOUTO DA VELHA,-6.935217570938374,41.208156678445825
pt.ine.add.PTCONT.849858,AV DAS AMENDOEIRAS,68,5160-304,TORRE DE MONCORVO,-7.039182652753567,41.178244171059156
pt.ine.add.PTCONT.849859,R VASCO DA GAMA,25,5160-297,TORRE DE MONCORVO,-7.050304676434971,41.17372115017029
pt.ine.add.PTCONT.849878,TV DO CARRASCAL,47,5160-228,TORRE DE MONCORVO,-7.059680542744346,41.17679829702782
pt.ine.add.PTCONT.849879,QTA DOS CHIBOS,,5160-258,TORRE DE MONCORVO,-7.096648973106343,41.197891483507796
pt.ine.add.PTCONT.849880,R DA CAL,13,5160-270,TORRE DE MONCORVO,-7.050785419700425,41.17347355300427
pt.ine.add.PTCONT.849881,R DR ANTÓNIO EMÍLIO ANDRÊS,20,5160-288,TORRE DE MONCORVO,-7.057260470300817,41.1732100727296
pt.ine.add.PTCONT.849898,R GEN ADRIANO DE SÁ,24,5160-285,TORRE DE MONCORVO,-7.057561766416067,41.170817782611294
pt.ine.add.PTCONT.849899,R GEN ADRIANO DE SÁ,24,5160-285,TORRE DE MONCORVO,-7.057561766416067,41.170817782611294
pt.ine.add.PTCONT.849900,R DOS SAPATEIROS,17,5160-278,TORRE DE MONCORVO,-7.051445524581354,41.175361621026234
pt.ine.add.PTCONT.849923,LG VASCO DA GAMA,26,5160-244,TORRE DE MONCORVO,-7.051234987626733,41.17439619996752
pt.ine.add.PTCONT.849924,R DA ROMANZEIRA,9,5160-257,TORRE DE MONCORVO,-7.054614504763526,41.17323934982276
pt.ine.add.PTCONT.849925,R DO FIO,29,5160-401,URROS,-7.026007442365737,41.08512289447056
pt.ine.add.PTCONT.849926,R DA FRÁGUA,28,5160-401,URROS,-7.025721461621133,41.0844358215668
pt.ine.add.PTCONT.849927,R DAS VIDEIRAS,12,5160-401,URROS,-7.024505135676279,41.08387486390094
pt.ine.add.PTCONT.850716,,,5160-063,CARVIÇAIS,-6.832124303787037,41.15077175955315
pt.ine.add.PTCONT.850005,LG DO VALE,8,5160-011,AÇOREIRA,-7.03934415951412,41.13986995920888
pt.ine.add.PTCONT.850006,LG DAS EIRAS,8,5160-011,AÇOREIRA,-7.042047933978973,41.138427917904835
pt.ine.add.PTCONT.850007,R DA ESCOLA,,5160-021,ADEGANHA,-7.050621816951462,41.275956328431974
pt.ine.add.PTCONT.850008,R DO TERREIRO,,5160-022,ADEGANHA,-7.08179899709191,41.26912311138425
pt.ine.add.PTCONT.850029,R DO BAIRRO DO RIBEIRINHO,,5160-022,ADEGANHA,-7.081507307886463,41.267220600003974
pt.ine.add.PTCONT.850030,R PRINCIPAL,,5160-021,ADEGANHA,-7.031639596334739,41.22938755536825
pt.ine.add.PTCONT.850031,R PRINCIPAL,,5160-032,CABEÇA BOA,-7.124922206765235,41.20278861771746
pt.ine.add.PTCONT.850032,R DO BR NOVO,10,5160-034,CABEÇA BOA,-7.164583444748389,41.19896910805134
pt.ine.add.PTCONT.850033,TV DO OLMO,,5160-033,CABEÇA BOA,-7.148931842154376,41.189346030041946
pt.ine.add.PTCONT.850034,R DA CAPELA,,5160-033,CABEÇA BOA,-7.148488128880806,41.18872995430003
pt.ine.add.PTCONT.850035,R DE NSA SRA DA GUIA,,5160-035,CABEÇA BOA,-7.112207083847173,41.18017523957946
pt.ine.add.PTCONT.850049,QTA DO CAMPO,,5160-011,AÇOREIRA,-7.121677982519675,41.138578385297244
pt.ine.add.PTCONT.850052,LG DAS EIRAS,24,5160-011,AÇOREIRA,-7.042586348327307,41.138279945249074
pt.ine.add.PTCONT.850070,R DA SERRA,12,5160-171,SOUTO DA VELHA,-6.937467989943947,41.207666837294276
pt.ine.add.PTCONT.850124,R DO VALE REDONDO,,5160-069,CARVIÇAIS,-6.883942144883761,41.18345398790889
pt.ine.add.PTCONT.850125,R DE STO ANTÓNIO,,5160-071,CASTEDO TMC,-7.167645376019089,41.234002291682735
pt.ine.add.PTCONT.850126,AV DA CONTINA,10,5160-071,CASTEDO TMC,-7.166937857874263,41.23017018102097
pt.ine.add.PTCONT.850699,LG DO MEIO DO POVO,,5160-021,ADEGANHA,-7.067770738010117,41.23422956610124
pt.ine.add.PTCONT.850700,R DA VARELA,,5160-133,LOUSA TMC,-7.177785191096163,41.167474713589286
pt.ine.add.PTCONT.850701,LG DA PRACINHA,1,5160-141,MAÇORES,-7.001963347367279,41.12702012821692
pt.ine.add.PTCONT.850702,QTA DO MARMELEIRO,,5160-200,TORRE DE MONCORVO,-7.0340729604474195,41.18662338412562
pt.ine.add.PTCONT.850703,LG DO ROSSIO,2,5160-401,URROS,-7.023780689974316,41.08378685253595
pt.ine.add.PTCONT.850705,EM 611,,5160-021,ADEGANHA,-7.069314665824981,41.232434024722366
pt.ine.add.PTCONT.850706,R DA TRAVESSA,2,5160-133,LOUSA TMC,-7.178017182673362,41.167089456859216
pt.ine.add.PTCONT.850707,R GEN ALÍPIO TOMÉ PINTO,7,5160-141,MAÇORES,-7.0014917400629235,41.12674537030332
pt.ine.add.PTCONT.850710,R GEN ADRIANO DE SÁ,1,5160-285,TORRE DE MONCORVO,-7.057339812225939,41.17054558500421
pt.ine.add.PTCONT.850711,R DO SACO,6,5160-401,URROS,-7.024608493730694,41.08338962770578
pt.ine.add.PTCONT.850712,BC DO JOGO,4,5160-401,URROS,-7.025454641867832,41.0833167270441
pt.ine.add.PTCONT.850713,R DA CAPELA,,5160-067,CARVIÇAIS,-6.945143737214412,41.16824538308531
pt.ine.add.PTCONT.850714,R DAS EIRINHAS,7,5160-401,URROS,-7.026266754838488,41.0831444461962
pt.ine.add.PTCONT.850715,R DE STO APOLINÁRIO,18,5160-401,URROS,-7.025815715251878,41.08236574479064
pt.ine.add.PTCONT.850717,AV DAS AMENDOEIRAS,27,5160-304,TORRE DE MONCORVO,-7.044777218560053,41.17576701362828
pt.ine.add.PTCONT.850718,R PADRE JOAQUIM REBELO,45 B,5160-306,TORRE DE MONCORVO,-7.048926640749369,41.17490573689373
pt.ine.add.PTCONT.850719,R PADRE JOAQUIM REBELO,45 A,5160-306,TORRE DE MONCORVO,-7.048926640749369,41.17490573689373
pt.ine.add.PTCONT.850720,R DA PICARREIRA,12,5160-011,AÇOREIRA,-7.039497084086163,41.13926813028369
pt.ine.add.PTCONT.850721,R DO ESPÍRITO SANTO,5,5160-091,FELGUEIRAS TMC,-7.012866046561332,41.15392311561358
pt.ine.add.PTCONT.850722,TV DA R DA IGREJA,15,5160-134,LOUSA TMC,-7.176232411645935,41.16855133191013
pt.ine.add.PTCONT.850723,R PADRE JOAQUIM REBELO,45 A,5160-306,TORRE DE MONCORVO,-7.048926640749369,41.17490573689373
pt.ine.add.PTCONT.850724,R DO POÇO,96,5160-274,TORRE DE MONCORVO,-7.051538017887601,41.176983235399774
pt.ine.add.PTCONT.850725,SIT DA ALAGOA,,5160-401,URROS,-7.016394661486462,41.0849490852095
pt.ine.add.PTCONT.850727,R DA PICARREIRA,3,5160-011,AÇOREIRA,-7.038879933746873,41.139136210487194
pt.ine.add.PTCONT.850728,R DA FONTE DO PRADO,59,5160-069,CARVIÇAIS,-6.892786508952612,41.18403580605469
pt.ine.add.PTCONT.850729,TV DO CASTELO,11,5160-071,CASTEDO TMC,-7.168928177698818,41.23351838286262
pt.ine.add.PTCONT.850730,R DO CASTELO,30,5160-071,CASTEDO TMC,-7.168231960435419,41.2338186899911
pt.ine.add.PTCONT.850731,R DOS SAPATEIROS,39,5160-278,TORRE DE MONCORVO,-7.051296617535804,41.17572038812035
pt.ine.add.PTCONT.850732,R MARIA DAS DORES MONTENEGRO,10,5160-011,AÇOREIRA,-7.04041154943739,41.13870954464118
pt.ine.add.PTCONT.850733,R I,2,5160-079,FELGAR,-6.9585846838321554,41.2075870342536
pt.ine.add.PTCONT.850734,R DA TRAVESSA,15,5160-152,MÓS TMC,-6.90483385586696,41.15863834595062
pt.ine.add.PTCONT.850736,R DO CASTELO,8,5160-071,CASTEDO TMC,-7.16858271911819,41.233183388542066
pt.ine.add.PTCONT.850737,R DAS FRAGAS,,5160-091,FELGUEIRAS TMC,-7.014359556503073,41.15296518269712
pt.ine.add.PTCONT.850738,R DAS FRAGAS,,5160-091,FELGUEIRAS TMC,-7.0130064603170865,41.15267290276825
pt.ine.add.PTCONT.850740,R DO ERVEDAL,,5160-091,FELGUEIRAS TMC,-7.012016836685573,41.152023978903294
pt.ine.add.PTCONT.850741,TV DE STA BÁRBARA,,5160-114,LARINHO,-7.013288516119201,41.201874187256614
pt.ine.add.PTCONT.850742,R DE STA BÁRBARA,,5160-114,LARINHO,-7.012039549359459,41.20170896514083
pt.ine.add.PTCONT.850743,R DE TRÁS,,5160-161,PEREDO DOS CASTELHANOS,-7.075599173552178,41.10876574547531
pt.ine.add.PTCONT.850744,R DO CURVATO,,5160-071,CASTEDO TMC,-7.167655503962186,41.229221765537915
pt.ine.add.PTCONT.850745,R DIREITA,14,5160-132,LOUSA TMC,-7.177232028713676,41.16700190539648
pt.ine.add.PTCONT.850746,EN 220,94,5160-069,CARVIÇAIS,-6.885535549554288,41.18239077387002
pt.ine.add.PTCONT.850747,R DO CASTELO,74,5160-102,HORTA DA VILARIÇA,-7.14698237066045,41.242975891207344
pt.ine.add.PTCONT.850748,R DO CASTELO,4,5160-161,PEREDO DOS CASTELHANOS,-7.072478923069264,41.108097758732235
pt.ine.add.PTCONT.850749,R DO CAMPO DA BOLA,14,5160-081,FELGAR,-6.980953363612653,41.18506871153439
pt.ine.add.PTCONT.850750,R DO CASTELO,27,5160-102,HORTA DA VILARIÇA,-7.147057185538105,41.24276043410719
pt.ine.add.PTCONT.850753,R DIREITA,7,5160-171,SOUTO DA VELHA,-6.936535453652922,41.20715292376811
pt.ine.add.PTCONT.850755,R DE STA BÁRBARA,4,5160-088,FELGAR,-6.959828271799246,41.21272301872037
pt.ine.add.PTCONT.850756,R DO OLMO,5,5160-101,HORTA DA VILARIÇA,-7.123278701541654,41.23368531506817
pt.ine.add.PTCONT.850757,R VASCO DA GAMA,39,5160-297,TORRE DE MONCORVO,-7.050938150591598,41.174330382103406
pt.ine.add.PTCONT.850758,LG DIOGO DE SÁ,2,5160-238,TORRE DE MONCORVO,-7.052544964464935,41.17372418321426
pt.ine.add.PTCONT.850759,R DA IGREJA,7,5160-041,CARDANHA,-7.033032209481097,41.25587273188454
pt.ine.add.PTCONT.850760,LG DO ROSSIO,10,5160-401,URROS,-7.024056777030954,41.083645442123
pt.ine.add.PTCONT.850793,R DA CRUZ,153,5160-114,LARINHO,-7.012643808360561,41.203326577954336
pt.ine.add.PTCONT.850799,R DO CABO DO LUGAR,2,5160-069,CARVIÇAIS,-6.892319623391755,41.18035711782426
pt.ine.add.PTCONT.850805,SEQUEIROS,,5160-011,AÇOREIRA,-7.078748511358406,41.14853025924228
pt.ine.add.PTCONT.850806,R DO MEIO,,5160-114,LARINHO,-7.013066012144585,41.20583382079734
pt.ine.add.PTCONT.850807,LG DAS EIRAS,6,5160-401,URROS,-7.023933614798964,41.083185038654385
pt.ine.add.PTCONT.850856,R DO VALE DE AREIA,5,5160-091,FELGUEIRAS TMC,-7.0087823398756415,41.15656656279735
pt.ine.add.PTCONT.850857,R PADRE JOAQUIM REBELO,45 A,5160-306,TORRE DE MONCORVO,-7.048926640749369,41.17490573689373
pt.ine.add.PTCONT.850858,R PADRE JOAQUIM REBELO,45 A,5160-306,TORRE DE MONCORVO,-7.048926640749369,41.17490573689373
pt.ine.add.PTCONT.850859,R PADRE JOAQUIM REBELO,45 A,5160-306,TORRE DE MONCORVO,-7.048926640749369,41.17490573689373
pt.ine.add.PTCONT.850860,TV DO PRADO DE CIMA,27,5160-231,TORRE DE MONCORVO,-7.053115377596813,41.17744824530777
pt.ine.add.PTCONT.850861,TV DO PRADO DE CIMA,27,5160-231,TORRE DE MONCORVO,-7.053115377596813,41.17744824530777
pt.ine.add.PTCONT.850862,,,5160-152,MÓS TMC,-6.9378885748988255,41.11175031813307
pt.ine.add.PTCONT.850863,EN 220,130,5160-069,CARVIÇAIS,-6.880913621293103,41.18352014107298
pt.ine.add.PTCONT.851374,R PRINCIPAL,56,5160-011,AÇOREIRA,-7.080372544713355,41.14753664395624
pt.ine.add.PTCONT.851375,R PRINCIPAL,73,5160-011,AÇOREIRA,-7.081656603331333,41.14619774289116
pt.ine.add.PTCONT.851536,R DR MARGARIDO,7,5160-282,TORRE DE MONCORVO,-7.052374232290055,41.173236357241606
pt.ine.add.PTCONT.851537,BR DA CHOUZA,3,5160-101,HORTA DA VILARIÇA,-7.116952533474058,41.23012706851182
pt.ine.add.PTCONT.851538,R DO CABEÇO,12,5160-133,LOUSA TMC,-7.178267771278776,41.16706452199814
pt.ine.add.PTCONT.851539,,25,5160-313,TORRE DE MONCORVO,-7.0573129308076465,41.18165644908511
pt.ine.add.PTCONT.851540,EN 102,,5160-022,ADEGANHA,-7.092414067647403,41.23719218543923
pt.ine.add.PTCONT.851541,BR DE MONTESINHO,1,5160-230,TORRE DE MONCORVO,-7.048487551950097,41.17768388216275
pt.ine.add.PTCONT.851542,R DR RAMIRO SALGADO,3,5160-284,TORRE DE MONCORVO,-7.050167375327481,41.17192803387438
pt.ine.add.PTCONT.851543,R DR RAMIRO SALGADO,3,5160-284,TORRE DE MONCORVO,-7.050167375327481,41.17192803387438
pt.ine.add.PTCONT.851544,R GRANDE,5,5160-401,URROS,-7.024841470298411,41.08368900993639
pt.ine.add.PTCONT.851545,R DAS CORTINHAS,12,5160-091,FELGUEIRAS TMC,-7.011409301454972,41.15481835781785
pt.ine.add.PTCONT.851546,R DO CABEÇO,73,5160-133,LOUSA TMC,-7.179469983230673,41.16550775067854
pt.ine.add.PTCONT.851547,R DO PRADO DE CIMA,86,5160-296,TORRE DE MONCORVO,-7.0531931036138475,41.17852046691842
pt.ine.add.PTCONT.851548,R DE BAIXO,2,5160-235,TORRE DE MONCORVO,-7.056643164049577,41.17597758182602
pt.ine.add.PTCONT.851549,R DA IGREJA,36,5160-034,CABEÇA BOA,-7.163381492853408,41.19963430406378
pt.ine.add.PTCONT.851551,R DO OLMO,,5160-033,CABEÇA BOA,-7.148922755559401,41.189156865024316
pt.ine.add.PTCONT.851552,R DA FONTE DO PRADO,89,5160-069,CARVIÇAIS,-6.8925359537243205,41.18468139962379
pt.ine.add.PTCONT.851553,R DO FUNDO DO LUGAR,,5160-114,LARINHO,-7.0128987207705515,41.20515688725396
pt.ine.add.PTCONT.851554,BR DE S PAULO,18,5160-226,TORRE DE MONCORVO,-7.059907181944853,41.17386505718448
pt.ine.add.PTCONT.851555,R PROF JOSINO AMADO,1,5160-401,URROS,-7.024022715637536,41.08213239647511
pt.ine.add.PTCONT.851556,R DA NOGUEIRA,2,5160-091,FELGUEIRAS TMC,-7.01205507064862,41.15327592958906
pt.ine.add.PTCONT.851557,R ABÍLIO COSTA,26,5160-134,LOUSA TMC,-7.1760629816503005,41.16954939041438
pt.ine.add.PTCONT.851559,R DA COSTA,21,5160-071,CASTEDO TMC,-7.169604370320073,41.232956785002635
pt.ine.add.PTCONT.851560,R NOVA,23,5160-292,TORRE DE MONCORVO,-7.05184486539798,41.17571653260792
pt.ine.add.PTCONT.851561,R TOMÁS RIBEIRO,58,5160-294,TORRE DE MONCORVO,-7.052986359721349,41.17587131038184
pt.ine.add.PTCONT.851566,BR DA URRETA,6,5160-069,CARVIÇAIS,-6.8871867158466875,41.182678771841495
pt.ine.add.PTCONT.851567,R DO CAVALEIRO,16,5160-071,CASTEDO TMC,-7.17156099687926,41.232848659987184
pt.ine.add.PTCONT.851572,R DA CAPELA,,5160-021,ADEGANHA,-7.052258426618693,41.2751433394196
pt.ine.add.PTCONT.851573,R DO ERVEDAL,,5160-091,FELGUEIRAS TMC,-7.011501451407107,41.1522080486428
pt.ine.add.PTCONT.851574,R DA ESCOLA,27,5160-102,HORTA DA VILARIÇA,-7.147734819070541,41.244504022464554
pt.ine.add.PTCONT.851575,R DA BORRALHEIRA,,5160-134,LOUSA TMC,-7.176207410272191,41.1678127796243
pt.ine.add.PTCONT.851576,R DAS FLORES,11,5160-261,TORRE DE MONCORVO,-7.052116251650411,41.174431487559325
pt.ine.add.PTCONT.851578,R DO VALE REDONDO,,5160-069,CARVIÇAIS,-6.88699662052659,41.185161835640955
pt.ine.add.PTCONT.851579,BR DOS BARREIROS,19,5160-079,FELGAR,-6.961286225987278,41.20585876719917
pt.ine.add.PTCONT.851580,R DO FUNDO DA ALDEIA,,5160-132,LOUSA TMC,-7.173964941919218,41.16715482828081
pt.ine.add.PTCONT.851581,R DA MAIA,31,5160-133,LOUSA TMC,-7.177538786697987,41.16721154758808
pt.ine.add.PTCONT.851582,AV JORGE LUIS BORGES,62,5160-220,TORRE DE MONCORVO,-7.040638708404946,41.17668226871057
pt.ine.add.PTCONT.851584,R DR HORÁCIO GOUVEIA,17,5160-021,ADEGANHA,-7.050787439628022,41.273877963355915
pt.ine.add.PTCONT.851585,R DE TRÁS,,5160-161,PEREDO DOS CASTELHANOS,-7.076599908039938,41.108720901881306
pt.ine.add.PTCONT.851587,R DIREITA,31,5160-069,CARVIÇAIS,-6.893736739520024,41.181047682916464
pt.ine.add.PTCONT.851588,R DE NSA SRA DE FÁTIMA,21,5160-081,FELGAR,-6.98334225355391,41.18409313187263
pt.ine.add.PTCONT.851589,R DA CAL,20,5160-270,TORRE DE MONCORVO,-7.051039334483055,41.17325083529098
pt.ine.add.PTCONT.851590,LG DO CRUZEIRO,,5160-022,ADEGANHA,-7.082481447425004,41.268985277529964
pt.ine.add.PTCONT.851591,R DA EIRA DO CAMINHO,5,5160-087,FELGAR,-6.960692597298741,41.21306497244462
pt.ine.add.PTCONT.851592,R DO EIRÓ,8,5160-101,HORTA DA VILARIÇA,-7.123657148033604,41.2338957275573
pt.ine.add.PTCONT.851593,R VASCO DA GAMA,14,5160-297,TORRE DE MONCORVO,-7.050367956909187,41.17349664145953
pt.ine.add.PTCONT.851594,R DO FIO,20,5160-401,URROS,-7.0256062112292526,41.084920944380876
pt.ine.add.PTCONT.851596,BR EDM,,5160-081,FELGAR,-6.962679765728972,41.18452427345372
pt.ine.add.PTCONT.851597,R DO JOGO DA BOLA,6,5160-101,HORTA DA VILARIÇA,-7.123966394408823,41.233952462899424
pt.ine.add.PTCONT.851598,BR DO SANTO,,5160-134,LOUSA TMC,-7.17605549550753,41.171701331594484
pt.ine.add.PTCONT.851599,R DO CANTO DA MALTA,,5160-141,MAÇORES,-7.000318434381271,41.12711201423714
pt.ine.add.PTCONT.851600,LG DA PRACINHA,4,5160-171,SOUTO DA VELHA,-6.936082911278501,41.20777850349637
pt.ine.add.PTCONT.851601,R DE S PAULO,,5160-266,TORRE DE MONCORVO,-7.060594849178912,41.17334922249899
pt.ine.add.PTCONT.851602,R DA CALÇADA,27,5160-074,FELGAR,-6.955549435465716,41.21195901570112
pt.ine.add.PTCONT.851605,R TOMÁS RIBEIRO,66,5160-294,TORRE DE MONCORVO,-7.052876312068002,41.176041356946214
pt.ine.add.PTCONT.851612,R MANUEL SEIXAS,43,5160-290,TORRE DE MONCORVO,-7.051571864801254,41.17420127286941
pt.ine.add.PTCONT.851625,R PRINCIPAL,,5160-032,CABEÇA BOA,-7.123057211397657,41.202349080280094
pt.ine.add.PTCONT.851628,R DO PRADO DE BAIXO,11,5160-230,TORRE DE MONCORVO,-7.052391125862312,41.17945837848578
pt.ine.add.PTCONT.851635,R TOMÁS RIBEIRO,66,5160-294,TORRE DE MONCORVO,-7.052876312068002,41.176041356946214
pt.ine.add.PTCONT.851636,R DIANTE,49,5160-161,PEREDO DOS CASTELHANOS,-7.076119593066326,41.10897761936471
pt.ine.add.PTCONT.851667,R DOS ESCORADAIS,,5160-091,FELGUEIRAS TMC,-7.012173975316841,41.15398841555595
pt.ine.add.PTCONT.852144,R SANSADORNA,16,5160-011,AÇOREIRA,-7.082227808605576,41.147724665401235
pt.ine.add.PTCONT.852201,R PRINCIPAL,7,5160-011,AÇOREIRA,-7.074413634920774,41.149940171732794
pt.ine.add.PTCONT.852322,R DE STA BÁRBARA,7,5160-088,FELGAR,-6.960911015088371,41.21218479927626
pt.ine.add.PTCONT.852323,QTA DO CORISCO,5,5160-091,FELGUEIRAS TMC,-6.964533868486351,41.1640317416414
pt.ine.add.PTCONT.852324,BR DAS CHICHELAS,2,5160-101,HORTA DA VILARIÇA,-7.121615464719453,41.23170782516071
pt.ine.add.PTCONT.852325,R DE NSA SRA DA CONCEIÇÃO,23,5160-291,TORRE DE MONCORVO,-7.045892305960185,41.172473025177204
pt.ine.add.PTCONT.852326,R DE NSA SRA DA CONCEIÇÃO,19,5160-291,TORRE DE MONCORVO,-7.046203573767958,41.17238592173712
pt.ine.add.PTCONT.852327,R DE NSA SRA DA CONCEIÇÃO,19,5160-291,TORRE DE MONCORVO,-7.046203573767958,41.17238592173712
pt.ine.add.PTCONT.852328,R DA FRÁGUA,18,5160-401,URROS,-7.025406851689619,41.084036609337
pt.ine.add.PTCONT.852329,EN 102,,5160-002,,-7.083939147703301,41.23905114313946
pt.ine.add.PTCONT.852330,R DA IGREJA,43,5160-114,LARINHO,-7.012381319422468,41.206133297659655
pt.ine.add.PTCONT.852331,R DA BACORINHA,5,5160-152,MÓS TMC,-6.907704731706851,41.163134962939196
pt.ine.add.PTCONT.852332,AV DOS COMBATENTES DA GRANDE GUERRA,1,5160-217,TORRE DE MONCORVO,-7.053011842059593,41.172143832659565
pt.ine.add.PTCONT.852333,R DO CABEÇO,,5160-032,CABEÇA BOA,-7.121840784942514,41.20160006551792
pt.ine.add.PTCONT.852334,R DO CIMO DO POVO,4,5160-091,FELGUEIRAS TMC,-7.014787231440077,41.154437014371
pt.ine.add.PTCONT.852335,R DOS SAPATEIROS,58,5160-278,TORRE DE MONCORVO,-7.050976153221557,41.17636567568875
pt.ine.add.PTCONT.852336,R MISERICORDIA,97,5160-254,TORRE DE MONCORVO,-7.051664200771855,41.17728155703053
pt.ine.add.PTCONT.852337,R MISERICORDIA,99,5160-254,TORRE DE MONCORVO,-7.051664200771855,41.17728155703053
pt.ine.add.PTCONT.852338,R DA PRACINHA,4,5160-011,AÇOREIRA,-7.039607197170723,41.13980942728251
pt.ine.add.PTCONT.852339,,,5160-063,CARVIÇAIS,-6.832092846265771,41.1505553061959
pt.ine.add.PTCONT.852340,SIT DOS LAGARES,,5160-131,LOUSA TMC,-7.213668255520636,41.156880651963604
pt.ine.add.PTCONT.852341,R DO SACO,5,5160-152,MÓS TMC,-6.906268927564046,41.1596260851198
pt.ine.add.PTCONT.852342,R DO BURACO,24,5160-069,CARVIÇAIS,-6.892342726107447,41.18418409444722
pt.ine.add.PTCONT.852343,R DA BORRALHEIRA,,5160-134,LOUSA TMC,-7.175787790790673,41.167989376573765
pt.ine.add.PTCONT.852344,R DOS SAPATEIROS,79,5160-278,TORRE DE MONCORVO,-7.05112971904335,41.176448155810554
pt.ine.add.PTCONT.852345,TV DO CASTELO,15,5160-071,CASTEDO TMC,-7.168859417583081,41.23383409855104
pt.ine.add.PTCONT.852346,R DE S SEBASTIÃO,42,5160-228,TORRE DE MONCORVO,-7.057627553550001,41.17699524293782
pt.ine.add.PTCONT.852348,R DA PREGUIÇA,,5160-031,CABEÇA BOA,-7.122378137673077,41.186819980677136
pt.ine.add.PTCONT.852349,LG DA IGREJA,10,5160-134,LOUSA TMC,-7.176617338070498,41.168302411634734
pt.ine.add.PTCONT.852350,R DE STO ANTÓNIO,,5160-133,LOUSA TMC,-7.177377884633988,41.16762440588116
pt.ine.add.PTCONT.852351,R DE STO ANTÓNIO,,5160-133,LOUSA TMC,-7.177259004215912,41.16760541092594
pt.ine.add.PTCONT.852352,R DE S SEBASTIÃO,9,5160-228,TORRE DE MONCORVO,-7.05778819741186,41.176645581373215
pt.ine.add.PTCONT.852354,R DA PREGUIÇA,,5160-031,CABEÇA BOA,-7.122033776892091,41.186735920476266
pt.ine.add.PTCONT.852355,R DO FUNDO DO POVO,8,5160-071,CASTEDO TMC,-7.166281518142375,41.232622791565205
pt.ine.add.PTCONT.852356,R DA LAMEIRA DA AZENHA,4,5160-031,CABEÇA BOA,-7.1192568069798075,41.184406442844256
pt.ine.add.PTCONT.852357,R DE NSA SRA DA GUIA,,5160-035,CABEÇA BOA,-7.112211589862661,41.18065250000212
pt.ine.add.PTCONT.852358,R DIANTE,,5160-161,PEREDO DOS CASTELHANOS,-7.074565331212506,41.108648199588615
pt.ine.add.PTCONT.852359,R DIANTE,7,5160-161,PEREDO DOS CASTELHANOS,-7.0742694877729395,41.10853742979774
pt.ine.add.PTCONT.852362,R DO JOGO DA BOLA,8,5160-101,HORTA DA VILARIÇA,-7.124431510635033,41.23395653853015
pt.ine.add.PTCONT.852363,R DO CASTELO,6,5160-101,HORTA DA VILARIÇA,-7.1241386200261445,41.23361181709785
pt.ine.add.PTCONT.852364,R DE CABO VERDE,3,5160-401,URROS,-7.025632621515302,41.08405678826001
pt.ine.add.PTCONT.852366,R PRINCIPAL,6,5160-141,MAÇORES,-7.002098336902512,41.12748066770664
pt.ine.add.PTCONT.852413,R DA BARREIRA,,5160-022,ADEGANHA,-7.081794808574913,41.26938418952756
pt.ine.add.PTCONT.852415,R DA IGREJA,4,5160-101,HORTA DA VILARIÇA,-7.123591409508014,41.23351697969262
pt.ine.add.PTCONT.852416,R DO CABO,40,5160-269,TORRE DE MONCORVO,-7.053620519807688,41.17208651042296
pt.ine.add.PTCONT.852478,EN 325,,5160-314,TORRE DE MONCORVO,-7.056073993513438,41.180168190414314
pt.ine.add.PTCONT.852479,AV DOS COMBATENTES DA GRANDE GUERRA,,5160-217,TORRE DE MONCORVO,-7.05309775780982,41.17199156783583
pt.ine.add.PTCONT.852480,AV DOS COMBATENTES DA GRANDE GUERRA,,5160-217,TORRE DE MONCORVO,-7.05309775780982,41.17199156783583
pt.ine.add.PTCONT.852481,AV DOS COMBATENTES DA GRANDE GUERRA,,5160-217,TORRE DE MONCORVO,-7.05309775780982,41.17199156783583
pt.ine.add.PTCONT.852482,AV DOS COMBATENTES DA GRANDE GUERRA,,5160-217,TORRE DE MONCORVO,-7.05309775780982,41.17199156783583
pt.ine.add.PTCONT.852483,AV DOS COMBATENTES DA GRANDE GUERRA,,5160-217,TORRE DE MONCORVO,-7.05309775780982,41.17199156783583
pt.ine.add.PTCONT.852484,AV DOS COMBATENTES DA GRANDE GUERRA,,5160-217,TORRE DE MONCORVO,-7.05309775780982,41.17199156783583
pt.ine.add.PTCONT.852485,AV DOS COMBATENTES DA GRANDE GUERRA,,5160-217,TORRE DE MONCORVO,-7.05309775780982,41.17199156783583
pt.ine.add.PTCONT.852486,R DA BOAVISTA,95,5160-251,TORRE DE MONCORVO,-7.051664200771855,41.17728155703053
pt.ine.add.PTCONT.853108,R MANUEL SENDAS,,5160-041,CARDANHA,-7.0332114588965515,41.255145119315635
pt.ine.add.PTCONT.853109,LG DO CRUZEIRO,1,5160-101,HORTA DA VILARIÇA,-7.121530309322046,41.23258947735679
pt.ine.add.PTCONT.853110,R TRINDADE COELHO,6,5160-295,TORRE DE MONCORVO,-7.047230309942901,41.17226954896254
pt.ine.add.PTCONT.853111,R TRINDADE COELHO,6,5160-295,TORRE DE MONCORVO,-7.047230309942901,41.17226954896254
pt.ine.add.PTCONT.853112,EN 215,,5160-022,ADEGANHA,-7.080793347060921,41.28046797309871
pt.ine.add.PTCONT.853113,,,5160-062,CARVIÇAIS,-6.816080368326233,41.17327964151616
pt.ine.add.PTCONT.853114,R DO JOGO DA BOLA,12,5160-101,HORTA DA VILARIÇA,-7.121098418406868,41.228885002380395
pt.ine.add.PTCONT.853117,BR DA SENHORA DA CONCEIÇÃO,19,5160-041,CARDANHA,-7.039313522574189,41.25197981692557
pt.ine.add.PTCONT.853118,,,5160-064,CARVIÇAIS,-6.8256202214262105,41.171146339508795
pt.ine.add.PTCONT.853119,R DE ALÉM,17,5160-011,AÇOREIRA,-7.038911469531375,41.13938862748049
pt.ine.add.PTCONT.853120,R DA PRACINHA,11,5160-011,AÇOREIRA,-7.039954641414341,41.13968666648257
pt.ine.add.PTCONT.853121,R DO CIPRESTE,41,5160-084,FELGAR,-6.954355346169507,41.209398651648385
pt.ine.add.PTCONT.853122,R DO REMADEIRO,1,5160-091,FELGUEIRAS TMC,-7.013191170912848,41.15371918169635
pt.ine.add.PTCONT.853123,R DO CARRASCAL,27,5160-152,MÓS TMC,-6.906096947853141,41.16054267168702
pt.ine.add.PTCONT.853124,R DA MISERICÓRDIA,9,5160-254,TORRE DE MONCORVO,-7.052322805908807,41.17563998155375
pt.ine.add.PTCONT.853125,AV DO SANTUÁRIO,4,5160-082,FELGAR,-6.957236503468834,41.20963520320053
pt.ine.add.PTCONT.853126,R DA IGREJA,23,5160-134,LOUSA TMC,-7.176154775220154,41.1681545019923
pt.ine.add.PTCONT.853127,R DA FONTE DO PRADO,41,5160-069,CARVIÇAIS,-6.892997234854269,41.18360588047701
pt.ine.add.PTCONT.853128,R DA PORTELA,,5160-071,CASTEDO TMC,-7.169750053444418,41.23440766408938
pt.ine.add.PTCONT.853130,R DA FONTE DO PRADO,50,5160-069,CARVIÇAIS,-6.892672445466883,41.183764455577275
pt.ine.add.PTCONT.853131,R DE S SEBASTIÃO,5,5160-228,TORRE DE MONCORVO,-7.057476040233785,41.17678673261517
pt.ine.add.PTCONT.853134,R DE S LUIS,3,5160-031,CABEÇA BOA,-7.123481647407944,41.1879191629878
pt.ine.add.PTCONT.853138,R DA BARREIRA,7,5160-071,CASTEDO TMC,-7.165802507566936,41.23194346077441
pt.ine.add.PTCONT.853139,R DO CURVATO,17,5160-071,CASTEDO TMC,-7.1690000694058105,41.231060865085254
pt.ine.add.PTCONT.853140,R DO CURVATO,,5160-071,CASTEDO TMC,-7.168588228116248,41.23067924351344
pt.ine.add.PTCONT.853141,R DIANTE,,5160-161,PEREDO DOS CASTELHANOS,-7.0754406753629695,41.10899840103507
pt.ine.add.PTCONT.853144,R DA PREGUIÇA,6,5160-031,CABEÇA BOA,-7.1202362102864,41.18504535186856
pt.ine.add.PTCONT.853145,R DA CAPELA,,5160-035,CABEÇA BOA,-7.111638346626736,41.1807284544371
pt.ine.add.PTCONT.853146,BR DA VISTA ALEGRE,11,5160-102,HORTA DA VILARIÇA,-7.1467839590925575,41.24427077866225
pt.ine.add.PTCONT.853147,R DOS GODEIROS,28,5160-102,HORTA DA VILARIÇA,-7.147114677227426,41.24369735051263
pt.ine.add.PTCONT.853148,BR JOSÉ LEANDRO,4,5160-232,TORRE DE MONCORVO,-7.042284703914793,41.17587849430789
pt.ine.add.PTCONT.853149,BR JOSÉ LEANDRO,5,5160-232,TORRE DE MONCORVO,-7.04197177098118,41.17606461679279
pt.ine.add.PTCONT.853150,R DO FUNDO DO POVO,3,5160-101,HORTA DA VILARIÇA,-7.121118552523636,41.234539744944826
pt.ine.add.PTCONT.853152,BR DO SANTO,41,5160-134,LOUSA TMC,-7.175586108041885,41.171202199301334
pt.ine.add.PTCONT.853153,R DA FONTE DA PEREIRA,18,5160-141,MAÇORES,-7.004228636775589,41.12755558967694
pt.ine.add.PTCONT.853154,R DA IGREJA,28,5160-069,CARVIÇAIS,-6.894290451944631,41.18075650650788
pt.ine.add.PTCONT.853155,LG DO OLMO,2,5160-076,FELGAR,-6.959419559858619,41.21290793841698
pt.ine.add.PTCONT.853156,R DAS LAGES,,5160-133,LOUSA TMC,-7.178363517459296,41.16867706812184
pt.ine.add.PTCONT.853194,R DOS FORNOS,,5160-114,LARINHO,-7.014991619582248,41.206176681716286
pt.ine.add.PTCONT.853203,R DO PINHAL DO REI VELHO,,5160-114,LARINHO,-7.016350162681677,41.198500373337794
pt.ine.add.PTCONT.853211,R DR RAMIRO SALGADO,3 A,5160-284,TORRE DE MONCORVO,-7.0499530622760425,41.17191701432142
pt.ine.add.PTCONT.853212,R DR RAMIRO SALGADO,3 A,5160-284,TORRE DE MONCORVO,-7.0499530622760425,41.17191701432142
pt.ine.add.PTCONT.853213,,,5160-064,CARVIÇAIS,-6.828724851777929,41.17082138367017
pt.ine.add.PTCONT.853214,R AFONSO EMÍLIO PRAÇA,16,5160-224,TORRE DE MONCORVO,-7.050187804908064,41.1743053207459
pt.ine.add.PTCONT.853215,R DR RAMIRO SALGADO,3 A,5160-284,TORRE DE MONCORVO,-7.0499530622760425,41.17191701432142
pt.ine.add.PTCONT.853670,R PRINCIPAL,81,5160-011,AÇOREIRA,-7.0819946838791035,41.14591269415844
pt.ine.add.PTCONT.853829,R GEN ALÍPIO TOMÉ PINTO,5,5160-141,MAÇORES,-7.000773656515719,41.12695441446624
pt.ine.add.PTCONT.853830,R ARMANDO MARTINS JANEIRA,19,5160-279,TORRE DE MONCORVO,-7.058983253478837,41.17133528144626
pt.ine.add.PTCONT.853831,R ARMANDO MARTINS JANEIRA,19,5160-279,TORRE DE MONCORVO,-7.058983253478837,41.17133528144626
pt.ine.add.PTCONT.853833,R DAS AMOREIRAS,5,5160-074,FELGAR,-6.957349566283444,41.211977411090565
pt.ine.add.PTCONT.853834,QTA DO CORISCO,,5160-091,FELGUEIRAS TMC,-6.962957841401136,41.16220591052105
pt.ine.add.PTCONT.853835,R DO CABEÇO,,5160-133,LOUSA TMC,-7.179454283738162,41.16576874269275
pt.ine.add.PTCONT.853836,R DE STA BÁRBARA,20,5160-133,LOUSA TMC,-7.181156424145328,41.164243104235695
pt.ine.add.PTCONT.853837,EN 212,,5160-022,ADEGANHA,-7.086018818299867,41.256727012819546
pt.ine.add.PTCONT.853838,R DA CALÇADA,10,5160-074,FELGAR,-6.9561914348966685,41.21139832434941
pt.ine.add.PTCONT.853839,R DO CANTO,,5160-091,FELGUEIRAS TMC,-7.011854216122477,41.15387725320873
pt.ine.add.PTCONT.853840,R PRINCIPAL,,5160-032,CABEÇA BOA,-7.122369019562935,41.20213594690096
pt.ine.add.PTCONT.853841,R DO CIMO DO POVO,2,5160-091,FELGUEIRAS TMC,-7.013578721944793,41.15404709915934
pt.ine.add.PTCONT.853842,R DO CABEÇO,79,5160-133,LOUSA TMC,-7.179690696605143,41.16507737598222
pt.ine.add.PTCONT.853843,R DA PRACINHA,10,5160-011,AÇOREIRA,-7.039881544980838,41.13978501887113
pt.ine.add.PTCONT.853844,R DO CIMO DO LUGAR,6,5160-072,FELGAR,-6.957472983153409,41.210411966403704
pt.ine.add.PTCONT.853845,R DO CIMO DO POVO,4,5160-091,FELGUEIRAS TMC,-7.013628510919718,41.15392152484959
pt.ine.add.PTCONT.853846,R DR RAMIRO SALGADO,8,5160-284,TORRE DE MONCORVO,-7.049623609406064,41.17166179919991
pt.ine.add.PTCONT.853847,R DR RAMIRO SALGADO,8,5160-284,TORRE DE MONCORVO,-7.049623609406064,41.17166179919991
pt.ine.add.PTCONT.853848,R DA BARREIRA,,5160-033,CABEÇA BOA,-7.151030036013155,41.19012029160031
pt.ine.add.PTCONT.853849,R DA FONTE DO PRADO,32,5160-069,CARVIÇAIS,-6.892947676696568,41.18307410701811
pt.ine.add.PTCONT.853850,R DO FORNO,4,5160-091,FELGUEIRAS TMC,-7.012751074374219,41.15367888496832
pt.ine.add.PTCONT.853851,R DE BAIXO,3,5160-152,MÓS TMC,-6.9075985046659225,41.15924405983278
pt.ine.add.PTCONT.853852,R DO FUNDO DO POVO,,5160-071,CASTEDO TMC,-7.166969114898269,41.23290769036351
pt.ine.add.PTCONT.853853,R ABÍLIO COSTA,17,5160-134,LOUSA TMC,-7.1762974795782775,41.16899307834273
pt.ine.add.PTCONT.853854,R DO POÇO,63,5160-274,TORRE DE MONCORVO,-7.051518185957072,41.17673993732163
pt.ine.add.PTCONT.853856,R DA BARBEIRINHA,62,5160-069,CARVIÇAIS,-6.892337627675965,41.184454161377914
pt.ine.add.PTCONT.853857,R DA MISERICÓRDIA,32,5160-254,TORRE DE MONCORVO,-7.051992657311532,41.1761501189643
pt.ine.add.PTCONT.853859,QTA DO CAMPO,,5160-011,AÇOREIRA,-7.127193256118553,41.138527634616
pt.ine.add.PTCONT.853860,R DA CAPELA,,5160-022,ADEGANHA,-7.060099537001356,41.29847397166273
pt.ine.add.PTCONT.853861,R DO VALE REDONDO,34,5160-069,CARVIÇAIS,-6.887101909979228,41.183380171087904
pt.ine.add.PTCONT.853862,R DA FONTE,12,5160-091,FELGUEIRAS TMC,-7.012740282091079,41.152913426263595
pt.ine.add.PTCONT.853863,R DA IGREJA,12,5160-102,HORTA DA VILARIÇA,-7.147052754129391,41.244642248155834
pt.ine.add.PTCONT.853864,TV DO PELOURINHO,4,5160-132,LOUSA TMC,-7.177317782502032,41.1668405413901
pt.ine.add.PTCONT.853865,R DA CAPITÔA,17,5160-252,TORRE DE MONCORVO,-7.043372569069742,41.175672693763424
pt.ine.add.PTCONT.853866,BR DE STO CRISTO,11,5160-264,TORRE DE MONCORVO,-7.056525021814882,41.17227577271124
pt.ine.add.PTCONT.853867,R DO CAMPO,12,5160-022,ADEGANHA,-7.082170961263013,41.27048611365055
pt.ine.add.PTCONT.853868,BR DE STO CRISTO,11,5160-264,TORRE DE MONCORVO,-7.056525021814882,41.17227577271124
pt.ine.add.PTCONT.853869,BR DE STO CRISTO,11,5160-264,TORRE DE MONCORVO,-7.056525021814882,41.17227577271124
pt.ine.add.PTCONT.853870,BR DE STO CRISTO,11,5160-264,TORRE DE MONCORVO,-7.056525021814882,41.17227577271124
pt.ine.add.PTCONT.853871,BR DE STO CRISTO,11,5160-264,TORRE DE MONCORVO,-7.056525021814882,41.17227577271124
pt.ine.add.PTCONT.853872,BR DE STO CRISTO,11,5160-264,TORRE DE MONCORVO,-7.056525021814882,41.17227577271124
pt.ine.add.PTCONT.853873,BR DA ROMANZEIRA,4,5160-257,TORRE DE MONCORVO,-7.0550612144299105,41.17361270226135
pt.ine.add.PTCONT.853874,LG DO OLMO,9,5160-101,HORTA DA VILARIÇA,-7.122724975840837,41.23401360829487
pt.ine.add.PTCONT.853875,R DO FUNDO DO POVO,13,5160-101,HORTA DA VILARIÇA,-7.121954632037972,41.23446605380469
pt.ine.add.PTCONT.853876,R DIREITA,40,5160-132,LOUSA TMC,-7.17826694750857,41.165479774965995
pt.ine.add.PTCONT.853877,R DA FONTE DE CIMA,4,5160-161,PEREDO DOS CASTELHANOS,-7.074331810066957,41.106881219570745
pt.ine.add.PTCONT.853878,R DR MÁRIO LUIS DE SOUSA,15,5160-283,TORRE DE MONCORVO,-7.046841374310975,41.17561542285138
pt.ine.add.PTCONT.853879,LG DO CIMO DO POVO,5,5160-401,URROS,-7.025693238345221,41.08540801146329
pt.ine.add.PTCONT.853882,R DO POÇO,9,5160-101,HORTA DA VILARIÇA,-7.124149873860256,41.23443128726525
pt.ine.add.PTCONT.853883,R VASCO DA GAMA,39,5160-297,TORRE DE MONCORVO,-7.050138461731889,41.17368357072005
pt.ine.add.PTCONT.853884,R DO FIO,25,5160-401,URROS,-7.026160463860024,41.08522341173014
pt.ine.add.PTCONT.853887,R DIREITA,,5160-069,CARVIÇAIS,-6.8914540641447495,41.18075297164327
pt.ine.add.PTCONT.853888,R DA FONTE DA PEREIRA,22,5160-141,MAÇORES,-7.00452691152952,41.12752249561733
pt.ine.add.PTCONT.853890,R DE TRÁS,,5160-021,ADEGANHA,-7.0681297732658255,41.23489018407865
pt.ine.add.PTCONT.853891,BR FERROMINAS,18,5160-081,FELGAR,-6.965216771356941,41.18394675608563
pt.ine.add.PTCONT.853892,EN 220,28,5160-081,FELGAR,-6.982168422218129,41.18306394268257
pt.ine.add.PTCONT.853893,R DA FONTE DA PEREIRA,14,5160-141,MAÇORES,-7.002161887861676,41.12724718256926
pt.ine.add.PTCONT.853894,R ARMANDO MARTINS JANEIRA,19,5160-279,TORRE DE MONCORVO,-7.058983253478837,41.17133528144626
pt.ine.add.PTCONT.853895,R ARMANDO MARTINS JANEIRA,19,5160-279,TORRE DE MONCORVO,-7.058983253478837,41.17133528144626
pt.ine.add.PTCONT.853896,R ARMANDO MARTINS JANEIRA,27,5160-279,TORRE DE MONCORVO,-7.058983253478837,41.17133528144626
pt.ine.add.PTCONT.853909,R DO CABO DOS TAPADOS,40,5160-069,CARVIÇAIS,-6.879118400933456,41.18453607284417
pt.ine.add.PTCONT.853910,R F,5,5160-079,FELGAR,-6.958151030343615,41.207168423483516
pt.ine.add.PTCONT.853922,R 1 DE DEZEMBRO,6,5160-246,TORRE DE MONCORVO,-7.051594874230125,41.1749758454358
pt.ine.add.PTCONT.853924,BR DE STO CRISTO,11,5160-264,TORRE DE MONCORVO,-7.056525021814882,41.17227577271124
pt.ine.add.PTCONT.853931,R NOVA,1,5160-141,MAÇORES,-7.000890242033083,41.12709962758569
pt.ine.add.PTCONT.853936,LG DA PRACINHA,1,5160-171,SOUTO DA VELHA,-6.93614530343993,41.20762608329138
pt.ine.add.PTCONT.853989,R DA FONTE DO PRADO,,5160-069,CARVIÇAIS,-6.894017354254678,41.18259940206925
pt.ine.add.PTCONT.854062,R DO CABEÇO,,5160-133,LOUSA TMC,-7.1792770117113,41.165668228459886
pt.ine.add.PTCONT.854063,LG DO SANTO,,5160-134,LOUSA TMC,-7.175577616450878,41.17014863753398
pt.ine.add.PTCONT.854064,R DO LAVADOURO,8,5160-141,MAÇORES,-7.002211519584684,41.12643729211927
pt.ine.add.PTCONT.854065,R DA FONTE DA PEREIRA,33,5160-141,MAÇORES,-7.004722348282619,41.12723627592939
pt.ine.add.PTCONT.854109,R DA BACORINHA,18,5160-152,MÓS TMC,-6.906160002503851,41.162272131167
pt.ine.add.PTCONT.854110,R DA FONTE,20,5160-152,MÓS TMC,-6.9058867459229045,41.15967603799957
pt.ine.add.PTCONT.854111,R DIREITA,3,5160-171,SOUTO DA VELHA,-6.936691731370923,41.20708251526837
pt.ine.add.PTCONT.854112,R DA CARRASQUEIRA,5,5160-171,SOUTO DA VELHA,-6.9363796125782144,41.207853619890436
pt.ine.add.PTCONT.854113,R DIREITA,,5160-171,SOUTO DA VELHA,-6.938480157289232,41.20642578001789
pt.ine.add.PTCONT.854152,,,5160-313,TORRE DE MONCORVO,-7.059059333580621,41.18199689870849
pt.ine.add.PTCONT.854153,R DR MÁRIO LUIS DE SOUSA,26,5160-283,TORRE DE MONCORVO,-7.046394560699164,41.1759713732297
pt.ine.add.PTCONT.854154,QTA DO MARMELEIRO,,5160-200,TORRE DE MONCORVO,-7.034262881751173,41.18667021708498
pt.ine.add.PTCONT.854155,BR DO CARRASCAL,9,5160-228,TORRE DE MONCORVO,-7.058218322448861,41.17730689922135
pt.ine.add.PTCONT.854156,TV DO CARRASCAL,10,5160-228,TORRE DE MONCORVO,-7.061031538845183,41.17653175277883
pt.ine.add.PTCONT.854157,TV DE S SEBASTIÃO,27,5160-228,TORRE DE MONCORVO,-7.058058129777245,41.176900217488985
pt.ine.add.PTCONT.854209,LG DA CORREDOURA,4,5160-235,TORRE DE MONCORVO,-7.057133458577999,41.17587411383076
pt.ine.add.PTCONT.854210,BR DE S PAULO,4,5160-226,TORRE DE MONCORVO,-7.059746556400904,41.17421472209234
pt.ine.add.PTCONT.854247,R D FR BARTOLOMEU DOS MÁRTIRES,9,5160-277,TORRE DE MONCORVO,-7.056956706977957,41.173567400677825
pt.ine.add.PTCONT.854248,LG DO POÇO,58,5160-274,TORRE DE MONCORVO,-7.051376682472061,41.17664856687621
pt.ine.add.PTCONT.854249,R DOS SAPATEIROS,33,5160-278,TORRE DE MONCORVO,-7.05137062689921,41.17556801285972
pt.ine.add.PTCONT.854250,R DA MISERICÓRDIA,88,5160-254,TORRE DE MONCORVO,-7.0516361551933855,41.17681307831218
pt.ine.add.PTCONT.854289,R PROF JOSINO AMADO,16,5160-401,URROS,-7.023746483508049,41.08228280973798
pt.ine.add.PTCONT.854430,R DO FRADE,6,5160-011,AÇOREIRA,-7.0822078912227155,41.14673402181549
pt.ine.add.PTCONT.854431,R DO CIMO DO POVO,42,5160-011,AÇOREIRA,-7.0400207116974585,41.14001144444551
pt.ine.add.PTCONT.854432,R DA GRICHA,6,5160-011,AÇOREIRA,-7.039934809260122,41.14016370048972
pt.ine.add.PTCONT.854433,R DO CIMO DO POVO,11,5160-011,AÇOREIRA,-7.039255413420683,41.14019326739775
pt.ine.add.PTCONT.854460,LG DA CAPELA,,5160-021,ADEGANHA,-7.067898122658045,41.23446485028851
pt.ine.add.PTCONT.854461,EN 102,,5160-002,,-7.092698129882379,41.232818774812806
pt.ine.add.PTCONT.854462,R DO ALTO,4,5160-031,CABEÇA BOA,-7.123538860951089,41.18729837798809
pt.ine.add.PTCONT.854493,R DE BAIXO,,5160-041,CARDANHA,-7.034657815872438,41.25569916962075
pt.ine.add.PTCONT.854494,R MANUEL SENDAS,,5160-041,CARDANHA,-7.035217736688637,41.25503821347081
pt.ine.add.PTCONT.854495,BR DO REBENTÃO,,5160-069,CARVIÇAIS,-6.876359458367921,41.18546042634704
pt.ine.add.PTCONT.854496,BR NOVO RUA A,1,5160-069,CARVIÇAIS,-6.8949779552746335,41.18285284376041
pt.ine.add.PTCONT.854497,BR DO LOUREIRO,5,5160-069,CARVIÇAIS,-6.9016193093141895,41.18269895513934
pt.ine.add.PTCONT.854531,R DO ESCORADAL,12,5160-075,FELGAR,-6.956508131703237,41.212355990148005
pt.ine.add.PTCONT.854532,R DAS POÇAS,13,5160-075,FELGAR,-6.958581501822858,41.2124311823541
pt.ine.add.PTCONT.854578,R DIREITA,33,5160-076,FELGAR,-6.958522373124488,41.2117372673563
pt.ine.add.PTCONT.854579,R D,3,5160-082,FELGAR,-6.9570443267698465,41.20904797706436
pt.ine.add.PTCONT.854580,R DA ESCOLA,2,5160-078,FELGAR,-6.958893511039796,41.208985812577865
pt.ine.add.PTCONT.854581,R I,6,5160-079,FELGAR,-6.958356420829948,41.20768375032862
pt.ine.add.PTCONT.854582,R DOS CORREIOS,1,5160-089,FELGAR,-6.960270635395976,41.20731608905134
pt.ine.add.PTCONT.854583,R G,2,5160-079,FELGAR,-6.958880114514276,41.207067811997035
pt.ine.add.PTCONT.854615,R DO CIMO DO POVO,4,5160-091,FELGUEIRAS TMC,-7.013071753675005,41.15373602881237
pt.ine.add.PTCONT.854616,R DO ESPÍRITO SANTO,,5160-091,FELGUEIRAS TMC,-7.012511013180594,41.1537845995138
pt.ine.add.PTCONT.854662,R DA IGREJA,26,5160-101,HORTA DA VILARIÇA,-7.121765641491426,41.232024287347315
pt.ine.add.PTCONT.854663,R DAS LAGES,3,5160-133,LOUSA TMC,-7.177365193507322,41.16849770822462
pt.ine.add.PTCONT.854719,BR DO REBENTÃO,,5160-069,CARVIÇAIS,-6.876359458367921,41.18546042634704
pt.ine.add.PTCONT.854750,R DA FRÁGUA,19,5160-401,URROS,-7.025504005250969,41.083920487823605
pt.ine.add.PTCONT.854753,BR DO LOUREIRO,,5160-069,CARVIÇAIS,-6.900106429730445,41.183295043333764
pt.ine.add.PTCONT.854761,R DO CABO DO LUGAR,9,5160-085,FELGAR,-6.9598502021375905,41.21349759039076
pt.ine.add.PTCONT.854771,R DA FONTE DA PEREIRA,29,5160-141,MAÇORES,-7.004340885435974,41.12725955116683
pt.ine.add.PTCONT.854799,R DO CALVÁRIO,6,5160-161,PEREDO DOS CASTELHANOS,-7.075578229708769,41.106361416798
pt.ine.add.PTCONT.854800,R DO CALVÁRIO,6,5160-161,PEREDO DOS CASTELHANOS,-7.075578229708769,41.106361416798
pt.ine.add.PTCONT.854801,,,5160-066,CARVIÇAIS,-6.819926547931342,41.17819474963346
pt.ine.add.PTCONT.854802,,,5160-062,CARVIÇAIS,-6.813094661694247,41.17538841853431
pt.ine.add.PTCONT.854803,R DO FUNDO DO POVO,6,5160-101,HORTA DA VILARIÇA,-7.122583111008868,41.23393132654272
pt.ine.add.PTCONT.855254,R PRINCIPAL,13,5160-011,AÇOREIRA,-7.075263052764416,41.14971386710211
pt.ine.add.PTCONT.855299,R SANSADORNA,15,5160-011,AÇOREIRA,-7.08244348687903,41.14764559518537
pt.ine.add.PTCONT.855401,R DA ESCOLA,,5160-021,ADEGANHA,-7.068334414892299,41.234775023988576
pt.ine.add.PTCONT.855402,R DIREITA,90,5160-069,CARVIÇAIS,-6.89184982387307,41.180622177045066
pt.ine.add.PTCONT.855403,R DO AMIEIRAL,1,5160-171,SOUTO DA VELHA,-6.937905852515379,41.20653687295262
pt.ine.add.PTCONT.855404,QTA DO CORISCO,,5160-091,FELGUEIRAS TMC,-6.96469121450319,41.16322296675052
pt.ine.add.PTCONT.855405,,,5160-091,FELGUEIRAS TMC,-7.008099685728502,41.15677599652237
pt.ine.add.PTCONT.855406,R DE S TOMÉ,12,5160-141,MAÇORES,-7.000599116578639,41.12533194308407
pt.ine.add.PTCONT.855409,TV COR GOMES,5,5160-076,FELGAR,-6.958362882827049,41.21132145396889
pt.ine.add.PTCONT.855410,R DOS SAPATEIROS,94,5160-278,TORRE DE MONCORVO,-7.051132300269388,41.177015440992776
pt.ine.add.PTCONT.855412,R DO CARRASCAL,52,5160-152,MÓS TMC,-6.906414714245742,41.160113859669906
pt.ine.add.PTCONT.855413,R DO CIPRESTE,2,5160-084,FELGAR,-6.957293037989036,41.210473157394134
pt.ine.add.PTCONT.855414,R DO CRUZEIRO,,5160-134,LOUSA TMC,-7.174587643512825,41.1743003410026
pt.ine.add.PTCONT.855415,R TOMÁS RIBEIRO,72,5160-294,TORRE DE MONCORVO,-7.052303418310531,41.176819342342085
pt.ine.add.PTCONT.855416,LG DA LAMEIRA,,5160-114,LARINHO,-7.011269317736349,41.20492492650422
pt.ine.add.PTCONT.855417,R DA LAMEIRA,,5160-114,LARINHO,-7.011672303828481,41.205063913091415
pt.ine.add.PTCONT.855418,R DA IGREJA,27,5160-134,LOUSA TMC,-7.176120735410985,41.16803716452966
pt.ine.add.PTCONT.855420,LG DAS EIRAS,12,5160-011,AÇOREIRA,-7.042192774460212,41.138312235214144
pt.ine.add.PTCONT.855421,BR DO POMBAL,27,5160-082,FELGAR,-6.957244732572653,41.20850978049667
pt.ine.add.PTCONT.855422,R DE STO ANTÓNIO,7,5160-133,LOUSA TMC,-7.177500689615118,41.16737330717005
pt.ine.add.PTCONT.855423,R DE S SEBASTIÃO,63,5160-228,TORRE DE MONCORVO,-7.057289665600722,41.17652387157222
pt.ine.add.PTCONT.855425,R DO FUNDO DO POVO,29,5160-071,CASTEDO TMC,-7.1659714430357395,41.232620187450436
pt.ine.add.PTCONT.855426,R DAS FRAGAS,,5160-091,FELGUEIRAS TMC,-7.014561583418,41.15299415734387
pt.ine.add.PTCONT.855427,R DA ODREIRA,,5160-152,MÓS TMC,-6.8664221827179075,41.14323946609537
pt.ine.add.PTCONT.855428,LG DA CORREDOURA,20,5160-235,TORRE DE MONCORVO,-7.057148762492553,41.175667161460964
pt.ine.add.PTCONT.855429,R DO ALTO,,5160-031,CABEÇA BOA,-7.123424111148808,41.18700923905183
pt.ine.add.PTCONT.855430,R DO PINHAL DO REI VELHO,,5160-114,LARINHO,-7.0159532855156685,41.1994059372356
pt.ine.add.PTCONT.855431,LG DO FERREIRO,6,5160-239,TORRE DE MONCORVO,-7.056846018555176,41.17596146944224
pt.ine.add.PTCONT.855436,R DE S PAULO DE LUANDA,1,5160-069,CARVIÇAIS,-6.89546098034837,41.18188559682246
pt.ine.add.PTCONT.855437,BR DE STA LUZIA,,5160-114,LARINHO,-7.016967415968135,41.19514782940698
pt.ine.add.PTCONT.855439,R DA TRAVESSA,7,5160-041,CARDANHA,-7.034180034041955,41.25644194316522
pt.ine.add.PTCONT.855440,R DO CAMPO DA BOLA,21,5160-081,FELGAR,-6.980630825593864,41.18511050464515
pt.ine.add.PTCONT.855441,LG DE RIALTO,3,5160-401,URROS,-7.026580545019502,41.08501134450862
pt.ine.add.PTCONT.855443,R DO BAIRRO DO RIBEIRINHO,27,5160-022,ADEGANHA,-7.0812597713851195,41.26702925418304
pt.ine.add.PTCONT.855444,R DE NSA SRA DE FÁTIMA,16,5160-081,FELGAR,-6.982904023070889,41.1839356859861
pt.ine.add.PTCONT.855445,R DA FRÁGUA,5,5160-401,URROS,-7.025435637876428,41.0837397451298
pt.ine.add.PTCONT.855446,R INF D HENRIQUE,38,5160-286,TORRE DE MONCORVO,-7.051558481229425,41.172841521016494
pt.ine.add.PTCONT.855447,LG DO ROSSIO,9,5160-401,URROS,-7.024103008568111,41.083726925576535
pt.ine.add.PTCONT.855504,R DOS CORREIOS,,5160-089,FELGAR,-6.960510493445954,41.20723749535558
pt.ine.add.PTCONT.855541,BR DO PRADO DE BAIXO,,5160-230,TORRE DE MONCORVO,-7.054583799068323,41.17946992973337
pt.ine.add.PTCONT.855542,R DE S SEBASTIÃO,,5160-071,CASTEDO TMC,-7.171550191886816,41.231479946120935
pt.ine.add.PTCONT.855543,R DO CALVÁRIO,10,5160-161,PEREDO DOS CASTELHANOS,-7.0758865461670055,41.10643628067821
pt.ine.add.PTCONT.855582,R DE STO APOLINÁRIO,20,5160-401,URROS,-7.025878228747449,41.08218626008283
pt.ine.add.PTCONT.855583,TV DAS QUATRO ESQUINAS,3,5160-401,URROS,-7.024387720264454,41.08307235388224
pt.ine.add.PTCONT.855718,R DA ROMANZEIRA,19,5160-011,AÇOREIRA,-7.038855691039552,41.140594659378934
pt.ine.add.PTCONT.855719,R DO CIMO DO POVO,23,5160-011,AÇOREIRA,-7.039713029373307,41.13989146967801
pt.ine.add.PTCONT.855720,R DA FRÁGUA,,5160-041,CARDANHA,-7.033367599612317,41.25650621724504
pt.ine.add.PTCONT.855721,R DA TRAVESSA,32,5160-041,CARDANHA,-7.033162376146298,41.256648320855504
pt.ine.add.PTCONT.855722,R DA FONTE DO PRADO,19,5160-069,CARVIÇAIS,-6.893269744989688,41.1830595668459
pt.ine.add.PTCONT.855723,EN 220,7,5160-069,CARVIÇAIS,-6.89894661191276,41.18285942818005
pt.ine.add.PTCONT.855724,R DIREITA,,5160-069,CARVIÇAIS,-6.892444235984384,41.18070061497165
pt.ine.add.PTCONT.855725,BR FERROMINAS,14,5160-081,FELGAR,-6.965097845486414,41.1846028488462
pt.ine.add.PTCONT.855726,R DA CARREIRA,11,5160-091,FELGUEIRAS TMC,-7.012657885357036,41.15425424472591
pt.ine.add.PTCONT.855727,R DAS ROSEIRINHAS,16,5160-101,HORTA DA VILARIÇA,-7.123093428870437,41.23332352663405
pt.ine.add.PTCONT.855728,R DA IGREJA,30,5160-101,HORTA DA VILARIÇA,-7.12166621148327,41.23228453240569
pt.ine.add.PTCONT.855729,R DO CRUZEIRO,,5160-134,LOUSA TMC,-7.17494460456152,41.173519946525595
pt.ine.add.PTCONT.855730,R DO CABEÇO,31,5160-133,LOUSA TMC,-7.1785434946359175,41.1669497528639
pt.ine.add.PTCONT.855731,R DO CABO DA ALDEIA,27,5160-133,LOUSA TMC,-7.179243718713428,41.164677489887126
pt.ine.add.PTCONT.855732,R DO PELOURINHO,37,5160-133,LOUSA TMC,-7.177590628916505,41.16692384316177
pt.ine.add.PTCONT.855733,R DIREITA,26,5160-132,LOUSA TMC,-7.177428802987563,41.16658034071844
pt.ine.add.PTCONT.855734,R DO CARRASCAL,2,5160-152,MÓS TMC,-6.906139368792627,41.16210083341689
pt.ine.add.PTCONT.855735,R DOS QUEBRACUS,1,5160-152,MÓS TMC,-6.906737003570448,41.160081275524476
pt.ine.add.PTCONT.855736,R DE CIMA,20,5160-152,MÓS TMC,-6.907598835800413,41.15858676353738
pt.ine.add.PTCONT.855737,R DA PORTELA,18,5160-152,MÓS TMC,-6.905898694197958,41.157758290603326
pt.ine.add.PTCONT.855738,R DO CASTELO,,5160-161,PEREDO DOS CASTELHANOS,-7.073532650724999,41.10845862108385
pt.ine.add.PTCONT.855739,R DA CANADA,,5160-161,PEREDO DOS CASTELHANOS,-7.0740977802687395,41.10885100038155
pt.ine.add.PTCONT.855740,AV JORGE LUIS BORGES,13,5160-220,TORRE DE MONCORVO,-7.04567174559761,41.17428077589835
pt.ine.add.PTCONT.855741,TV DO PRADO DE CIMA,34,5160-231,TORRE DE MONCORVO,-7.053306617583745,41.17741402197831
pt.ine.add.PTCONT.855742,R DE S SEBASTIÃO,13,5160-228,TORRE DE MONCORVO,-7.057918530709286,41.17669181895803
pt.ine.add.PTCONT.855743,R DE BAIXO,13,5160-235,TORRE DE MONCORVO,-7.056733917171649,41.17625755855483
pt.ine.add.PTCONT.855744,R MANUEL SEIXAS,26,5160-290,TORRE DE MONCORVO,-7.05178944289919,41.1740142288714
pt.ine.add.PTCONT.855745,R ABADE TAVARES,37,5160-247,TORRE DE MONCORVO,-7.047691883164271,41.17318331882402
pt.ine.add.PTCONT.855746,R ABADE TAVARES,37,5160-247,TORRE DE MONCORVO,-7.047691883164271,41.17318331882402
pt.ine.add.PTCONT.855747,R DA ALEGRIA,2,5160-250,TORRE DE MONCORVO,-7.057500224383226,41.173851606743206
pt.ine.add.PTCONT.856176,R DO FORNO,,5160-032,CABEÇA BOA,-7.121328905302637,41.20232490373423
pt.ine.add.PTCONT.856177,R DA CAPELA,,5160-033,CABEÇA BOA,-7.148501395676514,41.18864002611995
pt.ine.add.PTCONT.856178,R DE S LUIS,,5160-031,CABEÇA BOA,-7.124396165769812,41.188908629558135
pt.ine.add.PTCONT.856179,R DA LAMEIRA DA AZENHA,3,5160-031,CABEÇA BOA,-7.118649315675219,41.18438308484075
pt.ine.add.PTCONT.856180,R DE NSA SRA DA GUIA,,5160-035,CABEÇA BOA,-7.111992620650333,41.1809386918174
pt.ine.add.PTCONT.856181,R DA FONTE DO SOUTO,10,5160-071,CASTEDO TMC,-7.166583484623258,41.234795314573375
pt.ine.add.PTCONT.856182,R DO CIMO DO LUGAR,14,5160-071,CASTEDO TMC,-7.1699740449268825,41.23214950874445
pt.ine.add.PTCONT.856183,R DA CALÇADA,,5160-074,FELGAR,-6.95605497528553,41.21169406313606
pt.ine.add.PTCONT.856184,R DO CRUZEIRO,4,5160-081,FELGAR,-6.95954672993135,41.208461232686176
pt.ine.add.PTCONT.856185,R DO FIO,26,5160-401,URROS,-7.0260517129186635,41.08532141379539
pt.ine.add.PTCONT.856205,R DA CRUZ,107,5160-114,LARINHO,-7.012550538278298,41.20390193183368
pt.ine.add.PTCONT.856206,R ABADE TAVARES,37,5160-247,TORRE DE MONCORVO,-7.047691883164271,41.17318331882402
pt.ine.add.PTCONT.856234,TV DE GONDARÉM,1,5160-031,CABEÇA BOA,-7.11928658681392,41.18479388372897
pt.ine.add.PTCONT.856248,R DE S TOMÉ,16,5160-141,MAÇORES,-7.001045532109082,41.12360752474603
pt.ine.add.PTCONT.856289,R DA ESTAÇÃO,,5160-114,LARINHO,-7.018503993194322,41.19451441708483
pt.ine.add.PTCONT.856290,R DE S SEBASTIÃO,67,5160-228,TORRE DE MONCORVO,-7.057217289355314,41.17657722031877
pt.ine.add.PTCONT.856893,TV DO MEIO DO POVO,,5160-021,ADEGANHA,-7.067617601982368,41.234111096261806
pt.ine.add.PTCONT.856894,R DA FONTE DA PEREIRA,35,5160-141,MAÇORES,-7.005057265307152,41.12714951423665
pt.ine.add.PTCONT.856895,R DAS POÇAS,8,5160-075,FELGAR,-6.95872665289436,41.2123156102196
pt.ine.add.PTCONT.856896,R PRINCIPAL,26,5160-141,MAÇORES,-7.002017775214362,41.12662447800752
pt.ine.add.PTCONT.856897,R DO PRADO DE BAIXO,7,5160-230,TORRE DE MONCORVO,-7.053663022415951,41.179659393973665
pt.ine.add.PTCONT.856898,R DR LOPES CARDOSO,25,5160-281,TORRE DE MONCORVO,-7.057738273246997,41.1709544931409
pt.ine.add.PTCONT.856901,R MANUEL SENDAS,,5160-041,CARDANHA,-7.035325705597117,41.25500322699893
pt.ine.add.PTCONT.856902,R DA SENHORA DA CONCEIÇÃO,1,5160-041,CARDANHA,-7.039774269367861,41.24939103415484
pt.ine.add.PTCONT.856903,R DO JOGO,8,5160-401,URROS,-7.024998468712577,41.08284411842089
pt.ine.add.PTCONT.856905,R PRINCIPAL,,5160-032,CABEÇA BOA,-7.122703479632557,41.202093861397344
pt.ine.add.PTCONT.856906,R DO CABEÇO,,5160-133,LOUSA TMC,-7.180220771493759,41.16467657332121
pt.ine.add.PTCONT.856907,AV JORGE LUIS BORGES,35,5160-220,TORRE DE MONCORVO,-7.040389777617608,41.17731920080087
pt.ine.add.PTCONT.856908,R DO MEIO,,5160-114,LARINHO,-7.013094612485615,41.20555497242489
pt.ine.add.PTCONT.856909,R DO CRUZEIRO,,5160-134,LOUSA TMC,-7.174964929924189,41.17703175003081
pt.ine.add.PTCONT.856910,R DO CARRASCAL,,5160-152,MÓS TMC,-6.9062276517856445,41.15992278090152
pt.ine.add.PTCONT.856911,,,5160-265,TORRE DE MONCORVO,-7.070663592201252,41.16676146193247
pt.ine.add.PTCONT.856912,R DO CAVALEIRO,53,5160-071,CASTEDO TMC,-7.1711161771827205,41.23436206327848
pt.ine.add.PTCONT.856913,R DA NOGUEIRA,9,5160-091,FELGUEIRAS TMC,-7.0123713004125126,41.15359415274219
pt.ine.add.PTCONT.856914,LG DO FUNDO DO LUGAR,,5160-114,LARINHO,-7.012744830624331,41.20509236148716
pt.ine.add.PTCONT.856915,BR NOVO,,5160-069,CARVIÇAIS,-6.895892987813526,41.183628023670174
pt.ine.add.PTCONT.856916,R DE STO ANTÓNIO,2,5160-071,CASTEDO TMC,-7.167650226620625,41.23363373155728
pt.ine.add.PTCONT.856917,R DA NOGUEIRA,,5160-091,FELGUEIRAS TMC,-7.012354532193801,41.15317979816328
pt.ine.add.PTCONT.856918,R EUGÉNIA,,5160-132,LOUSA TMC,-7.177032634270924,41.167603532018646
pt.ine.add.PTCONT.856919,LG DO FERREIRO,51,5160-239,TORRE DE MONCORVO,-7.057373809794758,41.17647963684546
pt.ine.add.PTCONT.856920,R DA MISERICÓRDIA,10,5160-254,TORRE DE MONCORVO,-7.052050236599577,41.17554738185775
pt.ine.add.PTCONT.856921,R DA CANELHA DO GABRIEL,,5160-114,LARINHO,-7.01340986476609,41.20384726231862
pt.ine.add.PTCONT.856922,R DA CRUZ,,5160-114,LARINHO,-7.013626979064042,41.20230067036074
pt.ine.add.PTCONT.856923,R DIANTE,,5160-161,PEREDO DOS CASTELHANOS,-7.074573908460451,41.108855376243724
pt.ine.add.PTCONT.856924,LG DO FERREIRO,62,5160-239,TORRE DE MONCORVO,-7.057002222917567,41.17661122753161
pt.ine.add.PTCONT.856925,R DA IGREJA,,5160-021,ADEGANHA,-7.050917253227785,41.27468954326109
pt.ine.add.PTCONT.856926,LG DO CASTANHAL,3,5160-102,HORTA DA VILARIÇA,-7.1482693868840546,41.24386030286183
pt.ine.add.PTCONT.856927,R DIANTE,29,5160-161,PEREDO DOS CASTELHANOS,-7.075300437674981,41.108835036864086
pt.ine.add.PTCONT.856929,R DA BARREIRA,,5160-022,ADEGANHA,-7.081641364190619,41.27002207301913
pt.ine.add.PTCONT.856930,R NOVA,66,5160-075,FELGAR,-6.958998441081109,41.21311974228551
pt.ine.add.PTCONT.856931,EM 623,23,5160-102,HORTA DA VILARIÇA,-7.146279436039786,41.24212348506554
pt.ine.add.PTCONT.856932,R DIREITA,43,5160-132,LOUSA TMC,-7.178137071895015,41.165397660316714
pt.ine.add.PTCONT.856933,R DE TRÁS,,5160-161,PEREDO DOS CASTELHANOS,-7.076256592447693,41.10860069756068
pt.ine.add.PTCONT.856934,R ADRIANO LEANDRO,23,5160-248,TORRE DE MONCORVO,-7.046075379744807,41.175815290588524
pt.ine.add.PTCONT.856935,R DO CABEÇO,,5160-161,PEREDO DOS CASTELHANOS,-7.074763155828501,41.105966748749694
pt.ine.add.PTCONT.856937,BR DO SANTO,15,5160-134,LOUSA TMC,-7.176458646824485,41.17020097993798
pt.ine.add.PTCONT.856938,QLHA DA MALTA,2,5160-141,MAÇORES,-6.999707654380653,41.12731310269546
pt.ine.add.PTCONT.856941,R DIREITA,36,5160-069,CARVIÇAIS,-6.894201614211288,41.1810436809905
pt.ine.add.PTCONT.856942,R DA FONTE DA PEREIRA,13,5160-141,MAÇORES,-7.002725344255627,41.12702760829094
pt.ine.add.PTCONT.856948,R DR ANTÓNIO EMÍLIO ANDRÊS,11,5160-288,TORRE DE MONCORVO,-7.056626628794052,41.173348216315574
pt.ine.add.PTCONT.856955,R NOVA,40,5160-292,TORRE DE MONCORVO,-7.051624171830382,41.176092634389775
pt.ine.add.PTCONT.856977,R DA MISERICÓRDIA,62,5160-254,TORRE DE MONCORVO,-7.0518811260591985,41.17641019205973
pt.ine.add.PTCONT.857013,R DA ROMANZEIRA,17,5160-011,AÇOREIRA,-7.038880556184007,41.14053186625372
pt.ine.add.PTCONT.857014,AV DA CONTINA,,5160-071,CASTEDO TMC,-7.166192771337664,41.23055110290317
pt.ine.add.PTCONT.857015,EN 220,152,5160-069,CARVIÇAIS,-6.877608155073698,41.18435754432466
pt.ine.add.PTCONT.862396,,,5160-152,MÓS TMC,-6.934422330535942,41.10726623083384
pt.ine.add.PTCONT.857656,R DA CAPELA,,5160-021,ADEGANHA,-7.0681928201794175,41.233945340804574
pt.ine.add.PTCONT.857657,EN 220,5,5160-081,FELGAR,-6.984126510759762,41.18218308500768
pt.ine.add.PTCONT.857658,QTA DO CORISCO,2,5160-091,FELGUEIRAS TMC,-6.964552178967428,41.16367176242467
pt.ine.add.PTCONT.857659,R DA ESCOLA,13,5160-101,HORTA DA VILARIÇA,-7.121045795147357,41.232297088828766
pt.ine.add.PTCONT.857660,LG DO ROSSIO,5,5160-401,URROS,-7.024076789705226,41.083870741540615
pt.ine.add.PTCONT.857661,R DA CAPELA,6,5160-171,SOUTO DA VELHA,-6.932933511098971,41.20722348570523
pt.ine.add.PTCONT.857662,R DAS VIDEIRAS,9,5160-401,URROS,-7.024767205254853,41.08385937670537
pt.ine.add.PTCONT.857663,R DO CANTO,29,5160-083,FELGAR,-6.955951739444724,41.21080160682027
pt.ine.add.PTCONT.857664,R DO CANTO,9,5160-083,FELGAR,-6.956173562587043,41.21106499181518
pt.ine.add.PTCONT.857665,R DO CABEÇO,,5160-133,LOUSA TMC,-7.178475538428546,41.16670607608981
pt.ine.add.PTCONT.857666,R GRANDE,9,5160-401,URROS,-7.024985159395281,41.083636366378784
pt.ine.add.PTCONT.857667,R DA ESTRADA,15,5160-034,CABEÇA BOA,-7.164962757097224,41.199116364033706
pt.ine.add.PTCONT.857668,R DO PRADO DE BAIXO,1,5160-230,TORRE DE MONCORVO,-7.052588439058817,41.17905504368932
pt.ine.add.PTCONT.857669,R TOMÁS RIBEIRO,10,5160-294,TORRE DE MONCORVO,-7.052080799067847,41.177312480692095
pt.ine.add.PTCONT.857673,LG DA LAMEIRA,,5160-114,LARINHO,-7.010750514691698,41.20458671988295
pt.ine.add.PTCONT.857674,R DO ESPÍRITO SANTO,,5160-091,FELGUEIRAS TMC,-7.012629204163215,41.15383977433608
pt.ine.add.PTCONT.857675,BR DE S PAULO,11,5160-226,TORRE DE MONCORVO,-7.059329679451831,41.17420183189874
pt.ine.add.PTCONT.857676,R DR MATOS FERREIRA,4,5160-401,URROS,-7.022468449920306,41.081856300467166
pt.ine.add.PTCONT.857678,R DA CAPELA,,5160-033,CABEÇA BOA,-7.148332521181886,41.188773644574766
pt.ine.add.PTCONT.857679,R DO OLMO,,5160-033,CABEÇA BOA,-7.149360891939369,41.18934969591374
pt.ine.add.PTCONT.857680,BR DOS BARREIROS,,5160-079,FELGAR,-6.958706641157995,41.20876780949533
pt.ine.add.PTCONT.857683,R DA FONTE,,5160-091,FELGUEIRAS TMC,-7.012309648591101,41.15301728649874
pt.ine.add.PTCONT.857684,R DA IGREJA,18,5160-132,LOUSA TMC,-7.176324457036402,41.1679578192675
pt.ine.add.PTCONT.857685,R DIREITA,6,5160-132,LOUSA TMC,-7.176784399652118,41.167466408070766
pt.ine.add.PTCONT.857686,R TOMÁS RIBEIRO,34,5160-294,TORRE DE MONCORVO,-7.053061992176672,41.17561990366379
pt.ine.add.PTCONT.857687,R TOMÁS RIBEIRO,34,5160-294,TORRE DE MONCORVO,-7.053061992176672,41.17561990366379
pt.ine.add.PTCONT.857688,R TOMÁS RIBEIRO,34,5160-294,TORRE DE MONCORVO,-7.053061992176672,41.17561990366379
pt.ine.add.PTCONT.857689,R DA CAPELA,,5160-022,ADEGANHA,-7.0594324877556325,41.29910703258747
pt.ine.add.PTCONT.857690,LG DO IRÓ,35,5160-133,LOUSA TMC,-7.175789112714003,41.167079963069426
pt.ine.add.PTCONT.857691,BR DE MONTESINHO,,5160-229,TORRE DE MONCORVO,-7.0480351782017046,41.17693227725906
pt.ine.add.PTCONT.857692,TV DO CARRASCAL,33,5160-228,TORRE DE MONCORVO,-7.058280997327952,41.17638906143954
pt.ine.add.PTCONT.857693,LG DO FERREIRO,5,5160-239,TORRE DE MONCORVO,-7.05715493178482,41.176018380773655
pt.ine.add.PTCONT.857694,R DA CRUZ,,5160-133,LOUSA TMC,-7.176103326300277,41.16759581394848
pt.ine.add.PTCONT.857695,R DE TRÁS,23,5160-161,PEREDO DOS CASTELHANOS,-7.075483031238889,41.10858459419299
pt.ine.add.PTCONT.857696,R DA IGREJA,6,5160-021,ADEGANHA,-7.050523755539242,41.274667835355345
pt.ine.add.PTCONT.857697,R DE TRÁS,7,5160-161,PEREDO DOS CASTELHANOS,-7.07631322093354,41.10878130214343
pt.ine.add.PTCONT.857699,EN 220,90,5160-069,CARVIÇAIS,-6.8858137110012,41.18217768950909
pt.ine.add.PTCONT.857700,R DO CIMO DO POVO,4,5160-069,CARVIÇAIS,-6.8965244633160845,41.18110466344989
pt.ine.add.PTCONT.857701,R DO CASTELO,70,5160-102,HORTA DA VILARIÇA,-7.147302661729638,41.243095687075666
pt.ine.add.PTCONT.857703,R DO PENDÃO,92,5160-102,HORTA DA VILARIÇA,-7.147714428636131,41.24268502440412
pt.ine.add.PTCONT.857704,R DO ESPÍRITO SANTO,,5160-132,LOUSA TMC,-7.176827333904784,41.16369400214341
pt.ine.add.PTCONT.857705,R DE SANTIAGO,23,5160-263,TORRE DE MONCORVO,-7.053789392509684,41.17196203506147
pt.ine.add.PTCONT.857706,R DO BAIRRO DO RIBEIRINHO,,5160-022,ADEGANHA,-7.081709171988205,41.26877113448475
pt.ine.add.PTCONT.857707,R DA TRITANA,13,5160-022,ADEGANHA,-7.08175444551385,41.26892461620703
pt.ine.add.PTCONT.857708,R DA TRITANA,13,5160-022,ADEGANHA,-7.08175444551385,41.26892461620703
pt.ine.add.PTCONT.857709,R DO TERREIRO,,5160-022,ADEGANHA,-7.081715759909761,41.26910434317301
pt.ine.add.PTCONT.857710,LG DO OLMO,7,5160-076,FELGAR,-6.95976062027378,41.213172531817044
pt.ine.add.PTCONT.857711,BR DO SANTO,28,5160-134,LOUSA TMC,-7.174998322691111,41.172286818785096
pt.ine.add.PTCONT.857712,TV DA CRUZ,6,5160-133,LOUSA TMC,-7.178718758483859,41.16554654919789
pt.ine.add.PTCONT.857713,R VASCO DA GAMA,25,5160-297,TORRE DE MONCORVO,-7.050219493270749,41.17382839899939
pt.ine.add.PTCONT.857714,R DO FIO,19,5160-401,URROS,-7.025878672156761,41.08499559725892
pt.ine.add.PTCONT.857715,R DO CANTO,,5160-401,URROS,-7.025932311897033,41.084635941919984
pt.ine.add.PTCONT.857716,R DO EIRÓ,4,5160-101,HORTA DA VILARIÇA,-7.1238354847679854,41.23393330728487
pt.ine.add.PTCONT.857717,R DR LOPES CARDOSO,10,5160-281,TORRE DE MONCORVO,-7.056968092178751,41.171415515087425
pt.ine.add.PTCONT.857718,R DE S JOÃO,27,5160-081,FELGAR,-6.984438963662227,41.18271744419951
pt.ine.add.PTCONT.857748,R PADRE ARAGÃO,20,5160-081,FELGAR,-6.9818370860365855,41.184969500426625
pt.ine.add.PTCONT.857767,R DA BORRALHEIRA,,5160-134,LOUSA TMC,-7.175585379245088,41.16797868975497
pt.ine.add.PTCONT.857789,QLHA DA STA CRUZ,1,5160-141,MAÇORES,-7.001704504161339,41.12683750222688
pt.ine.add.PTCONT.857790,R DA ALEGRIA,17,5160-250,TORRE DE MONCORVO,-7.0579391712432855,41.17324342329175
pt.ine.add.PTCONT.857791,R DO FUNDO DA ALDEIA,,5160-132,LOUSA TMC,-7.1742642386467566,41.16705827413268
pt.ine.add.PTCONT.857792,R DA ESTAÇÃO,260,5160-114,LARINHO,-7.018062399250708,41.195248478287716
pt.ine.add.PTCONT.857793,R DA CAL,15-17,5160-270,TORRE DE MONCORVO,-7.0507864570409495,41.17341053372668
pt.ine.add.PTCONT.857794,R DA CAL,15-17,5160-270,TORRE DE MONCORVO,-7.0507864570409495,41.17341053372668
pt.ine.add.PTCONT.857811,R DE STA BÁRBARA,,5160-114,LARINHO,-7.012746597201096,41.202193063140555
pt.ine.add.PTCONT.858199,R PRINCIPAL,30,5160-011,AÇOREIRA,-7.078379223608993,41.149274226396905
pt.ine.add.PTCONT.858218,R DA SERRAGEM,,5160-021,ADEGANHA,-7.08202845429602,41.26895413037947
pt.ine.add.PTCONT.858219,R DA IGREJA,,5160-021,ADEGANHA,-7.068810968568547,41.2333387802313
pt.ine.add.PTCONT.858220,LG ALBINO RODRIGUES,,5160-034,CABEÇA BOA,-7.163311700865303,41.19951666238475
pt.ine.add.PTCONT.858221,R DE NSA SRA DA GUIA,,5160-035,CABEÇA BOA,-7.111934688304588,41.18006477465046
pt.ine.add.PTCONT.858233,R DA IGREJA,15,5160-041,CARDANHA,-7.03214079501903,41.256377439293274
pt.ine.add.PTCONT.858234,R DAS AMOREIRAS,,5160-069,CARVIÇAIS,-6.892644443570628,41.181459113355544
pt.ine.add.PTCONT.858243,R DIREITA,48,5160-069,CARVIÇAIS,-6.893727200340643,41.18092152330493
pt.ine.add.PTCONT.858244,PC DA IGREJA,26,5160-069,CARVIÇAIS,-6.892879646347518,41.18036315042313
pt.ine.add.PTCONT.858245,,,5160-062,CARVIÇAIS,-6.81006425892362,41.17378694034688
pt.ine.add.PTCONT.858246,R DA PORTELA,,5160-071,CASTEDO TMC,-7.1695337933913725,41.23451390363806
pt.ine.add.PTCONT.858247,R DE STO ANTÓNIO,16,5160-071,CASTEDO TMC,-7.167728009211933,41.23321119106859
pt.ine.add.PTCONT.858248,R DA CALÇADA,15,5160-074,FELGAR,-6.9558155799458286,41.21174564000424
pt.ine.add.PTCONT.858261,BR DA LAGE,4,5160-081,FELGAR,-6.977235624055535,41.18637306671332
pt.ine.add.PTCONT.858262,R DE STO ANTÓNIO,15,5160-081,FELGAR,-6.984285499293636,41.18467880797463
pt.ine.add.PTCONT.858263,R PADRE ARAGÃO,,5160-081,FELGAR,-6.980852425819128,41.18334791825012
pt.ine.add.PTCONT.858275,R DO REMADEIRO,8,5160-091,FELGUEIRAS TMC,-7.013052069292049,41.15349272504045
pt.ine.add.PTCONT.858276,R DO ERVEDAL,8,5160-091,FELGUEIRAS TMC,-7.012310515490452,41.15156762472282
pt.ine.add.PTCONT.858277,R DAS ROSEIRINHAS,8,5160-101,HORTA DA VILARIÇA,-7.122969734257037,41.23361057216322
pt.ine.add.PTCONT.858291,R DO CABEÇO,50,5160-133,LOUSA TMC,-7.178680037041726,41.16657270783227
pt.ine.add.PTCONT.858292,LG DO SANTO,8,5160-134,LOUSA TMC,-7.1760938776331,41.16988280253266
pt.ine.add.PTCONT.858315,R NOVA,2,5160-141,MAÇORES,-7.0001263863013685,41.12720016743078
pt.ine.add.PTCONT.858316,R DRA ILDA AMÁLIA FERNANDES BRANCO,13,5160-141,MAÇORES,-7.000667752555518,41.126188016658496
pt.ine.add.PTCONT.858317,R DO CARRASCAL,15,5160-152,MÓS TMC,-6.905838736915567,41.16097211742768
pt.ine.add.PTCONT.858318,R DOS OLHINHOS,13,5160-152,MÓS TMC,-6.907487274632805,41.159458974762536
pt.ine.add.PTCONT.858327,R DIANTE,1,5160-161,PEREDO DOS CASTELHANOS,-7.07499196620211,41.108769174244664
pt.ine.add.PTCONT.858328,R DE TRÁS,10,5160-161,PEREDO DOS CASTELHANOS,-7.075793813380191,41.10850640862821
pt.ine.add.PTCONT.858329,R DA SERRINHA,22,5160-171,SOUTO DA VELHA,-6.93809932479407,41.207043107728936
pt.ine.add.PTCONT.858330,R DA SERRA,2,5160-171,SOUTO DA VELHA,-6.937605300422148,41.20798340464422
pt.ine.add.PTCONT.858331,BR DE MONTESINHO,2,5160-304,TORRE DE MONCORVO,-7.048400248636861,41.17719683637464
pt.ine.add.PTCONT.858332,R DA CAPITÔA,,5160-252,TORRE DE MONCORVO,-7.042314773676303,41.176220936408164
pt.ine.add.PTCONT.858343,R DR MÁRIO LUIS DE SOUSA,13,5160-283,TORRE DE MONCORVO,-7.046854330673197,41.17555251606428
pt.ine.add.PTCONT.858344,R TOMÁS RIBEIRO,67,5160-294,TORRE DE MONCORVO,-7.052649044374363,41.17754291677301
pt.ine.add.PTCONT.858345,R DO PRADO DE CIMA,25,5160-231,TORRE DE MONCORVO,-7.052867518277034,41.177301854420904
pt.ine.add.PTCONT.858346,LG DA CORREDOURA,28,5160-228,TORRE DE MONCORVO,-7.057176681187714,41.17687397770627
pt.ine.add.PTCONT.858358,R DA CAL,2,5160-270,TORRE DE MONCORVO,-7.050803173521394,41.17384288984755
pt.ine.add.PTCONT.858359,R VISC DE VILA MAIOR,24,5160-298,TORRE DE MONCORVO,-7.0516233746434756,41.1739676487909
pt.ine.add.PTCONT.858360,BR DE S PAULO,24,5160-226,TORRE DE MONCORVO,-7.06018269394403,41.1737775827383
pt.ine.add.PTCONT.858361,R D FR BARTOLOMEU DOS MÁRTIRES,23,5160-277,TORRE DE MONCORVO,-7.057523773621943,41.17314049888976
pt.ine.add.PTCONT.858371,R GEN ADRIANO DE SÁ,38,5160-285,TORRE DE MONCORVO,-7.059412460049722,41.170591938874885
pt.ine.add.PTCONT.858372,QTA DAS BANDEIRAS,,5160-211,TORRE DE MONCORVO,-7.109101619002427,41.159951305450946
pt.ine.add.PTCONT.858373,R DA FRÁGUA,21,5160-401,URROS,-7.025467251445742,41.08398316438977
pt.ine.add.PTCONT.858384,LG DA PRACINHA,1,5160-401,URROS,-7.024728786688928,41.08402108400202
pt.ine.add.PTCONT.858385,R DO POÇO DO MALHÃO,5,5160-401,URROS,-7.025309987824718,41.08200971664953
pt.ine.add.PTCONT.858386,LG 25 DE ABRIL,2,5160-401,URROS,-7.024661889487769,41.08233664150893
pt.ine.add.PTCONT.858387,TV DAS EIRAS,3,5160-401,URROS,-7.022158946989996,41.081862320829366
pt.ine.add.PTCONT.858408,R CONSTANTINO REI DOS FLORISTAS,18,5160-249,TORRE DE MONCORVO,-7.051366941017269,41.17434341457936
pt.ine.add.PTCONT.858415,R PRINCIPAL,30,5160-011,AÇOREIRA,-7.078379223608993,41.149274226396905
pt.ine.add.PTCONT.858428,,,5160-063,CARVIÇAIS,-6.828068231568421,41.15286884245493
pt.ine.add.PTCONT.858443,R DO OUTEIRO,3,5160-021,ADEGANHA,-7.050835131297232,41.27604837406204
pt.ine.add.PTCONT.858457,R DO REMADEIRO,19,5160-091,FELGUEIRAS TMC,-7.013244484507625,41.153386546106624
pt.ine.add.PTCONT.858461,R DA FRÁGUA,12,5160-401,URROS,-7.0253027889685145,41.08385552338003
pt.ine.add.PTCONT.858463,TV DE STA BÁRBARA,,5160-114,LARINHO,-7.012905393658955,41.201969505832665
pt.ine.add.PTCONT.858498,EM 622,,5160-315,TORRE DE MONCORVO,-7.072043573223128,41.17649867421792
pt.ine.add.PTCONT.858509,TV DO TERREIRINHO,37,5160-114,LARINHO,-7.013536130273506,41.20553225377902
pt.ine.add.PTCONT.858559,R DA GARREIRA,,5160-091,FELGUEIRAS TMC,-7.012983011999988,41.15405031143701
pt.ine.add.PTCONT.858560,R DO CIMO DO POVO,6,5160-091,FELGUEIRAS TMC,-7.013565125798799,41.15414601276971
pt.ine.add.PTCONT.858561,R DO CASTANHAL,60,5160-102,HORTA DA VILARIÇA,-7.1477441257217045,41.24309046207977
pt.ine.add.PTCONT.858591,BR DO SANTO,30,5160-134,LOUSA TMC,-7.175405138994977,41.17217314782447
pt.ine.add.PTCONT.858592,R DO CABEÇO,45,5160-133,LOUSA TMC,-7.178786479463297,41.16662761508241
pt.ine.add.PTCONT.858593,SIT DOS LAGARES,,5160-131,LOUSA TMC,-7.213540742627995,41.15662751549695
pt.ine.add.PTCONT.858631,SIT DA CARIMA,,5160-131,LOUSA TMC,-7.205893319476175,41.136252628523025
pt.ine.add.PTCONT.858632,R DA IGREJA,20,5160-132,LOUSA TMC,-7.176374471610762,41.16779615909677
pt.ine.add.PTCONT.858657,R DOS LAGARINHOS,6,5160-152,MÓS TMC,-6.907236795266493,41.16331006514954
pt.ine.add.PTCONT.858658,R DE CIMA,3,5160-152,MÓS TMC,-6.907780365053574,41.15907491678922
pt.ine.add.PTCONT.858659,R DA PORTELA,2,5160-152,MÓS TMC,-6.906699771280213,41.15824404136808
pt.ine.add.PTCONT.858660,R DA SANTA CRUZ,,5160-161,PEREDO DOS CASTELHANOS,-7.074510009155681,41.10838656787078
pt.ine.add.PTCONT.858698,R DO PRADO DE BAIXO,,5160-230,TORRE DE MONCORVO,-7.051342443437026,41.180177867882634
pt.ine.add.PTCONT.858699,R DE S SEBASTIÃO,40,5160-228,TORRE DE MONCORVO,-7.057497072576411,41.17695800778959
pt.ine.add.PTCONT.858728,R DA MISERICÓRDIA,78,5160-254,TORRE DE MONCORVO,-7.051794016956812,41.17663447777073
pt.ine.add.PTCONT.858729,R NOVA,41,5160-292,TORRE DE MONCORVO,-7.051804973961414,41.175968274087865
pt.ine.add.PTCONT.858763,LG DAS EIRAS,3,5160-401,URROS,-7.023627134236012,41.0830110065987
pt.ine.add.PTCONT.858764,R GRANDE,20,5160-401,URROS,-7.024578947508073,41.08373150575727
pt.ine.add.PTCONT.858765,R DAS TULHAS,12,5160-401,URROS,-7.024848882208332,41.08324787190835
pt.ine.add.PTCONT.858971,EN 215,,5160-022,ADEGANHA,-7.05840248290742,41.298575190468426
pt.ine.add.PTCONT.858972,EN 215,,5160-022,ADEGANHA,-7.05840248290742,41.298575190468426
pt.ine.add.PTCONT.858973,EN 215,,5160-022,ADEGANHA,-7.05840248290742,41.298575190468426
pt.ine.add.PTCONT.858974,R DA LAGARETA,,5160-021,ADEGANHA,-7.0540802154848015,41.275403538157974
pt.ine.add.PTCONT.858975,R DA IGREJA,,5160-021,ADEGANHA,-7.0502178079167805,41.27440384189962
pt.ine.add.PTCONT.859007,R DO BAIRRO DO RIBEIRINHO,,5160-022,ADEGANHA,-7.081709661600905,41.267996793675856
pt.ine.add.PTCONT.859008,R DO BAIRRO DO RIBEIRINHO,,5160-022,ADEGANHA,-7.081709661600905,41.267996793675856
pt.ine.add.PTCONT.859009,R DO BAIRRO DO RIBEIRINHO,,5160-022,ADEGANHA,-7.08157731060752,41.26732028362793
pt.ine.add.PTCONT.859010,R DO CABEÇO,,5160-032,CABEÇA BOA,-7.121469873093929,41.20168684895561
pt.ine.add.PTCONT.859011,R DO JARDIM,,5160-033,CABEÇA BOA,-7.14879260134498,41.18909272351795
pt.ine.add.PTCONT.859012,ESTR PRINCIPAL,,5160-033,CABEÇA BOA,-7.14914194208211,41.18805122617696
pt.ine.add.PTCONT.859037,R DO CIMO DO POVO,1,5160-041,CARDANHA,-7.03252118785522,41.256462112601724
pt.ine.add.PTCONT.859038,R DA ESCOLA,1,5160-041,CARDANHA,-7.0320228580156945,41.25629527524155
pt.ine.add.PTCONT.859069,R DA IGREJA,26,5160-069,CARVIÇAIS,-6.8945391500238795,41.18084021819681
pt.ine.add.PTCONT.859070,PC DA IGREJA,,5160-069,CARVIÇAIS,-6.893308770007403,41.18035876705553
pt.ine.add.PTCONT.859098,R DO EIRÓ,7,5160-074,FELGAR,-6.9567955502771905,41.2116205947095
pt.ine.add.PTCONT.859099,EM 613,4,5160-082,FELGAR,-6.966102648830685,41.20050524142007
pt.ine.add.PTCONT.859185,R DA MAIA,,5160-133,LOUSA TMC,-7.17744216536834,41.167300787945074
pt.ine.add.PTCONT.859188,R DO FIO,23,5160-401,URROS,-7.026518936843419,41.085136812585155
pt.ine.add.PTCONT.859222,R DA VARELA,4,5160-133,LOUSA TMC,-7.177938114179382,41.16761104497897
pt.ine.add.PTCONT.859820,LG DA CAPELA,,5160-021,ADEGANHA,-7.068329063572169,41.23436979175485
pt.ine.add.PTCONT.859821,R DO EIRÓ,20,5160-074,FELGAR,-6.956840171496598,41.21179212749238
pt.ine.add.PTCONT.859822,R DA ESCOLA,1,5160-101,HORTA DA VILARIÇA,-7.120479310910423,41.23267928368582
pt.ine.add.PTCONT.859824,R DO CABEÇO DA IGREJA,11,5160-101,HORTA DA VILARIÇA,-7.122458025365473,41.23198534650896
pt.ine.add.PTCONT.859825,R DRA ILDA AMÁLIA FERNANDES BRANCO,6,5160-141,MAÇORES,-7.000708578734003,41.125891279493025
pt.ine.add.PTCONT.859826,R TOMÁS RIBEIRO,53,5160-294,TORRE DE MONCORVO,-7.052763009256433,41.17640946401062
pt.ine.add.PTCONT.859828,R DAS EIRAS,1,5160-101,HORTA DA VILARIÇA,-7.110048296752496,41.235387339888774
pt.ine.add.PTCONT.859829,EM 623,4,5160-101,HORTA DA VILARIÇA,-7.108849437269933,41.22660670531539
pt.ine.add.PTCONT.859830,R GEN ADRIANO DE SÁ,7,5160-285,TORRE DE MONCORVO,-7.0578405072098125,41.17053225246886
pt.ine.add.PTCONT.859831,QTA DO PEDRANO,,5160-228,TORRE DE MONCORVO,-7.096981564422981,41.18133586265351
pt.ine.add.PTCONT.859832,R DO COTOVELO,6,5160-074,FELGAR,-6.957461539504321,41.21105113722134
pt.ine.add.PTCONT.859833,AV JORGE LUIS BORGES,27,5160-220,TORRE DE MONCORVO,-7.041089248471687,41.176821603741566
pt.ine.add.PTCONT.859834,R DOS SAPATEIROS,50,5160-278,TORRE DE MONCORVO,-7.050842713439102,41.1765084880507
pt.ine.add.PTCONT.859835,R DO ESPÍRITO SANTO,20,5160-132,LOUSA TMC,-7.1773037430566555,41.16370696088727
pt.ine.add.PTCONT.859836,BR DO CARRASCAL,6,5160-228,TORRE DE MONCORVO,-7.0586566956837125,41.17746406034283
pt.ine.add.PTCONT.859837,LG DAS EIRAS,14,5160-401,URROS,-7.023763315279173,41.08269716835747
pt.ine.add.PTCONT.859839,R DO BURACO,30,5160-069,CARVIÇAIS,-6.892329280496644,41.18426498613738
pt.ine.add.PTCONT.859840,R DO PRADO DE CIMA,23,5160-231,TORRE DE MONCORVO,-7.052808828363487,41.17724727905243
pt.ine.add.PTCONT.859841,R DO OUTÃO,,5160-114,LARINHO,-7.0139324204893105,41.20536502853543
pt.ine.add.PTCONT.859842,QTA DO PELAMEIRO,,5160-401,URROS,-7.030343559897387,41.07347692279771
pt.ine.add.PTCONT.859843,R DO EIRÓ DO VELHO,3,5160-069,CARVIÇAIS,-6.900084887516074,41.183808044487805
pt.ine.add.PTCONT.859844,R DA COSTA,18,5160-071,CASTEDO TMC,-7.169570310873528,41.23283944667018
pt.ine.add.PTCONT.859845,R DA TRAVESSA,11,5160-152,MÓS TMC,-6.905072422031869,41.15862288173345
pt.ine.add.PTCONT.859846,R DA PORTELA,29,5160-152,MÓS TMC,-6.9057164968476705,41.157945435331975
pt.ine.add.PTCONT.859847,R TOMÁS RIBEIRO,44,5160-294,TORRE DE MONCORVO,-7.053037126513106,41.17568269947742
pt.ine.add.PTCONT.859848,R DA FONTE,,5160-091,FELGUEIRAS TMC,-7.012727298125649,41.15297632909793
pt.ine.add.PTCONT.859849,R DA LAMEIRA,,5160-114,LARINHO,-7.011922391135643,41.20438203804459
pt.ine.add.PTCONT.859852,R DAS EIRAS,,5160-022,ADEGANHA,-7.0616319635736415,41.29748880712536
pt.ine.add.PTCONT.859853,R DO FUNDO DA ALDEIA,12,5160-132,LOUSA TMC,-7.174024414415189,41.16634494522719
pt.ine.add.PTCONT.859855,R VISC DE VILA MAIOR,6,5160-298,TORRE DE MONCORVO,-7.051924871755005,41.174474711784306
pt.ine.add.PTCONT.859856,R PRINCIPAL,,5160-035,CABEÇA BOA,-7.111378565779327,41.18057307928842
pt.ine.add.PTCONT.859857,R DIREITA,15,5160-132,LOUSA TMC,-7.177177169096407,41.16667729872198
pt.ine.add.PTCONT.859859,R DA TRAVESSA,23,5160-041,CARDANHA,-7.033423020400588,41.25675885903546
pt.ine.add.PTCONT.859860,R DA EIRA DO CAMINHO,4,5160-087,FELGAR,-6.959982466656114,41.21343590967757
pt.ine.add.PTCONT.859861,R DA EIRA DO CAMINHO,26,5160-087,FELGAR,-6.961852725621079,41.21353598567732
pt.ine.add.PTCONT.859862,R DA AMOREIRA,4,5160-161,PEREDO DOS CASTELHANOS,-7.073967240289122,41.108084438697595
pt.ine.add.PTCONT.859863,LG DO CIMO DO POVO,8,5160-401,URROS,-7.025859670161123,41.085418615321565
pt.ine.add.PTCONT.859864,R DO FIO,2,5160-401,URROS,-7.024246279487251,41.08511496216016
pt.ine.add.PTCONT.859866,BR DO SANTO,,5160-134,LOUSA TMC,-7.176561295393585,41.170516979474776
pt.ine.add.PTCONT.859867,R DA PRACINHA,2,5160-141,MAÇORES,-7.001842584345199,41.12711798845548
pt.ine.add.PTCONT.859868,R PRINCIPAL,11,5160-141,MAÇORES,-7.001804546017556,41.127252677827116
pt.ine.add.PTCONT.859869,R DAS LAGES,,5160-133,LOUSA TMC,-7.1784923542691015,41.16883120749291
pt.ine.add.PTCONT.859870,BR DO SANTO,17,5160-134,LOUSA TMC,-7.1759459125112945,41.17104311454293
pt.ine.add.PTCONT.859871,R DA SERRINHA,8,5160-171,SOUTO DA VELHA,-6.937820690357946,41.20794062047896
pt.ine.add.PTCONT.859872,R PRIOR DO CRATO,1,5160-276,TORRE DE MONCORVO,-7.051296701045953,41.17499105324707
pt.ine.add.PTCONT.859894,EN 220,7,5160-081,FELGAR,-6.983850866206524,41.18227037559165
pt.ine.add.PTCONT.859940,,,5160-066,CARVIÇAIS,-6.820524360689061,41.17929105349297
pt.ine.add.PTCONT.859898,R DA FONTE DO SOUTO,13,5160-071,CASTEDO TMC,-7.167639728494834,41.23453629810393
pt.ine.add.PTCONT.859920,R DO CABEÇO,14,5160-133,LOUSA TMC,-7.179526811283846,41.165697309545564
pt.ine.add.PTCONT.859931,LG DO FERREIRO,39,5160-239,TORRE DE MONCORVO,-7.0577083238221565,41.17642873608468
pt.ine.add.PTCONT.859941,R DA ESTAÇÃO,,5160-114,LARINHO,-7.018649000205583,41.194398767205506
pt.ine.add.PTCONT.859942,R DO BAIRRO DO RIBEIRINHO,28,5160-022,ADEGANHA,-7.081522995757711,41.26698663887327
pt.ine.add.PTCONT.859943,R DO BAIRRO DO RIBEIRINHO,28,5160-022,ADEGANHA,-7.081522995757711,41.26698663887327
pt.ine.add.PTCONT.860517,R PRINCIPAL,61,5160-011,AÇOREIRA,-7.08088443308382,41.14681198127865
pt.ine.add.PTCONT.860586,R DO CIMO DO POVO,26,5160-011,AÇOREIRA,-7.0395671342058375,41.14007016853065
pt.ine.add.PTCONT.860686,R DO QUEBRA COSTAS,4,5160-171,SOUTO DA VELHA,-6.935720042317342,41.208062860146214
pt.ine.add.PTCONT.860688,R DO JOGO DA BOLA,14,5160-101,HORTA DA VILARIÇA,-7.121119367613416,41.22829992065207
pt.ine.add.PTCONT.860689,R GEN ADRIANO DE SÁ,12,5160-285,TORRE DE MONCORVO,-7.056714374220937,41.17089990737698
pt.ine.add.PTCONT.860690,R DO PALHEIRINHO,8,5160-091,FELGUEIRAS TMC,-7.0118575912529275,41.15367919453743
pt.ine.add.PTCONT.860691,R DA IGREJA,22,5160-011,AÇOREIRA,-7.041004543858781,41.13957957115253
pt.ine.add.PTCONT.860692,R DO CIMO DO POVO,4,5160-091,FELGUEIRAS TMC,-7.013541916237613,41.15410977052379
pt.ine.add.PTCONT.860693,R DO CARRASCAL,46,5160-152,MÓS TMC,-6.9066739200308085,41.16026968997767
pt.ine.add.PTCONT.860696,R DO CIPRESTE,9,5160-084,FELGAR,-6.956805884459456,41.210378141267945
pt.ine.add.PTCONT.860697,R DA IGREJA,29,5160-011,AÇOREIRA,-7.040962584947375,41.139237013945795
pt.ine.add.PTCONT.860698,R DO CRUZEIRO,2,5160-081,FELGAR,-6.959643543917989,41.2083811828558
pt.ine.add.PTCONT.860699,R DO FUNDO DO POVO,,5160-091,FELGUEIRAS TMC,-7.0125212858284485,41.153181420665746
pt.ine.add.PTCONT.860700,BR DE MONTESINHO,4,5160-229,TORRE DE MONCORVO,-7.0482956833624115,41.17703377694089
pt.ine.add.PTCONT.860703,R DA CAPELA,,5160-022,ADEGANHA,-7.060631860036215,41.29877606353077
pt.ine.add.PTCONT.860704,R DA CAPELA,,5160-022,ADEGANHA,-7.059473320957668,41.29880127882892
pt.ine.add.PTCONT.860705,R DO CABO DOS TAPADOS,4,5160-069,CARVIÇAIS,-6.88199179969413,41.183856005935255
pt.ine.add.PTCONT.860706,R DA FONTE DO PRADO,35,5160-069,CARVIÇAIS,-6.893061910040808,41.183336455018846
pt.ine.add.PTCONT.860707,R DAS FRAGAS,,5160-091,FELGUEIRAS TMC,-7.013389447040549,41.152568576715545
pt.ine.add.PTCONT.860708,TV PRIOR DO CRATO,1,5160-276,TORRE DE MONCORVO,-7.051480907090727,41.174659630065776
pt.ine.add.PTCONT.860711,EN 220,31,5160-069,CARVIÇAIS,-6.889408169868667,41.181802378354504
pt.ine.add.PTCONT.860712,R DE STO CRISTO,,5160-264,TORRE DE MONCORVO,-7.059668286068168,41.173169511211825
pt.ine.add.PTCONT.860713,R DIANTE,27,5160-161,PEREDO DOS CASTELHANOS,-7.075169791470418,41.108815828670295
pt.ine.add.PTCONT.860714,R DIANTE,,5160-161,PEREDO DOS CASTELHANOS,-7.074375892945691,41.10858342899785
pt.ine.add.PTCONT.860715,LG DA LAMEIRA,2,5160-021,ADEGANHA,-7.051149781937444,41.27434057325468
pt.ine.add.PTCONT.860716,R DO CAMPO,4,5160-022,ADEGANHA,-7.08359309744746,41.27036402764742
pt.ine.add.PTCONT.860717,R DO CAMPO,4,5160-022,ADEGANHA,-7.08359309744746,41.27036402764742
pt.ine.add.PTCONT.860718,R DA ESTAÇÃO,4,5160-081,FELGAR,-6.97634588185628,41.18410410418191
pt.ine.add.PTCONT.860719,R DO CANTO,,5160-161,PEREDO DOS CASTELHANOS,-7.073731783914922,41.107920197158926
pt.ine.add.PTCONT.860722,R DO CABO DO LUGAR,13,5160-085,FELGAR,-6.9599558888074515,41.213588707714486
pt.ine.add.PTCONT.860723,R DAS EIRAS,7,5160-161,PEREDO DOS CASTELHANOS,-7.076003242911633,41.10806712203728
pt.ine.add.PTCONT.860726,R DO CIMO DO POVO,,5160-041,CARDANHA,-7.032482980255123,41.2566058115489
pt.ine.add.PTCONT.860727,R NOVA,15,5160-075,FELGAR,-6.959391371668125,41.21315076040682
pt.ine.add.PTCONT.860728,R DA FRÁGUA,1,5160-041,CARDANHA,-7.033462887085488,41.25651613146765
pt.ine.add.PTCONT.860729,R DE BAIXO,,5160-041,CARDANHA,-7.0341973963047675,41.2561179643674
pt.ine.add.PTCONT.860730,R DIREITA,83,5160-069,CARVIÇAIS,-6.891620880425196,41.18075477014
pt.ine.add.PTCONT.860731,R DOS MORTÓRIOS,,5160-171,SOUTO DA VELHA,-6.938886400280691,41.207033265287215
pt.ine.add.PTCONT.860744,R D FR BARTOLOMEU DOS MÁRTIRES,27,5160-277,TORRE DE MONCORVO,-7.057704556553837,41.17301612902613
pt.ine.add.PTCONT.860777,BR FERROMINAS,21,5160-081,FELGAR,-6.9647518737221485,41.18395104449913
pt.ine.add.PTCONT.860771,R DE STO ANTÓNIO,,5160-133,LOUSA TMC,-7.177369903681332,41.16817359603057
pt.ine.add.PTCONT.860800,LG DA CORREDOURA,58-64,5160-235,TORRE DE MONCORVO,-7.05603725472501,41.175863867044995
pt.ine.add.PTCONT.860801,R DO PRADO DE CIMA,13,5160-231,TORRE DE MONCORVO,-7.052989927334047,41.17710491141717
pt.ine.add.PTCONT.860802,R DO PRADO DE CIMA,13,5160-231,TORRE DE MONCORVO,-7.052989927334047,41.17710491141717
pt.ine.add.PTCONT.860803,R DO PRADO DE CIMA,13,5160-231,TORRE DE MONCORVO,-7.052989927334047,41.17710491141717
pt.ine.add.PTCONT.860804,R DO CALVÁRIO,4,5160-161,PEREDO DOS CASTELHANOS,-7.075435974500472,41.10632409382928
pt.ine.add.PTCONT.861342,R DO FRADE,9,5160-011,AÇOREIRA,-7.082473074856428,41.1465383485884
pt.ine.add.PTCONT.861457,R DAS LAGES,25,5160-133,LOUSA TMC,-7.177918615882988,41.16813312705422
pt.ine.add.PTCONT.861458,R ARMANDO MARTINS JANEIRA,11,5160-279,TORRE DE MONCORVO,-7.058266768045067,41.17142764259642
pt.ine.add.PTCONT.861459,R ARMANDO MARTINS JANEIRA,11,5160-279,TORRE DE MONCORVO,-7.058266768045067,41.17142764259642
pt.ine.add.PTCONT.861460,R ARMANDO MARTINS JANEIRA,9,5160-279,TORRE DE MONCORVO,-7.05813541462685,41.171444424941285
pt.ine.add.PTCONT.861461,R ARMANDO MARTINS JANEIRA,9,5160-279,TORRE DE MONCORVO,-7.05813541462685,41.171444424941285
pt.ine.add.PTCONT.861463,R DA GARREIRA,9,5160-091,FELGUEIRAS TMC,-7.012882971365506,41.15432846743982
pt.ine.add.PTCONT.861464,R DO CABEÇO,16,5160-133,LOUSA TMC,-7.178248125816575,41.166776224577305
pt.ine.add.PTCONT.861465,R DR LOPES CARDOSO,1,5160-281,TORRE DE MONCORVO,-7.056088782053048,41.17126322902192
pt.ine.add.PTCONT.861466,R GEN ADRIANO DE SÁ,19,5160-285,TORRE DE MONCORVO,-7.058710251086678,41.17054036945167
pt.ine.add.PTCONT.861467,LG DAS EIRAS,8,5160-401,URROS,-7.0238959515863755,41.083301731599526
pt.ine.add.PTCONT.861468,EN 215,,5160-022,ADEGANHA,-7.047749106288586,41.266367033451644
pt.ine.add.PTCONT.861469,R DO CANTO,,5160-091,FELGUEIRAS TMC,-7.011685005736294,41.15401967237563
pt.ine.add.PTCONT.861470,R DA BACORINHA,10,5160-152,MÓS TMC,-6.906791850929898,41.162251848452996
pt.ine.add.PTCONT.861471,R DO CARRASCAL,36,5160-152,MÓS TMC,-6.906263210096342,41.16057145521186
pt.ine.add.PTCONT.861472,R DE ALÉM,14,5160-011,AÇOREIRA,-7.038802945393469,41.13946863425088
pt.ine.add.PTCONT.861473,R DAS EIRAS,,5160-114,LARINHO,-7.0143694896502184,41.20560338186941
pt.ine.add.PTCONT.861474,R DO OUTÃO,,5160-114,LARINHO,-7.013666795070595,41.205560536371756
pt.ine.add.PTCONT.861475,R DO OUTÃO,,5160-114,LARINHO,-7.013725476801718,41.205615131334454
pt.ine.add.PTCONT.861477,EN 220,,5160-069,CARVIÇAIS,-6.871530265080441,41.1868122540215
pt.ine.add.PTCONT.861478,R DO CRUZEIRO,,5160-134,LOUSA TMC,-7.1740712977669,41.17865406979498
pt.ine.add.PTCONT.861479,R DO CANTO,,5160-071,CASTEDO TMC,-7.167979177117195,41.234206322785674
pt.ine.add.PTCONT.861480,R DA BORRALHEIRA,,5160-134,LOUSA TMC,-7.1758324338011805,41.168196844283756
pt.ine.add.PTCONT.861481,R DO POÇO,52,5160-274,TORRE DE MONCORVO,-7.051319179462616,41.17652196875917
pt.ine.add.PTCONT.861482,R DE STO ANTÓNIO,,5160-071,CASTEDO TMC,-7.167901073201099,41.23360882236898
pt.ine.add.PTCONT.861483,R DA ALEGRIA,14,5160-250,TORRE DE MONCORVO,-7.0581153908994265,41.17339813882699
pt.ine.add.PTCONT.861485,R DA CRUZ,,5160-114,LARINHO,-7.013034352382314,41.20419476963613
pt.ine.add.PTCONT.861486,R DA PORTELA,1,5160-152,MÓS TMC,-6.9066611838057765,41.158396700291604
pt.ine.add.PTCONT.861487,R DE BAIXO,21,5160-239,TORRE DE MONCORVO,-7.056874101055355,41.17642994741087
pt.ine.add.PTCONT.861490,BR DA CASA DO POVO,28,5160-089,FELGAR,-6.960328285146729,41.20675842461431
pt.ine.add.PTCONT.861491,R DAS FRAGAS,,5160-091,FELGUEIRAS TMC,-7.013742638010946,41.15281512216734
pt.ine.add.PTCONT.861492,R DA LAMEIRA,,5160-114,LARINHO,-7.011479650749292,41.2044767712885
pt.ine.add.PTCONT.861493,LG DO IRÓ,33,5160-133,LOUSA TMC,-7.175658581795714,41.167042861218064
pt.ine.add.PTCONT.861494,R D FR BARTOLOMEU DOS MÁRTIRES,19,5160-277,TORRE DE MONCORVO,-7.0573787343785686,41.17326520233499
pt.ine.add.PTCONT.861495,R PRIOR DO CRATO,2,5160-276,TORRE DE MONCORVO,-7.051500590320432,41.174911930981295
pt.ine.add.PTCONT.861496,R MANUEL SEIXAS,15,5160-290,TORRE DE MONCORVO,-7.051906815451846,41.174123380586636
pt.ine.add.PTCONT.861497,R DA IGREJA,20,5160-071,CASTEDO TMC,-7.171402331190239,41.2315401642233
pt.ine.add.PTCONT.861498,R DO OLMO,49,5160-102,HORTA DA VILARIÇA,-7.147953011733322,41.24347942495812
pt.ine.add.PTCONT.861499,R DIANTE,40,5160-161,PEREDO DOS CASTELHANOS,-7.0758227344135305,41.108929874023616
pt.ine.add.PTCONT.861500,R DIANTE,,5160-161,PEREDO DOS CASTELHANOS,-7.0758227344135305,41.108929874023616
pt.ine.add.PTCONT.861501,AV JORGE LUIS BORGES,36,5160-220,TORRE DE MONCORVO,-7.043202348220185,41.17515784694995
pt.ine.add.PTCONT.861502,R DOS GODEIROS,44,5160-102,HORTA DA VILARIÇA,-7.146547147895243,41.243359338005575
pt.ine.add.PTCONT.861503,R DIREITA,,5160-132,LOUSA TMC,-7.177214350581225,41.16657856106433
pt.ine.add.PTCONT.861505,R DA TRAVESSA,,5160-041,CARDANHA,-7.033268083316479,41.25674837493059
pt.ine.add.PTCONT.861506,R DO PINHAL,,5160-114,LARINHO,-7.022157401839199,41.193469228308565
pt.ine.add.PTCONT.861507,R DA IGREJA,16,5160-041,CARDANHA,-7.031711625435465,41.256355326186515
pt.ine.add.PTCONT.861508,R DO CABO DO LUGAR,26,5160-069,CARVIÇAIS,-6.891495421861422,41.18045628333524
pt.ine.add.PTCONT.861509,AV DO SOL,31,5160-069,CARVIÇAIS,-6.890113235867881,41.18107165743902
pt.ine.add.PTCONT.861510,R DIREITA,,5160-069,CARVIÇAIS,-6.891907021212573,41.180748850480136
pt.ine.add.PTCONT.861511,BR FERROMINAS,24,5160-081,FELGAR,-6.964664458251148,41.18417525995985
pt.ine.add.PTCONT.861512,R DAS LAGES,,5160-133,LOUSA TMC,-7.177994170896863,41.168674005783764
pt.ine.add.PTCONT.861513,R DA CAPELA,,5160-021,ADEGANHA,-7.068562813510538,41.23393075420689
pt.ine.add.PTCONT.861514,EM 611,,5160-021,ADEGANHA,-7.066821130823525,41.2346799827295
pt.ine.add.PTCONT.861515,R DO AMIEIRAL,6,5160-171,SOUTO DA VELHA,-6.9376556472288025,41.20718256711775
pt.ine.add.PTCONT.861542,R DO PRADO DE CIMA,45,5160-231,TORRE DE MONCORVO,-7.052946933074615,41.17754571111323
pt.ine.add.PTCONT.861556,QTA DA PINHEIRA,3,5160-081,FELGAR,-6.970639781198971,41.19337488366334
pt.ine.add.PTCONT.861563,R DA LAMEIRA DA AZENHA,12,5160-031,CABEÇA BOA,-7.118794126285409,41.18426730632839
pt.ine.add.PTCONT.861576,R DOS GODEIROS,44,5160-102,HORTA DA VILARIÇA,-7.146547147895243,41.243359338005575
pt.ine.add.PTCONT.861584,LG DA IGREJA,12,5160-090,FELGAR,-6.958149588376927,41.21124724527666
pt.ine.add.PTCONT.861625,FTE DAS PINGAS,,5160-011,AÇOREIRA,-7.047227652412075,41.14211455938899
pt.ine.add.PTCONT.861626,,,5160-152,MÓS TMC,-6.9379516663923395,41.11221018646519
pt.ine.add.PTCONT.861627,R PRIOR DO CRATO,2,5160-276,TORRE DE MONCORVO,-7.051500590320432,41.174911930981295
pt.ine.add.PTCONT.861628,R PRIOR DO CRATO,2,5160-276,TORRE DE MONCORVO,-7.051500590320432,41.174911930981295
pt.ine.add.PTCONT.861629,R DA FONTE DO PRADO,,5160-069,CARVIÇAIS,-6.892594537083859,41.18536633936722
pt.ine.add.PTCONT.862116,LG DA EIRA,2,5160-011,AÇOREIRA,-7.078530661859599,41.14874436555238
pt.ine.add.PTCONT.862182,R DA GRICHA,4,5160-011,AÇOREIRA,-7.040104371569791,41.13999422994671
pt.ine.add.PTCONT.862395,,,5160-062,CARVIÇAIS,-6.813482971461181,41.17444744477795
pt.ine.add.PTCONT.862270,R MANUEL SENDAS,,5160-041,CARDANHA,-7.033780756942192,41.25534864530682
pt.ine.add.PTCONT.862271,QTA DO CORISCO,11,5160-091,FELGUEIRAS TMC,-6.964592395203035,41.16342005494868
pt.ine.add.PTCONT.862272,R DA ESCOLA,11,5160-101,HORTA DA VILARIÇA,-7.120901297425411,41.23238585945593
pt.ine.add.PTCONT.862273,R DA FRÁGUA,2,5160-401,URROS,-7.025187281996371,41.08364731446139
pt.ine.add.PTCONT.862275,BR DA CHOUZA,1,5160-101,HORTA DA VILARIÇA,-7.116998561961668,41.230235523756505
pt.ine.add.PTCONT.862276,R GEN ALÍPIO TOMÉ PINTO,25,5160-141,MAÇORES,-7.001463905829315,41.12697920597316
pt.ine.add.PTCONT.862277,AV DOS COMBATENTES DA GRANDE GUERRA,19,5160-217,TORRE DE MONCORVO,-7.051995551361759,41.1723503965728
pt.ine.add.PTCONT.862278,R MANUEL SENDAS,,5160-041,CARDANHA,-7.035107807655082,41.25519023336479
pt.ine.add.PTCONT.862279,LG DA IGREJA,2,5160-090,FELGAR,-6.957613131186533,41.211241769955365
pt.ine.add.PTCONT.862280,R DO CABEÇO,28,5160-133,LOUSA TMC,-7.178430103876443,41.16655262800431
pt.ine.add.PTCONT.862281,R DA BACORINHA,4,5160-152,MÓS TMC,-6.907416150146922,41.16263666650699
pt.ine.add.PTCONT.862283,R DAS CORTINHAS,15,5160-091,FELGUEIRAS TMC,-7.011114129694621,41.15466241208185
pt.ine.add.PTCONT.862284,R DO CARRASCAL,6,5160-152,MÓS TMC,-6.906405320644406,41.15997869804457
pt.ine.add.PTCONT.862285,R DO PRADO DE BAIXO,21,5160-230,TORRE DE MONCORVO,-7.0522559064258585,41.1797092253552
pt.ine.add.PTCONT.862287,BR DO MONTINHO,4,5160-091,FELGUEIRAS TMC,-7.006801624302829,41.151874052543086
pt.ine.add.PTCONT.862288,R DO REMADEIRO,6,5160-091,FELGUEIRAS TMC,-7.013169034348017,41.15361992067913
pt.ine.add.PTCONT.862289,R DA FONTE,12,5160-152,MÓS TMC,-6.9062544974283515,41.15976099298458
pt.ine.add.PTCONT.862290,BR DE MONTESINHO,22,5160-304,TORRE DE MONCORVO,-7.048157333582988,41.177473676512776
pt.ine.add.PTCONT.862292,R DOS PALHEIRINHOS,18,5160-152,MÓS TMC,-6.904050832038318,41.15973749747939
pt.ine.add.PTCONT.862294,R DE STO ANTÓNIO,10,5160-071,CASTEDO TMC,-7.167504992890196,41.23377657924601
pt.ine.add.PTCONT.862295,R DA NOGUEIRA,,5160-091,FELGUEIRAS TMC,-7.012181950600087,41.153520276824814
pt.ine.add.PTCONT.862296,R ABÍLIO COSTA,5,5160-134,LOUSA TMC,-7.176693144398632,41.16882528485985
pt.ine.add.PTCONT.862297,R DO CARRASCAL,11,5160-271,TORRE DE MONCORVO,-7.058341451487397,41.17706493648066
pt.ine.add.PTCONT.862300,R DA AROXEIRA,,5160-031,CABEÇA BOA,-7.123138064230162,41.1916618766072
pt.ine.add.PTCONT.862301,R DA NOGUEIRA,,5160-091,FELGUEIRAS TMC,-7.012387811686413,41.15332418857219
pt.ine.add.PTCONT.862302,R DE BAIXO,33,5160-152,MÓS TMC,-6.906838009910957,41.15849762833134
pt.ine.add.PTCONT.862304,R DA CAPELA,,5160-022,ADEGANHA,-7.0600220086570085,41.29883340733564
pt.ine.add.PTCONT.862305,R DO FUNDO DO POVO,19,5160-071,CASTEDO TMC,-7.166348033375482,41.23296550587546
pt.ine.add.PTCONT.862306,BR DA CASA DO POVO,24,5160-089,FELGAR,-6.960797843683112,41.2065020883878
pt.ine.add.PTCONT.862307,BR DA CASA DO POVO,23,5160-089,FELGAR,-6.9608584099328565,41.206448680634026
pt.ine.add.PTCONT.862308,R DE STO ANTÓNIO,41,5160-228,TORRE DE MONCORVO,-7.0586989177143025,41.17633893618213
pt.ine.add.PTCONT.862309,R TOMÁS RIBEIRO,11,5160-294,TORRE DE MONCORVO,-7.052762995967293,41.17495979670002
pt.ine.add.PTCONT.862311,R DA PREGUIÇA,15,5160-031,CABEÇA BOA,-7.122369958492296,41.186576796727344
pt.ine.add.PTCONT.862312,R DO CIMO DO LUGAR,,5160-071,CASTEDO TMC,-7.170006618027537,41.231555510427384
pt.ine.add.PTCONT.862313,R DR ANTÓNIO EMÍLIO ANDRÊS,25,5160-288,TORRE DE MONCORVO,-7.0571455947611685,41.17294787921617
pt.ine.add.PTCONT.862314,R DO HOSPITAL VELHO,,5160-272,TORRE DE MONCORVO,-7.054639866473651,41.174599213582795
pt.ine.add.PTCONT.862315,EN 220,,5160-069,CARVIÇAIS,-6.88076900617295,41.18297832497392
pt.ine.add.PTCONT.862319,R DIREITA,13,5160-069,CARVIÇAIS,-6.894425125045392,41.18119915449577
pt.ine.add.PTCONT.862320,R DO CRUZEIRO,,5160-134,LOUSA TMC,-7.175636416547119,41.17674920044518
pt.ine.add.PTCONT.862322,R DO CIMO DO POVO,,5160-041,CARDANHA,-7.032364437793167,41.256559658113844
pt.ine.add.PTCONT.862323,BR DA MOITA,5,5160-081,FELGAR,-6.9702470996483825,41.18323231277877
pt.ine.add.PTCONT.862324,R DO FUNDO DO POVO,10,5160-101,HORTA DA VILARIÇA,-7.1221170241818195,41.23399026349763
pt.ine.add.PTCONT.862325,R DO CRUZEIRO,3,5160-134,LOUSA TMC,-7.175449554352499,41.17075985825594
pt.ine.add.PTCONT.862351,R GRANDE,23,5160-401,URROS,-7.024982285723013,41.083807419900346
pt.ine.add.PTCONT.862354,R DO DIVINO ESPÍRITO SANTO,4,5160-401,URROS,-7.021551990847402,41.08186547103668
pt.ine.add.PTCONT.862356,LG DA ESTAÇÃO,106,5160-069,CARVIÇAIS,-6.8846168425319165,41.18244384580549
pt.ine.add.PTCONT.863015,,,5160-313,TORRE DE MONCORVO,-7.058790406748795,41.18167924550534
pt.ine.add.PTCONT.863010,AV JOÃO PAULO II,2,5160-219,TORRE DE MONCORVO,-7.051066212476315,41.17234166890417
pt.ine.add.PTCONT.863014,R DO CABEÇO DA IGREJA,5,5160-101,HORTA DA VILARIÇA,-7.121989177711691,41.23222434046946
pt.ine.add.PTCONT.863017,R DO CABEÇO,3,5160-133,LOUSA TMC,-7.178655163758451,41.16664453535225
pt.ine.add.PTCONT.863018,R DO CABEÇO,63,5160-133,LOUSA TMC,-7.179120433860577,41.165783986330084
pt.ine.add.PTCONT.863019,R DO CIMO DO POVO,,5160-091,FELGUEIRAS TMC,-7.0143248373965355,41.1543064655383
pt.ine.add.PTCONT.863020,R DOS SAPATEIROS,62,5160-278,TORRE DE MONCORVO,-7.050961866968527,41.176509607724995
pt.ine.add.PTCONT.863023,,,5160-063,CARVIÇAIS,-6.82687275364831,41.15308039201854
pt.ine.add.PTCONT.863024,,,5160-063,CARVIÇAIS,-6.826589479347556,41.15234784855992
pt.ine.add.PTCONT.863025,LG DA LAMEIRA,,5160-114,LARINHO,-7.010891250773145,41.20472315278293
pt.ine.add.PTCONT.863026,LG DA LAMEIRA,,5160-114,LARINHO,-7.010891250773145,41.20472315278293
pt.ine.add.PTCONT.863027,R DA IGREJA,5,5160-152,MÓS TMC,-6.90793438489116,41.15976086742186
pt.ine.add.PTCONT.863028,R DA FONTE,16,5160-152,MÓS TMC,-6.906001832517599,41.15989336278431
pt.ine.add.PTCONT.863029,TV DE S SEBASTIÃO,30,5160-228,TORRE DE MONCORVO,-7.059660101611604,41.17732034689246
pt.ine.add.PTCONT.863030,R DA MISERICÓRDIA,71,5160-254,TORRE DE MONCORVO,-7.052043203681727,41.176699846151955
pt.ine.add.PTCONT.863032,R DO CASTELO,38,5160-071,CASTEDO TMC,-7.168239852619795,41.23413204474568
pt.ine.add.PTCONT.863033,R DAS EIRAS,17,5160-089,FELGAR,-6.957681295772027,41.2074337510966
pt.ine.add.PTCONT.863034,R DO CONCELHO,,5160-114,LARINHO,-7.0125248877031865,41.20540536422999
pt.ine.add.PTCONT.863035,R DO POÇO,69,5160-274,TORRE DE MONCORVO,-7.051564070318728,41.17684841794066
pt.ine.add.PTCONT.863037,R NOVA,37,5160-292,TORRE DE MONCORVO,-7.051794243235007,41.17589614019016
pt.ine.add.PTCONT.863040,R ADRIANO PAULA,1,5160-021,ADEGANHA,-7.051222164388279,41.27501655306743
pt.ine.add.PTCONT.863041,R A,4,5160-079,FELGAR,-6.960915893087287,41.20590001816812
pt.ine.add.PTCONT.863042,AV JORGE LUIS BORGES,56,5160-220,TORRE DE MONCORVO,-7.041316881547758,41.17603139779775
pt.ine.add.PTCONT.863043,R DA TRANCA,,5160-132,LOUSA TMC,-7.173960477736519,41.16746093399198
pt.ine.add.PTCONT.863044,R DIANTE,47,5160-161,PEREDO DOS CASTELHANOS,-7.076000705140086,41.10896752424868
pt.ine.add.PTCONT.863045,R DR JOÃO LEONARDO,19,5160-280,TORRE DE MONCORVO,-7.054108322562188,41.17358577032699
pt.ine.add.PTCONT.863048,R DO PENDÃO,8,5160-102,HORTA DA VILARIÇA,-7.1475409472448606,41.24311573524625
pt.ine.add.PTCONT.863049,R DA FRÁGUA,15,5160-041,CARDANHA,-7.0339020260066185,41.256655385419414
pt.ine.add.PTCONT.863050,R DAS AMOREIRAS,16,5160-074,FELGAR,-6.957995575512635,41.21319054830225
pt.ine.add.PTCONT.863051,BR EDM,,5160-081,FELGAR,-6.961546823867055,41.18589938330703
pt.ine.add.PTCONT.863053,R NOVA,36,5160-075,FELGAR,-6.95829135922143,41.21265332364125
pt.ine.add.PTCONT.863054,R PRIOR DO CRATO,31,5160-276,TORRE DE MONCORVO,-7.051042273831229,41.174520447500015
pt.ine.add.PTCONT.863055,R PRIOR DO CRATO,31,5160-276,TORRE DE MONCORVO,-7.051042273831229,41.174520447500015
pt.ine.add.PTCONT.863056,R PRIOR DO CRATO,31,5160-276,TORRE DE MONCORVO,-7.051042273831229,41.174520447500015
pt.ine.add.PTCONT.863057,R PRIOR DO CRATO,31,5160-276,TORRE DE MONCORVO,-7.051042273831229,41.174520447500015
pt.ine.add.PTCONT.863058,AV JORGE LUIS BORGES,42,5160-220,TORRE DE MONCORVO,-7.051042273831229,41.174520447500015
pt.ine.add.PTCONT.863059,R PRIOR DO CRATO,31,5160-276,TORRE DE MONCORVO,-7.051042273831229,41.174520447500015
pt.ine.add.PTCONT.863060,R PRIOR DO CRATO,31,5160-276,TORRE DE MONCORVO,-7.051042273831229,41.174520447500015
pt.ine.add.PTCONT.863061,R DA FRÁGUA,11,5160-401,URROS,-7.025386229662947,41.08384732137044
pt.ine.add.PTCONT.863064,R DA FONTE DA PEREIRA,17,5160-141,MAÇORES,-7.003422559977661,41.12734059072488
pt.ine.add.PTCONT.863093,R DA GARREIRA,,5160-091,FELGUEIRAS TMC,-7.012783236445917,41.1545886179948
pt.ine.add.PTCONT.863099,TV DO CARRASCAL,27,5160-228,TORRE DE MONCORVO,-7.058509449271617,41.17626513527768
pt.ine.add.PTCONT.863103,R PRIOR DO CRATO,31,5160-276,TORRE DE MONCORVO,-7.051042273831229,41.174520447500015
pt.ine.add.PTCONT.863110,LG DO FERREIRO,14,5160-239,TORRE DE MONCORVO,-7.056842628914566,41.17616853310165
pt.ine.add.PTCONT.863213,R DO CALVÁRIO,8,5160-161,PEREDO DOS CASTELHANOS,-7.0757323878483716,41.106398848840314
pt.ine.add.PTCONT.863255,R DA ESTAÇÃO,9,5160-081,FELGAR,-6.969965792439581,41.18498527076996
pt.ine.add.PTCONT.863256,EN 220,25,5160-081,FELGAR,-6.981101481398769,41.18273813091378
pt.ine.add.PTCONT.863257,EM 613,,5160-081,FELGAR,-6.967955131599834,41.192177220581804
pt.ine.add.PTCONT.863258,R DO FORNO,,5160-091,FELGUEIRAS TMC,-7.012741002827659,41.1535707370678
pt.ine.add.PTCONT.863259,R DO CABEÇO,2,5160-101,HORTA DA VILARIÇA,-7.123680169086338,41.23394995388536
pt.ine.add.PTCONT.863260,R DO CABEÇO DA IGREJA,8,5160-101,HORTA DA VILARIÇA,-7.122395346091946,41.232182886190664
pt.ine.add.PTCONT.863288,R DOS FORNOS,15,5160-114,LARINHO,-7.014810817938687,41.206291979042355
pt.ine.add.PTCONT.863289,R DA CRUZ,,5160-114,LARINHO,-7.012979719538224,41.20320378880072
pt.ine.add.PTCONT.863309,R DO SANTO,12,5160-134,LOUSA TMC,-7.1759715865893305,41.170097887085575
pt.ine.add.PTCONT.863310,R DO FUNDO DA ALDEIA,,5160-132,LOUSA TMC,-7.174238209572897,41.16639174636885
pt.ine.add.PTCONT.863311,R DO PELOURINHO,1,5160-133,LOUSA TMC,-7.177495185417076,41.16693205550124
pt.ine.add.PTCONT.863312,R DO ESPÍRITO SANTO,7,5160-132,LOUSA TMC,-7.177219439891466,41.16458867369402
pt.ine.add.PTCONT.863313,R GEN ALÍPIO TOMÉ PINTO,2,5160-141,MAÇORES,-7.0009856464649545,41.12709156108416
pt.ine.add.PTCONT.863351,R DA FONTE,15,5160-152,MÓS TMC,-6.906119942369889,41.15994864577161
pt.ine.add.PTCONT.863352,R DO CANTO,,5160-161,PEREDO DOS CASTELHANOS,-7.07376908483854,41.107821493355864
pt.ine.add.PTCONT.863353,LG DA AMOREIRA,,5160-161,PEREDO DOS CASTELHANOS,-7.0737151051546325,41.10821718419123
pt.ine.add.PTCONT.863354,R DA SERRINHA,1,5160-171,SOUTO DA VELHA,-6.937710455428769,41.20810154897145
pt.ine.add.PTCONT.863401,QTA DO CORICACHO,,5160-200,TORRE DE MONCORVO,-7.034982413754284,41.179987015430626
pt.ine.add.PTCONT.863402,R DO PRADO DE CIMA,26,5160-231,TORRE DE MONCORVO,-7.052813938881487,41.17766151749325
pt.ine.add.PTCONT.863403,R DO PRADO DE CIMA,26,5160-231,TORRE DE MONCORVO,-7.052813938881487,41.17766151749325
pt.ine.add.PTCONT.863404,R VASCO DA GAMA,48,5160-297,TORRE DE MONCORVO,-7.0511795607524785,41.174143563203806
pt.ine.add.PTCONT.863424,R D FR BARTOLOMEU DOS MÁRTIRES,12,5160-277,TORRE DE MONCORVO,-7.05760305380668,41.17339335546898
