id,street,house,postcode,city,lon,lat
pt.ine.add.PTCONT.5287104,R DE S JOSÉ,,5430-011,ÁGUA REVÊS E CRASTO,-7.342228025852389,41.55778221486361
pt.ine.add.PTCONT.5287105,R DE CIMA,2,5445-012,ARGERIZ,-7.358971217685179,41.566053470234934
pt.ine.add.PTCONT.5287106,R DO LOMBO,4,5430-031,BARREIROS VLP,-7.230115184031438,41.68488752979641
pt.ine.add.PTCONT.5287107,R DA BANDEIRA,2,5430-047,BOUÇOÃES,-7.210061906404183,41.76349863814265
pt.ine.add.PTCONT.5287108,R DO TRINTÁRIO,14,5430-042,BOUÇOÃES,-7.210099051860653,41.74076555233862
pt.ine.add.PTCONT.5287109,AV ENG FRANCISCO BATISTA TAVARES,4,5430-042,BOUÇOÃES,-7.206269402175207,41.74208522364529
pt.ine.add.PTCONT.5287110,AV COSTA GOMES,52 A,5430-075,ERVÕES,-7.3485096918961625,41.676537267670625
pt.ine.add.PTCONT.5287111,ESTRADA MUNICIPAL,7,5430-076,ERVÕES,-7.380742607305754,41.634211189577826
pt.ine.add.PTCONT.5287112,R ENG FRANCISCO BATISTA TAVARES,45,5430-167,LEBUÇÃO,-7.258192123235531,41.75605136830592
pt.ine.add.PTCONT.5287113,R CENTRAL,,5445-043,PADRELA E TÁZEM,-7.491295857214906,41.56911916272936
pt.ine.add.PTCONT.5287114,R CENTRAL,,5445-043,PADRELA E TÁZEM,-7.493706099365842,41.56907856930567
pt.ine.add.PTCONT.5287115,R DA BOAVISTA,65,5445-045,PADRELA E TÁZEM,-7.49056752331334,41.551873033776936
pt.ine.add.PTCONT.5287116,BR DA FONTE,9,5430-191,POSSACOS,-7.274117547816717,41.615663851470195
pt.ine.add.PTCONT.5287117,R DA IGREJA,4,5430-191,POSSACOS,-7.274049887773638,41.61352950454969
pt.ine.add.PTCONT.5287118,EN 206,69,5430-191,POSSACOS,-7.277441586908238,41.61470725523528
pt.ine.add.PTCONT.5287119,R DO SANTO,,5445-067,SANTIAGO RIBEIRA ALHARIZ,-7.398430861062583,41.63329919830725
pt.ine.add.PTCONT.5287120,R DIREITA,,5445-073,SANTIAGO RIBEIRA ALHARIZ,-7.420502657421808,41.626604443176866
pt.ine.add.PTCONT.5287121,R DA IGREJA,,5445-071,SANTIAGO RIBEIRA ALHARIZ,-7.401554250066722,41.61497884972547
pt.ine.add.PTCONT.5287122,R DO CRUZEIRO,,5445-064,SANTIAGO RIBEIRA ALHARIZ,-7.4089620942023755,41.60914640901229
pt.ine.add.PTCONT.5287123,R DA PONTE,,5430-293,TINHELA,-7.305877498593843,41.72526196918661
pt.ine.add.PTCONT.5287124,LG DO TERREIRO,,5430-404,VALPAÇOS,-7.295817215911679,41.62991449823161
pt.ine.add.PTCONT.5287125,R DO ESTÁDIO DA CRUZ,,5430-461,VALPAÇOS,-7.310650294395372,41.611933454275814
pt.ine.add.PTCONT.5287126,R DA LAGE,12,5430-404,VALPAÇOS,-7.295407257372162,41.63006457137302
pt.ine.add.PTCONT.5287164,R DAS HORTAS,,5430-008,ÁGUA REVÊS E CRASTO,-7.320789681036627,41.54289376310445
pt.ine.add.PTCONT.5287165,R DAS LADEIRAS,7,5430-022,ALVARELHOS VLP,-7.33985910200186,41.70521689834825
pt.ine.add.PTCONT.5287166,R CENTRAL,6,5430-022,ALVARELHOS VLP,-7.339574036824763,41.70201871241313
pt.ine.add.PTCONT.5287167,BR DE ALÉM,13,5445-013,ARGERIZ,-7.403897305647567,41.59868822451243
pt.ine.add.PTCONT.5287168,BR DE S JOÃO,4,5445-011,ARGERIZ,-7.387927403098589,41.58869084939812
pt.ine.add.PTCONT.5287169,R DE NSA SRA DO PRANTO,8,5445-011,ARGERIZ,-7.384143644393023,41.58713564691621
pt.ine.add.PTCONT.5287170,R DA ESCOLA,,5445-014,ARGERIZ,-7.402612734625104,41.583896126199065
pt.ine.add.PTCONT.5287171,R DA ESCOLA,2,5445-014,ARGERIZ,-7.402116012993308,41.58328072216898
pt.ine.add.PTCONT.5287172,R DO ATALHO,97,5430-052,CANAVESES,-7.3645760804607034,41.50378548716453
pt.ine.add.PTCONT.5287173,R DAS CARREIAS,,5445-101,CARRAZEDO DE MONTENEGRO,-7.426886442976074,41.582616213530244
pt.ine.add.PTCONT.5287174,BR DA CAPELA,,5445-101,CARRAZEDO DE MONTENEGRO,-7.421270832794331,41.5829327241236
pt.ine.add.PTCONT.5287175,R DE STO ANTÓNIO,30,5445-109,CARRAZEDO DE MONTENEGRO,-7.411044656268128,41.562223584414994
pt.ine.add.PTCONT.5287176,R DE STO ANTÓNIO,60,5445-109,CARRAZEDO DE MONTENEGRO,-7.411711687407322,41.56045404872092
pt.ine.add.PTCONT.5287177,R DR FRANCISCO SÁ CARNEIRO,104,5445-160,CARRAZEDO DE MONTENEGRO,-7.43500911341204,41.5632899537664
pt.ine.add.PTCONT.5287178,R DO SOUTO,14,5430-100,FORNOS DO PINHAL,-7.264074127943214,41.65149439302419
pt.ine.add.PTCONT.5287179,R DE S ROQUE,,5430-127,FRIÕES,-7.39653061588468,41.68317551143186
pt.ine.add.PTCONT.5287180,R DE S TOMÉ,,5430-122,FRIÕES,-7.3976642637066385,41.66588706807833
pt.ine.add.PTCONT.5287181,BC DA ALEGRIA,,5430-122,FRIÕES,-7.398180507195027,41.66483696033924
pt.ine.add.PTCONT.5287182,TV DO ESCALÃO,,5430-122,FRIÕES,-7.397911764051122,41.6652403992814
pt.ine.add.PTCONT.5287183,R MANUEL JOSÉ VIEIRA,12,5430-191,POSSACOS,-7.273383281215296,41.61403772347449
pt.ine.add.PTCONT.5287184,R DAS ROSEIRAS,2,5430-191,POSSACOS,-7.275722013032121,41.61319084962581
pt.ine.add.PTCONT.5287185,R DAS ROSEIRAS,3,5430-191,POSSACOS,-7.275747555218881,41.61307399394415
pt.ine.add.PTCONT.5287186,R DO CRUZEIRO,5,5430-191,POSSACOS,-7.274399091755078,41.61343307454881
pt.ine.add.PTCONT.5287187,R DA IGREJA,21,5430-191,POSSACOS,-7.2739447890893425,41.613312633861305
pt.ine.add.PTCONT.5287188,BR DA ESTRADA,3,5445-082,SÃO JOÃO DA CORVEIRA,-7.445657018737774,41.5868086289088
pt.ine.add.PTCONT.5287189,R DO CALÇÃO,2,5430-493,VALPAÇOS,-7.274250093269667,41.59391222886776
pt.ine.add.PTCONT.5287190,R D MARIA DO CARMO CARMONA,244,5430-469,VALPAÇOS,-7.314252724965738,41.630641538976874
pt.ine.add.PTCONT.5287191,R DR JÚLIO DO CARVALHAL,15,5430-481,VALPAÇOS,-7.309926913989471,41.610325641977674
pt.ine.add.PTCONT.5287192,R DR JÚLIO DO CARVALHAL,15,5430-481,VALPAÇOS,-7.309926913989471,41.610325641977674
pt.ine.add.PTCONT.5287193,AV ENG LUIS DE CASTRO SARAIVA,,5430-472,VALPAÇOS,-7.3098178546510315,41.608524147438494
pt.ine.add.PTCONT.5287194,AV ENG LUIS DE CASTRO SARAIVA,,5430-472,VALPAÇOS,-7.3098178546510315,41.608524147438494
pt.ine.add.PTCONT.5287195,AV ENG LUIS DE CASTRO SARAIVA,,5430-472,VALPAÇOS,-7.3098178546510315,41.608524147438494
pt.ine.add.PTCONT.5287196,AV ENG LUIS DE CASTRO SARAIVA,,5430-472,VALPAÇOS,-7.3098178546510315,41.608524147438494
pt.ine.add.PTCONT.5287197,AV ENG LUIS DE CASTRO SARAIVA,,5430-472,VALPAÇOS,-7.3098178546510315,41.608524147438494
pt.ine.add.PTCONT.5287198,R DE PÊRO GALEGO,19,5430-424,VALPAÇOS,-7.304258696526877,41.600462015979204
pt.ine.add.PTCONT.5287199,TV DO SARDÃO,,5430-424,VALPAÇOS,-7.305042870182937,41.59448028314104
pt.ine.add.PTCONT.5287200,R 3,12,5430-424,VALPAÇOS,-7.304202114104466,41.603945992426766
pt.ine.add.PTCONT.5287201,R MÁRIO GAVAIA DA CRUZ COUTINHO,45,5430-424,VALPAÇOS,-7.304778658146349,41.60388712305762
pt.ine.add.PTCONT.5287202,TV DA R DIREITA,,5430-603,VASSAL,-7.355423077185715,41.61697193686187
pt.ine.add.PTCONT.5287203,TV DO CRUZEIRO,,5430-603,VASSAL,-7.355769376870959,41.61511054019203
pt.ine.add.PTCONT.5287204,ALTO DA COTOVIA,,5430-601,VASSAL,-7.332437412515771,41.60802665428195
pt.ine.add.PTCONT.5287225,R DA TORRE,12,5445-165,CARRAZEDO DE MONTENEGRO,-7.427985688018615,41.56313905316305
pt.ine.add.PTCONT.5287226,,,5445-032,CURROS VLP,-7.460138841881034,41.50871517966712
pt.ine.add.PTCONT.5287227,,,5445-032,CURROS VLP,-7.458891773017203,41.507690450638705
pt.ine.add.PTCONT.5287228,,,5445-032,CURROS VLP,-7.459976393657621,41.50589605118012
pt.ine.add.PTCONT.5287229,R CABO,3,5445-032,CURROS VLP,-7.460098822969414,41.50448317637329
pt.ine.add.PTCONT.5287230,R DA FONTE DE BAIXO,,5430-121,FRIÕES,-7.398611158669256,41.649128576183664
pt.ine.add.PTCONT.5287231,R ENG FRANCISCO TAVARES,,5430-168,LEBUÇÃO,-7.266227939467207,41.773632736310695
pt.ine.add.PTCONT.5287232,R DOS SOUTOS,45,5430-164,LEBUÇÃO,-7.257078226492212,41.75750141924638
pt.ine.add.PTCONT.5287233,R DO OUTEIRO,15,5430-164,LEBUÇÃO,-7.257709659146133,41.757047062537396
pt.ine.add.PTCONT.5287234,R DA PIPA,11,5445-052,SANTA MARIA DE EMERES,-7.382531656108595,41.54406065611035
pt.ine.add.PTCONT.5287235,R DA MADALENA,25,5430-234,SANTA VALHA,-7.268324611047186,41.684623193330665
pt.ine.add.PTCONT.5287236,ESTR DE GORGOÇO,,5430-233,SANTA VALHA,-7.257756504450731,41.676557128274936
pt.ine.add.PTCONT.5287237,R DA EIRA PEDRINHA,4,5445-095,SERAPICOS VLP,-7.4379751952967395,41.61536691737881
pt.ine.add.PTCONT.5287238,EN 314,17,5445-095,SERAPICOS VLP,-7.437346706873472,41.61356239690369
pt.ine.add.PTCONT.5287239,R DA IGREJA,,5445-095,SERAPICOS VLP,-7.439991139896399,41.611975731492386
pt.ine.add.PTCONT.5287240,R DA VEIGA,,5430-293,TINHELA,-7.306003806110304,41.726658403467255
pt.ine.add.PTCONT.5287241,R DA FONTE,,5430-293,TINHELA,-7.305393233257622,41.72553758683902
pt.ine.add.PTCONT.5287242,R SOTTO MAYOR,25,5430-503,VALPAÇOS,-7.3165951156977425,41.60953586604117
pt.ine.add.PTCONT.5287243,R DE MOÇAMBIQUE,3,5430-403,VALPAÇOS,-7.318524371509682,41.60971161707111
pt.ine.add.PTCONT.5287244,R SOTTO MAYOR,6,5430-503,VALPAÇOS,-7.316261637879002,41.60649028975155
pt.ine.add.PTCONT.5287245,LG AMOREIRAS,7,5430-441,VALPAÇOS,-7.309810484000624,41.606273201948134
pt.ine.add.PTCONT.5287246,AV DE NSA SRA DA ENCARNAÇÃO,,5430-603,VASSAL,-7.353543472550253,41.60965730783172
pt.ine.add.PTCONT.5287247,R DAS ALMAS,16,5430-620,VEIGA DE LILA,-7.323481552122861,41.52212322802433
pt.ine.add.PTCONT.5287248,R DAS ALMAS,44,5430-620,VEIGA DE LILA,-7.321397917131202,41.52012772425156
pt.ine.add.PTCONT.5287249,TV DA PORTELA,,5430-650,VILARANDELO,-7.3254015922749565,41.66521287590579
pt.ine.add.PTCONT.5287250,R DOS EMIGRANTES,,5430-660,VILARANDELO,-7.327264314150284,41.665081895618265
pt.ine.add.PTCONT.5287294,AV ENG LUIS DE CASTRO SARAIVA,16,5430-472,VALPAÇOS,-7.309378949219528,41.608133849833095
pt.ine.add.PTCONT.5287295,R DR JÚLIO DO CARVALHAL,15,5430-481,VALPAÇOS,-7.309926913989471,41.610325641977674
pt.ine.add.PTCONT.5287296,R DR JÚLIO DO CARVALHAL,15,5430-481,VALPAÇOS,-7.309926913989471,41.610325641977674
pt.ine.add.PTCONT.5287297,R DR JÚLIO DO CARVALHAL,15,5430-481,VALPAÇOS,-7.309926913989471,41.610325641977674
pt.ine.add.PTCONT.5287298,R DR JÚLIO DO CARVALHAL,15,5430-481,VALPAÇOS,-7.309926913989471,41.610325641977674
pt.ine.add.PTCONT.5287299,R DR JÚLIO DO CARVALHAL,15,5430-481,VALPAÇOS,-7.309926913989471,41.610325641977674
pt.ine.add.PTCONT.5287300,R DOS HERÓIS DO ULTRAMAR,24,5430-476,VALPAÇOS,-7.310427946970293,41.605827443692455
pt.ine.add.PTCONT.5287301,R DOS HERÓIS DO ULTRAMAR,24,5430-476,VALPAÇOS,-7.310427946970293,41.605827443692455
pt.ine.add.PTCONT.5287302,BC DAS HORTAS,4,5430-643,VILARANDELO,-7.321315551838839,41.66263610113943
pt.ine.add.PTCONT.5287303,R D AMÉLIA CASTELO,4,5430-659,VILARANDELO,-7.320770584341471,41.65632080167338
pt.ine.add.PTCONT.5287417,R DA ESTRADA,,5445-069,SANTIAGO RIBEIRA ALHARIZ,-7.3938785440710815,41.60317105891484
pt.ine.add.PTCONT.5287420,AV ENG LUIS DE CASTRO SARAIVA,,5430-472,VALPAÇOS,-7.3098178546510315,41.608524147438494
pt.ine.add.PTCONT.5287426,R ENG FRANCISCO BATISTA TAVARES,13,5430-620,VEIGA DE LILA,-7.325052421488706,41.52393501764247
pt.ine.add.PTCONT.5287434,R D AMÉLIA CASTELO,,5430-659,VILARANDELO,-7.320303686813312,41.66099031457555
pt.ine.add.PTCONT.5287463,R DAS ADEGAS,,5430-011,ÁGUA REVÊS E CRASTO,-7.3516379482044885,41.55479431278138
pt.ine.add.PTCONT.5287470,R DO POMBAL,10,5430-167,LEBUÇÃO,-7.258178183855187,41.75707764146886
pt.ine.add.PTCONT.5287485,EN 213,,5430-120,FRIÕES,-7.374844362455689,41.69097553013279
pt.ine.add.PTCONT.5287499,R PRINCIPAL,4,5445-102,CARRAZEDO DE MONTENEGRO,-7.393966581165041,41.57127178632959
pt.ine.add.PTCONT.5287543,R FRANCISCO MORAIS,31,5430-090,FIÃES VLP,-7.259835065986264,41.73774206570947
pt.ine.add.PTCONT.5287548,R DA CERCA,2,5445-014,ARGERIZ,-7.401976907611555,41.58498152379422
pt.ine.add.PTCONT.5287549,R DO TANQUE,1,5445-014,ARGERIZ,-7.402638644805383,41.583725221832225
pt.ine.add.PTCONT.5287557,R DE STO ANTÓNIO,39,5445-109,CARRAZEDO DE MONTENEGRO,-7.41192782501874,41.56149983011657
pt.ine.add.PTCONT.5287558,R DA ALEGRIA,7,5430-158,LEBUÇÃO,-7.260949782873809,41.756630541794166
pt.ine.add.PTCONT.5287570,R DA FONTE,29,5430-053,CANAVESES,-7.361847351718048,41.519757848460834
pt.ine.add.PTCONT.5287585,R DO CANTO,10,5445-012,ARGERIZ,-7.363595692440835,41.566318608039616
pt.ine.add.PTCONT.5287605,BR DO PONTÃO,26,5430-236,SANTA VALHA,-7.27342201995907,41.6851566272211
pt.ine.add.PTCONT.5287606,R DA PADARIA,,5430-234,SANTA VALHA,-7.266042178332905,41.68375967208281
pt.ine.add.PTCONT.5287607,R DA MADALENA,,5430-234,SANTA VALHA,-7.269838302120735,41.683698215840714
pt.ine.add.PTCONT.5287615,R DO CANTO ALEGRE,3,5430-158,LEBUÇÃO,-7.257231778307977,41.75593601110408
pt.ine.add.PTCONT.5287627,BR DA CAPELA,,5445-101,CARRAZEDO DE MONTENEGRO,-7.420201159888596,41.58315118729145
pt.ine.add.PTCONT.5287628,R DA CAPELA,13,5430-180,NOZELOS,-7.289042505995256,41.754445477858006
pt.ine.add.PTCONT.5287629,R CENTRAL,,5445-043,PADRELA E TÁZEM,-7.500563057368744,41.56917051843016
pt.ine.add.PTCONT.5287630,TV DA IGREJA,2,5445-043,PADRELA E TÁZEM,-7.493592695110723,41.56842067032618
pt.ine.add.PTCONT.5287643,R SOUTO,6,5430-047,BOUÇOÃES,-7.210300653071446,41.761942984446044
pt.ine.add.PTCONT.5287644,R DE STO ANTÓNIO,12,5445-109,CARRAZEDO DE MONTENEGRO,-7.410561159473376,41.562580693769156
pt.ine.add.PTCONT.5287650,ESTR DE POILÃO,25,5430-013,ÁGUA REVÊS E CRASTO,-7.321681906148771,41.560673286752724
pt.ine.add.PTCONT.5287651,R PRINCIPAL,31,5430-013,ÁGUA REVÊS E CRASTO,-7.324635637641173,41.56125231955244
pt.ine.add.PTCONT.5287652,R DE S JOSÉ,,5430-011,ÁGUA REVÊS E CRASTO,-7.343853427763937,41.55818054053279
pt.ine.add.PTCONT.5287653,R DO RIGUENGO,15,5430-047,BOUÇOÃES,-7.210988798457982,41.760913129549586
pt.ine.add.PTCONT.5287668,R DE S JOSÉ,5,5430-011,ÁGUA REVÊS E CRASTO,-7.343628210207603,41.55797191030279
pt.ine.add.PTCONT.5287669,BR DO DEPÓSITO,,5445-101,CARRAZEDO DE MONTENEGRO,-7.4258492130701015,41.579863727251976
pt.ine.add.PTCONT.5287670,BR DA ADEGA,,5445-152,CARRAZEDO DE MONTENEGRO,-7.436119596285015,41.56258540056131
pt.ine.add.PTCONT.5287671,R MONSENHOR SILVINO NOBREGA,14,5445-162,CARRAZEDO DE MONTENEGRO,-7.426867728569225,41.56342030924876
pt.ine.add.PTCONT.5287672,,,5445-032,CURROS VLP,-7.4595775518546015,41.507397344694
pt.ine.add.PTCONT.5287673,AV COSTA GOMES,31,5430-075,ERVÕES,-7.348973323021004,41.67593719906905
pt.ine.add.PTCONT.5287674,CC DA LAPA,1,5430-075,ERVÕES,-7.347105807957574,41.67446587900144
pt.ine.add.PTCONT.5287682,EN 103,11,5430-044,BOUÇOÃES,-7.203268763366062,41.75009194724098
pt.ine.add.PTCONT.5287683,R DA ESTRADA,,5445-109,CARRAZEDO DE MONTENEGRO,-7.412695463308142,41.554985983011704
pt.ine.add.PTCONT.5287684,R DA CAPELA,7,5430-077,ERVÕES,-7.370512514236083,41.666187305338426
pt.ine.add.PTCONT.5287685,LG DO CRUZEIRO,8,5430-072,ERVÕES,-7.3727566598539225,41.64485484451784
pt.ine.add.PTCONT.5287686,R DO ADRO,8,5430-100,FORNOS DO PINHAL,-7.264897066716095,41.65278811127247
pt.ine.add.PTCONT.5287693,TV DA LIBERDADE,,5445-011,ARGERIZ,-7.384936001681449,41.58913960961437
pt.ine.add.PTCONT.5287694,R DO CARRIL,,5430-074,ERVÕES,-7.361018015523087,41.64380421228288
pt.ine.add.PTCONT.5287702,AV ENG FRANCISCO TAVARES,20,5430-100,FORNOS DO PINHAL,-7.263316686435124,41.649796007172895
pt.ine.add.PTCONT.5287703,AV ENG FRANCISCO TAVARES,26,5430-100,FORNOS DO PINHAL,-7.2635756657082,41.650176113385484
pt.ine.add.PTCONT.5287704,R DO BOUÇO,,5430-127,FRIÕES,-7.386425352388239,41.68148967523083
pt.ine.add.PTCONT.5287711,R PRINCIPAL,12,5430-043,BOUÇOÃES,-7.187730429889979,41.74141198423607
pt.ine.add.PTCONT.5287712,AV ENG FRANCISCO TAVARES,,5430-123,FRIÕES,-7.396723980142144,41.66726758673531
pt.ine.add.PTCONT.5287713,R JOAQUIM DUARTE OLIVEIRA,10,5430-149,LEBUÇÃO,-7.255870530170998,41.75700602466
pt.ine.add.PTCONT.5287714,R DA BARREIRA DE BAIXO,86,5430-191,POSSACOS,-7.276110617150218,41.61374296402784
pt.ine.add.PTCONT.5287715,R DIREITA,57,5430-191,POSSACOS,-7.275071714586077,41.61337507217505
pt.ine.add.PTCONT.5287716,R DO CANTO DO RIBEIRO,,5430-191,POSSACOS,-7.274822181431621,41.61319313832341
pt.ine.add.PTCONT.5287717,R DOS MARTIANOS,12,5430-191,POSSACOS,-7.273594704183534,41.612571725544086
pt.ine.add.PTCONT.5287726,R DR FRANCISCO SÁ CARNEIRO,46,5445-160,CARRAZEDO DE MONTENEGRO,-7.428735629516464,41.56583574620845
pt.ine.add.PTCONT.5287727,R DA EIRA DA PEDRA,3,5430-149,LEBUÇÃO,-7.255389493730047,41.757011354037836
pt.ine.add.PTCONT.5287728,R DR MANUEL CHAVES SOBRINHO DE MORAIS,,5430-166,LEBUÇÃO,-7.261895596712751,41.75604349811172
pt.ine.add.PTCONT.5287729,,,5430-201,RIO TORTO VLP,-7.282829440521172,41.520461277410504
pt.ine.add.PTCONT.5288249,R DIREITA,,5445-070,SANTIAGO RIBEIRA ALHARIZ,-7.3764052399089,41.609999141553246
pt.ine.add.PTCONT.5288250,R DA MOITA,3,5445-085,SÃO JOÃO DA CORVEIRA,-7.463109128904762,41.57491879546226
pt.ine.add.PTCONT.5288251,R AMÉRICO SOUSA MARTINS,7,5430-276,SONIM,-7.2292701107677075,41.711792074563434
pt.ine.add.PTCONT.5288252,R DAS FIGUEIRINHAS,31,5430-493,VALPAÇOS,-7.273811673152782,41.59441315329163
pt.ine.add.PTCONT.5288253,R 5,1,5430-424,VALPAÇOS,-7.30598692342091,41.605084294495164
pt.ine.add.PTCONT.5288269,R PAULO COSTA,9,5430-272,SONIM,-7.229932747310259,41.71080691195731
pt.ine.add.PTCONT.5288270,R DA FONTE,,5430-493,VALPAÇOS,-7.273486556748771,41.59450976214104
pt.ine.add.PTCONT.5288275,AV DR MANUEL CHAVES SOBRINHO DE MORAIS,19,5430-474,VALPAÇOS,-7.314871287265939,41.607344745160084
pt.ine.add.PTCONT.5288276,R DA LAMA CERDEIRA,23,5430-637,VILARANDELO,-7.319472099565421,41.65361056696173
pt.ine.add.PTCONT.5288282,R DA CAPELA,,5430-493,VALPAÇOS,-7.27458086928419,41.59248312982936
pt.ine.add.PTCONT.5288283,CAM AGRÍCOLA,,5430-427,VALPAÇOS,-7.2816594164616,41.58956458849964
pt.ine.add.PTCONT.5288284,R DO SALGUEIRO,,5430-631,VILARANDELO,-7.314033641837215,41.655525699122904
pt.ine.add.PTCONT.5288292,BR DA CAPELA,19,5445-087,SÃO JOÃO DA CORVEIRA,-7.457119353878422,41.59854529938469
pt.ine.add.PTCONT.5288293,TV ESTADIO CRUZ,19,5430-469,VALPAÇOS,-7.310812855217609,41.6133031587879
pt.ine.add.PTCONT.5288294,R SOTTO MAYOR,18,5430-503,VALPAÇOS,-7.316231515295717,41.60697626868366
pt.ine.add.PTCONT.5288301,R DOS HERÓIS DO ULTRAMAR,7,5430-476,VALPAÇOS,-7.310492940477187,41.60637712673781
pt.ine.add.PTCONT.5288302,R MÁRIO GAVAIA DA CRUZ COUTINHO,39,5430-424,VALPAÇOS,-7.304881428004006,41.60429302436098
pt.ine.add.PTCONT.5288313,R DO SERAMUNHEIRO DE CIMA,38,5430-252,S PEDRO DE VEIGA DE LILA,-7.329427604010486,41.49761177466043
pt.ine.add.PTCONT.5288314,R DE NSA SRA DA CONCEIÇÃO,15,5430-501,VALPAÇOS,-7.303281842270971,41.613978330035835
pt.ine.add.PTCONT.5288315,R 11,6,5430-424,VALPAÇOS,-7.304555730775081,41.604434734605974
pt.ine.add.PTCONT.5288316,TV DE STO ANTÓNIO,9,5430-630,VILARANDELO,-7.322011333868618,41.66364040064313
pt.ine.add.PTCONT.5288323,BR DO PONTÃO,,5430-293,TINHELA,-7.310177915263978,41.72260083449195
pt.ine.add.PTCONT.5288324,BR DO PONTÃO,,5430-293,TINHELA,-7.310472055211568,41.722152770976514
pt.ine.add.PTCONT.5288325,AV DR MANUEL CHAVES SOBRINHO DE MORAIS,14,5430-421,VALPAÇOS,-7.317886202477628,41.61085054647868
pt.ine.add.PTCONT.5288333,R DO ARCO,28,5430-506,VALPAÇOS,-7.317309408116453,41.609973108563466
pt.ine.add.PTCONT.5288334,R MÁRIO GAVAIA DA CRUZ COUTINHO,44,5430-424,VALPAÇOS,-7.305066872238829,41.60386218865781
pt.ine.add.PTCONT.5288335,R MÁRIO GAVAIA DA CRUZ COUTINHO,44,5430-424,VALPAÇOS,-7.305066872238829,41.60386218865781
pt.ine.add.PTCONT.5288347,R GEN SOUSA TELES,18,5430-620,VEIGA DE LILA,-7.32620504494711,41.52277262937964
pt.ine.add.PTCONT.5288351,R DO TAMBULHÃO,,5430-465,VALPAÇOS,-7.308950132141361,41.60695130864346
pt.ine.add.PTCONT.5288362,R CENTRAL,13,5445-086,SÃO JOÃO DA CORVEIRA,-7.445730297956041,41.57876881405242
pt.ine.add.PTCONT.5288363,R ORIENTAL,3,5430-484,VALPAÇOS,-7.309423094577515,41.606549537685936
pt.ine.add.PTCONT.5288364,R ORIENTAL,8,5430-484,VALPAÇOS,-7.30935055174114,41.60659403575116
pt.ine.add.PTCONT.5288376,BR DO EIRÓ,7,5445-081,SÃO JOÃO DA CORVEIRA,-7.470709373802159,41.586811638061874
pt.ine.add.PTCONT.5288377,R JOSÉ GUERRA,23,5430-480,VALPAÇOS,-7.311387079111965,41.612487940641905
pt.ine.add.PTCONT.5288390,R DAS LATADAS,,5430-454,VALPAÇOS,-7.309385793135611,41.60476656288456
pt.ine.add.PTCONT.5288402,R D XIMENES BELO,14,5430-511,VALPAÇOS,-7.318111224863623,41.60822309963957
pt.ine.add.PTCONT.5288409,BR DO CRUZEIRO,15,5430-276,SONIM,-7.228979718974571,41.711078522394175
pt.ine.add.PTCONT.5288410,R DA CASA BRANCA,40,5430-425,VALPAÇOS,-7.321293404327531,41.60510336794664
pt.ine.add.PTCONT.5288411,AV DA PONTE NOVA,,5430-603,VASSAL,-7.355291020817186,41.614981254530626
pt.ine.add.PTCONT.5288421,R DO PRADO,58,5445-183,CARRAZEDO DE MONTENEGRO,-7.430781093148705,41.55851026654499
pt.ine.add.PTCONT.5288423,R DA PORTELA,,5430-603,VASSAL,-7.355193703973722,41.60910126113662
pt.ine.add.PTCONT.5288436,R CENTRAL,32,5445-043,PADRELA E TÁZEM,-7.499701195156289,41.56903071864672
pt.ine.add.PTCONT.5288442,AV PRINCIPAL,,5430-230,SANTA VALHA,-7.2372705539312445,41.667782964911154
pt.ine.add.PTCONT.5288451,R DO BAIRRO DE BAIXO,5,5430-100,FORNOS DO PINHAL,-7.261435455798215,41.65310404330657
pt.ine.add.PTCONT.5288463,R DA ESTRADA,65,5445-109,CARRAZEDO DE MONTENEGRO,-7.410504275009826,41.55692603143643
pt.ine.add.PTCONT.5288466,R CENTRAL,,5445-044,PADRELA E TÁZEM,-7.487015599449221,41.58717453834202
pt.ine.add.PTCONT.5288489,EN 103,,5430-155,LEBUÇÃO,-7.250603724944622,41.75790203505769
pt.ine.add.PTCONT.5288490,R DO CRUZEIRO,113,5430-276,SONIM,-7.229279914240131,41.71023456536453
pt.ine.add.PTCONT.5288493,RIO BOM,,5445-083,SÃO JOÃO DA CORVEIRA,-7.483032496929605,41.574177819950336
pt.ine.add.PTCONT.5288532,AV ENG FRANCISCO BATISTA TAVARES,7,5430-042,BOUÇOÃES,-7.208573329763246,41.74069926539764
pt.ine.add.PTCONT.5288544,BR DE ALÉM,,5445-014,ARGERIZ,-7.405927565056221,41.58237751869396
pt.ine.add.PTCONT.5288545,R DOS NEGRILHOS,1,5445-015,ARGERIZ,-7.350978455489416,41.57270709031578
pt.ine.add.PTCONT.5288560,R DE CARREIRO MARTINHO,,5430-013,ÁGUA REVÊS E CRASTO,-7.351137215300172,41.534676691023876
pt.ine.add.PTCONT.5288561,R DO CANTO,13,5430-021,ALVARELHOS VLP,-7.336245443348659,41.71278178075045
pt.ine.add.PTCONT.5288562,R DO BAIRRO,17,5430-053,CANAVESES,-7.360704932007463,41.52112774998123
pt.ine.add.PTCONT.5288563,R DIREITA,12,5430-051,CANAVESES,-7.376484503439333,41.51380457668135
pt.ine.add.PTCONT.5288584,BC DA EIRA,4,5445-051,SANTA MARIA DE EMERES,-7.399533943779132,41.5337981167915
pt.ine.add.PTCONT.5288604,R OUTEIRO,45,5430-052,CANAVESES,-7.362266931091168,41.50458937402899
pt.ine.add.PTCONT.5288605,ESTR DO PINHEIRO GRANDE,,5430-232,SANTA VALHA,-7.267856191846561,41.68552001153616
pt.ine.add.PTCONT.5288606,BR DO SOBREIRO,11,5430-237,SANTA VALHA,-7.274713816188616,41.68375274285401
pt.ine.add.PTCONT.5288725,R CENTRAL,,5430-168,LEBUÇÃO,-7.2663954937119435,41.771014038655814
pt.ine.add.PTCONT.5288623,PC CÂNDIDO SOTTO MAYOR,16,5430-157,LEBUÇÃO,-7.2562340210845955,41.75591939694962
pt.ine.add.PTCONT.5288624,AV DO ESTÁDIO,3,5430-163,LEBUÇÃO,-7.262825357234092,41.75575343484075
pt.ine.add.PTCONT.5288625,TV DO CRUZEIRO,2,5430-180,NOZELOS,-7.285301923121324,41.75362564248596
pt.ine.add.PTCONT.5288634,R DA CAPELA,15,5430-180,NOZELOS,-7.289029068046897,41.75455341919997
pt.ine.add.PTCONT.5288635,R CENTRAL,,5445-041,PADRELA E TÁZEM,-7.520055234279128,41.57956729648446
pt.ine.add.PTCONT.5288636,R DO BORMIAL,5,5445-043,PADRELA E TÁZEM,-7.496515610972456,41.571110981564345
pt.ine.add.PTCONT.5288637,BR NOVO,88,5445-045,PADRELA E TÁZEM,-7.494439278054077,41.553065084657845
pt.ine.add.PTCONT.5288645,EM 551,,5430-013,ÁGUA REVÊS E CRASTO,-7.321714149422679,41.56097063460078
pt.ine.add.PTCONT.5288646,EN 206,122,5430-191,POSSACOS,-7.266186228926751,41.617513062772524
pt.ine.add.PTCONT.5288647,R DO CANTO DA FONTE,2,5430-191,POSSACOS,-7.273492886918142,41.6157222068519
pt.ine.add.PTCONT.5288648,EN 206,,5430-191,POSSACOS,-7.273604322883091,41.61546193720763
pt.ine.add.PTCONT.5288657,R DO ARRABALDE,8,5430-047,BOUÇOÃES,-7.2108074498954755,41.761821007808386
pt.ine.add.PTCONT.5288658,R DO OURO,,5430-047,BOUÇOÃES,-7.209911487408558,41.761408662835144
pt.ine.add.PTCONT.5288659,R DO PRADO,,5445-183,CARRAZEDO DE MONTENEGRO,-7.432424579066271,41.557286789390936
pt.ine.add.PTCONT.5288660,BR DO PRADO,,5445-154,CARRAZEDO DE MONTENEGRO,-7.431087280930948,41.556801437474334
pt.ine.add.PTCONT.5288668,R DO RANHO,1,5445-011,ARGERIZ,-7.3828303039907555,41.58870271717636
pt.ine.add.PTCONT.5288669,BR DO PEREIRO,,5445-153,CARRAZEDO DE MONTENEGRO,-7.43270921782778,41.56423035610755
pt.ine.add.PTCONT.5288670,,,5445-107,CARRAZEDO DE MONTENEGRO,-7.440648468122112,41.53699725847201
pt.ine.add.PTCONT.5288671,LG DA LAMEIRA,,5445-031,CURROS VLP,-7.474876646513628,41.5330745707465
pt.ine.add.PTCONT.5288672,EN 213,16,5430-075,ERVÕES,-7.34303152879527,41.671790919943035
pt.ine.add.PTCONT.5288673,EN 213,,5430-075,ERVÕES,-7.338866346859033,41.67165416943603
pt.ine.add.PTCONT.5288688,BR DA BELA VISTA,1,5445-011,ARGERIZ,-7.38905847272059,41.590453880635586
pt.ine.add.PTCONT.5288689,BR DA IGREJA,12,5430-044,BOUÇOÃES,-7.198196917921059,41.74914145250177
pt.ine.add.PTCONT.5288690,R DO LOUREIRO,100,5430-073,ERVÕES,-7.356490532326468,41.65599148459023
pt.ine.add.PTCONT.5288691,R DAS CABECINHAS,2,5430-100,FORNOS DO PINHAL,-7.264527286592507,41.65350559646383
pt.ine.add.PTCONT.5288692,R DO ADRO,4,5430-100,FORNOS DO PINHAL,-7.265023508014672,41.652311881399854
pt.ine.add.PTCONT.5288708,TV DOS BOMBEIROS,,5445-173,CARRAZEDO DE MONTENEGRO,-7.423521194789307,41.57016145585362
pt.ine.add.PTCONT.5288709,R DO POÇO DA PENA,4,5430-090,FIÃES VLP,-7.264879039167967,41.738086405334
pt.ine.add.PTCONT.5288710,AV ENG FRANCISCO TAVARES,,5430-126,FRIÕES,-7.419652659913091,41.68407767084415
pt.ine.add.PTCONT.5288711,BC DA ALEGRIA,,5430-122,FRIÕES,-7.39801119288074,41.66494391961396
pt.ine.add.PTCONT.5288721,R DE S MAMEDE,5,5445-011,ARGERIZ,-7.386323178779011,41.58844634616518
pt.ine.add.PTCONT.5288722,BC DO TERREIRO,1,5430-100,FORNOS DO PINHAL,-7.263327989897084,41.651632804943205
pt.ine.add.PTCONT.5288723,R DE S JOÃO,,5430-126,FRIÕES,-7.4287408404397555,41.682224992266676
pt.ine.add.PTCONT.5288724,R DR SÁ CARNEIRO,,5430-130,FRIÕES,-7.386802434097496,41.6634041126913
pt.ine.add.PTCONT.5288726,SIT DO ALTO DO MIGUEL,,5430-155,LEBUÇÃO,-7.257036181717771,41.7588245873585
pt.ine.add.PTCONT.5288736,R DA FONTE DA URZE,,5445-161,CARRAZEDO DE MONTENEGRO,-7.42598366412796,41.56863700093379
pt.ine.add.PTCONT.5288737,AV DE NSA SRA DA ASSUNÇÃO,22,5430-121,FRIÕES,-7.3986914424384045,41.645230559772095
pt.ine.add.PTCONT.5288738,R DA TALAIA,,5430-131,LEBUÇÃO,-7.249429719948215,41.76897609108859
pt.ine.add.PTCONT.5288739,R DA EIRA,2,5430-191,POSSACOS,-7.274240380553108,41.61544868410576
pt.ine.add.PTCONT.5288740,R NOVA DO ADRO,14,5430-191,POSSACOS,-7.272778102782751,41.61172828652688
pt.ine.add.PTCONT.5288752,R DA EIRA DA PEDRA,,5430-149,LEBUÇÃO,-7.255272209699793,41.756794378143574
pt.ine.add.PTCONT.5288753,R DO EIRÓ,,5430-167,LEBUÇÃO,-7.254781361561243,41.756637570138786
pt.ine.add.PTCONT.5288754,R DO CASTANHEIRO,8,5430-191,POSSACOS,-7.2771032388480705,41.61307509336374
pt.ine.add.PTCONT.5288755,R DIREITA,26,5445-052,SANTA MARIA DE EMERES,-7.380258175179996,41.54478409613702
pt.ine.add.PTCONT.5288761,BR DOS CIPRESTES,,5430-238,SANTA VALHA,-7.273925810938906,41.681595030896716
pt.ine.add.PTCONT.5289266,PCT VILA JARDIM A,A2,5430-491,VALPAÇOS,-7.307585332786725,41.608616180029834
pt.ine.add.PTCONT.5289267,PCT VILA JARDIM A,A2,5430-491,VALPAÇOS,-7.307585332786725,41.608616180029834
pt.ine.add.PTCONT.5289268,PCT VILA JARDIM A,A2,5430-491,VALPAÇOS,-7.307585332786725,41.608616180029834
pt.ine.add.PTCONT.5289269,AV ENG LUIS DE CASTRO SARAIVA,A2,5430-472,VALPAÇOS,-7.307585332786725,41.608616180029834
pt.ine.add.PTCONT.5289270,AV ENG LUIS DE CASTRO SARAIVA,A2,5430-472,VALPAÇOS,-7.307585332786725,41.608616180029834
pt.ine.add.PTCONT.5289271,AV ENG LUIS DE CASTRO SARAIVA,A2,5430-472,VALPAÇOS,-7.307585332786725,41.608616180029834
pt.ine.add.PTCONT.5289272,URB VILA JARDIM,ENT A2,5430-491,VALPAÇOS,-7.307585332786725,41.608616180029834
pt.ine.add.PTCONT.5289273,PCT VILA JARDIM,12,5430-491,VALPAÇOS,-7.307585332786725,41.608616180029834
pt.ine.add.PTCONT.5289274,URB VILA JARDIM A,A2 ENT 2,5430-491,VALPAÇOS,-7.307585332786725,41.608616180029834
pt.ine.add.PTCONT.5289275,URB VILA JARDIM A,A2 ENT 2,5430-491,VALPAÇOS,-7.307585332786725,41.608616180029834
pt.ine.add.PTCONT.5289276,PCT VILA JARDIM,12,5430-491,VALPAÇOS,-7.307585332786725,41.608616180029834
pt.ine.add.PTCONT.5289277,URB VILA JARDIM,,5430-491,VALPAÇOS,-7.307585332786725,41.608616180029834
pt.ine.add.PTCONT.5289278,R DO BONFIM,,5430-603,VASSAL,-7.357063210094268,41.61627173890655
pt.ine.add.PTCONT.5289279,R DO CRUZEIRO,,5430-603,VASSAL,-7.355994397459535,41.615355157988766
pt.ine.add.PTCONT.5289291,R DA CAPELA,39,5430-493,VALPAÇOS,-7.274478249300045,41.59298656412372
pt.ine.add.PTCONT.5289292,AV ENG LUIS DE CASTRO SARAIVA,A2,5430-472,VALPAÇOS,-7.307585332786725,41.608616180029834
pt.ine.add.PTCONT.5289293,AV ENG LUIS DE CASTRO SARAIVA,A2,5430-472,VALPAÇOS,-7.307585332786725,41.608616180029834
pt.ine.add.PTCONT.5289294,PCT VILA JARDIM,42,5430-491,VALPAÇOS,-7.307585332786725,41.608616180029834
pt.ine.add.PTCONT.5289295,R 13,2,5430-424,VALPAÇOS,-7.304334182105434,41.604874312725194
pt.ine.add.PTCONT.5289296,LG DOS BECOS,,5430-647,VILARANDELO,-7.325506158285767,41.665492718771795
pt.ine.add.PTCONT.5289304,R DIREITA,,5430-251,S PEDRO DE VEIGA DE LILA,-7.356290225345037,41.495572422489744
pt.ine.add.PTCONT.5289305,TV DO LAMEIRÃO,,5430-603,VASSAL,-7.355102139175394,41.61172968629929
pt.ine.add.PTCONT.5289319,TV DO SOBREIRO,,5430-469,VALPAÇOS,-7.3093106365231675,41.618217349524805
pt.ine.add.PTCONT.5289320,R SOUTO PEDREIRO,S N,5430-505,VALPAÇOS,-7.324547322395822,41.60293843021511
pt.ine.add.PTCONT.5289321,AV DE NSA SRA DA ENCARNAÇÃO,,5430-603,VASSAL,-7.351935500230987,41.609691410374275
pt.ine.add.PTCONT.5289335,R D PEDRO V,8,5430-468,VALPAÇOS,-7.311175160682888,41.60933517760604
pt.ine.add.PTCONT.5289345,R DO CABO,,5445-072,SANTIAGO RIBEIRA ALHARIZ,-7.41746919223098,41.63722780633794
pt.ine.add.PTCONT.5289346,R DE PÊRO GALEGO,,5430-424,VALPAÇOS,-7.3040398103073185,41.60069453072172
pt.ine.add.PTCONT.5289347,TV DO SARDÃO,1,5430-424,VALPAÇOS,-7.303730827936863,41.596721722122126
pt.ine.add.PTCONT.5289364,R DO MONTE PEQUENO,4,5430-431,VALPAÇOS,-7.315983799406268,41.604741621629955
pt.ine.add.PTCONT.5289373,LG DOS GRITOS,,5445-067,SANTIAGO RIBEIRA ALHARIZ,-7.400825229661696,41.632756256288225
pt.ine.add.PTCONT.5289374,R DR FRANCISCO JOSÉ MEDEIROS,49,5430-473,VALPAÇOS,-7.308820171381979,41.60585194106673
pt.ine.add.PTCONT.5289375,R ENG FRANCISCO BATISTA TAVARES,8,5430-620,VEIGA DE LILA,-7.324562594048186,41.52382353029591
pt.ine.add.PTCONT.5289386,R DA PRAÇA,,5430-292,TINHELA,-7.291346854670794,41.71426233481969
pt.ine.add.PTCONT.5289387,BR DE CIMA,,5430-406,VALPAÇOS,-7.280148059114992,41.64057650796648
pt.ine.add.PTCONT.5289388,R DO OLIVAL,22,5430-462,VALPAÇOS,-7.312432397946109,41.608578856436566
pt.ine.add.PTCONT.5289389,BC DE DAMIÕES,2,5430-437,VALPAÇOS,-7.311007468772045,41.60647984670492
pt.ine.add.PTCONT.5289390,R DAS ALMAS,1,5430-620,VEIGA DE LILA,-7.325324376764039,41.522298253992595
pt.ine.add.PTCONT.5289403,EN 314,,5445-095,SERAPICOS VLP,-7.441134585874448,41.61724071792531
pt.ine.add.PTCONT.5289404,R DA IGREJA,10,5445-095,SERAPICOS VLP,-7.439585846028411,41.61397208516118
pt.ine.add.PTCONT.5289416,R PRINCIPAL,,5445-065,SANTIAGO RIBEIRA ALHARIZ,-7.379511216035539,41.61628603604772
pt.ine.add.PTCONT.5289417,R DA IGREJA,3,5445-095,SERAPICOS VLP,-7.440584082404902,41.61374400959373
pt.ine.add.PTCONT.5289418,BR 1 MAIO,5,5430-620,VEIGA DE LILA,-7.323720990890127,41.51925273061246
pt.ine.add.PTCONT.5289428,R DA ESCOLA,2,5445-092,SERAPICOS VLP,-7.4362841325614255,41.60081586296439
pt.ine.add.PTCONT.5289429,R EÇA DE QUEIROZ,3,5430-528,VALPAÇOS,-7.296203346092295,41.609335198807315
pt.ine.add.PTCONT.5289430,R PASSOS MANUEL,19,5430-486,VALPAÇOS,-7.311288607100735,41.60795844257491
pt.ine.add.PTCONT.5289437,R FERNANDO PESSOA,,5430-528,VALPAÇOS,-7.299286187937112,41.61122133858258
pt.ine.add.PTCONT.5289447,EM 541,,5445-071,SANTIAGO RIBEIRA ALHARIZ,-7.40143398570601,41.613942672244484
pt.ine.add.PTCONT.5289448,AV ENG LUIS DE CASTRO SARAIVA,47,5430-472,VALPAÇOS,-7.305465538066276,41.61021257648004
pt.ine.add.PTCONT.5289449,AV DO PINHEIRO MANSO,13,5430-430,VALPAÇOS,-7.313699186993482,41.604221159849054
pt.ine.add.PTCONT.5289450,R D MARIA MESSIAS,,5430-603,VASSAL,-7.355636975474144,41.6161450553839
pt.ine.add.PTCONT.5289463,AV DO SENHOR DO BONFIM,9,5430-271,SONIM,-7.2303651947176375,41.7142496039776
pt.ine.add.PTCONT.5289464,R DA CRUZINHA,,5430-302,VALES VLP,-7.38134387992388,41.46444175119822
pt.ine.add.PTCONT.5289465,R DO TRAMAGAL,,5430-466,VALPAÇOS,-7.30627614569409,41.59652397046989
pt.ine.add.PTCONT.5289466,BR DO PONTÃO,3,5430-603,VASSAL,-7.352428199563884,41.617581886812474
pt.ine.add.PTCONT.5289486,R DO GAITEIRO,,5445-066,SANTIAGO RIBEIRA ALHARIZ,-7.392583059179753,41.63882586665596
pt.ine.add.PTCONT.5289512,URB VILA JARDIM A,A2,5430-491,VALPAÇOS,-7.307585332786725,41.608616180029834
pt.ine.add.PTCONT.5289519,R DA ESTALAGEM,,5430-008,ÁGUA REVÊS E CRASTO,-7.32490718881055,41.537529573403916
pt.ine.add.PTCONT.5289529,AV HUMBERTO DELGADO,,5430-127,FRIÕES,-7.398548709491269,41.67892077863845
pt.ine.add.PTCONT.5289536,AV 25 DE ABRIL,68,5430-420,VALPAÇOS,-7.316081075503775,41.60558864915699
pt.ine.add.PTCONT.5289537,R DAS FLORES,,5430-652,VILARANDELO,-7.3273381458550295,41.66493835747422
pt.ine.add.PTCONT.5289551,BC DIREITO,9,5430-220,SANFINS VLP,-7.347859502244561,41.59758082723385
pt.ine.add.PTCONT.5289584,R DR MANUEL CHAVES SOBRINHO DE MORAIS,,5430-166,LEBUÇÃO,-7.260846331977392,41.756278626625324
pt.ine.add.PTCONT.5289605,,,5430-201,RIO TORTO VLP,-7.2548797134775755,41.53463009996373
pt.ine.add.PTCONT.5289624,LG DAS ALMAS,31,5430-051,CANAVESES,-7.378257994218712,41.513753204864805
pt.ine.add.PTCONT.5289625,R DOS CARVALHINHOS,,5445-052,SANTA MARIA DE EMERES,-7.385853049776298,41.54807992423368
pt.ine.add.PTCONT.5289639,R DO CANTILHÃO,10,5445-052,SANTA MARIA DE EMERES,-7.379213134268989,41.54601975784194
pt.ine.add.PTCONT.5289640,R DA TAIPA,40,5445-051,SANTA MARIA DE EMERES,-7.397467354428496,41.534289122624045
pt.ine.add.PTCONT.5289641,R JOÃO ANTÓNIO DE CASTRO,13,5430-231,SANTA VALHA,-7.271519110471621,41.70984776589793
pt.ine.add.PTCONT.5289647,R PRINCIPAL,88,5430-031,BARREIROS VLP,-7.227089264862317,41.68911333059214
pt.ine.add.PTCONT.5289648,BR DA MADALENA,29,5430-234,SANTA VALHA,-7.269212979060449,41.683756540975494
pt.ine.add.PTCONT.5289649,R DA FREIXA,7,5430-233,SANTA VALHA,-7.265780111694112,41.682704291827505
pt.ine.add.PTCONT.5289650,BR DOS CIPRESTES,,5430-238,SANTA VALHA,-7.271885390987809,41.68239907195943
pt.ine.add.PTCONT.5289651,BR DOS CIPRESTES,5,5430-238,SANTA VALHA,-7.271844918331267,41.68183155158954
pt.ine.add.PTCONT.5289665,R DA CAPELA,18,5430-180,NOZELOS,-7.288664735052654,41.75482984545181
pt.ine.add.PTCONT.5289666,PC CÂNDIDO SOTTO MAYOR,9,5430-157,LEBUÇÃO,-7.256330937426223,41.75586611663401
pt.ine.add.PTCONT.5289667,R JOAQUIM DUARTE OLIVEIRA,8,5430-149,LEBUÇÃO,-7.256251939212859,41.75636970007641
pt.ine.add.PTCONT.5289675,R PRINCIPAL,1,5430-031,BARREIROS VLP,-7.232682880711379,41.68593406766245
pt.ine.add.PTCONT.5289686,R DO CANTO,,5430-013,ÁGUA REVÊS E CRASTO,-7.324833465521187,41.56173090360162
pt.ine.add.PTCONT.5289687,R DE STO ANTÓNIO,57 A,5445-109,CARRAZEDO DE MONTENEGRO,-7.41146123378873,41.56141586964483
pt.ine.add.PTCONT.5289688,URB VILA DA TORRE,,5445-174,CARRAZEDO DE MONTENEGRO,-7.428895675201097,41.56544956892928
pt.ine.add.PTCONT.5289706,BR DO PEREIRO,,5445-153,CARRAZEDO DE MONTENEGRO,-7.433815759143232,41.566118857667284
pt.ine.add.PTCONT.5289707,BR DO PEREIRO,,5445-153,CARRAZEDO DE MONTENEGRO,-7.437465382737488,41.56452933966402
pt.ine.add.PTCONT.5289708,URB VILA DA TORRE,,5445-174,CARRAZEDO DE MONTENEGRO,-7.428895675201097,41.56544956892928
pt.ine.add.PTCONT.5289709,URB VILA DA TORRE,,5445-174,CARRAZEDO DE MONTENEGRO,-7.428895675201097,41.56544956892928
pt.ine.add.PTCONT.5289726,R GARCIA,,5445-101,CARRAZEDO DE MONTENEGRO,-7.418875825772681,41.58154031422163
pt.ine.add.PTCONT.5289727,BR DO PRADO,,5445-154,CARRAZEDO DE MONTENEGRO,-7.4282880472866575,41.55737855587096
pt.ine.add.PTCONT.5289728,R DIREITA,,5445-031,CURROS VLP,-7.473576013457009,41.53135641044723
pt.ine.add.PTCONT.5289729,,,5445-032,CURROS VLP,-7.460419399347515,41.507069132537566
pt.ine.add.PTCONT.5289737,R DO VALE,,5430-011,ÁGUA REVÊS E CRASTO,-7.348758385266831,41.55700761406237
pt.ine.add.PTCONT.5289738,R DO PRADO,16,5445-183,CARRAZEDO DE MONTENEGRO,-7.428915857473922,41.559174134142
pt.ine.add.PTCONT.5289739,,,5445-033,CURROS VLP,-7.438973229409858,41.518835646488355
pt.ine.add.PTCONT.5289740,R FRANCISCO MORAIS,13,5430-090,FIÃES VLP,-7.260825355549182,41.738289789425636
pt.ine.add.PTCONT.5289755,LG DO PRADO,1,5430-011,ÁGUA REVÊS E CRASTO,-7.347068347388387,41.55798647548305
pt.ine.add.PTCONT.5289756,R DO NAVALHO,8,5430-075,ERVÕES,-7.3472469362412705,41.67767208113893
pt.ine.add.PTCONT.5289757,R DO CANTO,,5430-073,ERVÕES,-7.35592438946246,41.65515033152557
pt.ine.add.PTCONT.5289758,R DA CALHEIA,,5430-074,ERVÕES,-7.359059950436678,41.64393509939105
pt.ine.add.PTCONT.5289759,R CENTRAL,,5430-126,FRIÕES,-7.426472334313461,41.68319244625524
pt.ine.add.PTCONT.5289769,R DA ESCOLA,1,5430-090,FIÃES VLP,-7.265115910452735,41.738349292372575
pt.ine.add.PTCONT.5289770,AV ENG FRANCISCO TAVARES,19,5430-100,FORNOS DO PINHAL,-7.263351377086994,41.650786653807195
pt.ine.add.PTCONT.5289783,R DIREITA,47,5445-159,CARRAZEDO DE MONTENEGRO,-7.4249336187513135,41.565983461714374
pt.ine.add.PTCONT.5289784,TV CLAUDINO JOSÉ DE SOUSA,,5430-123,FRIÕES,-7.393675244650334,41.66716698127436
pt.ine.add.PTCONT.5289785,R DE STA BÁRBARA,,5430-129,FRIÕES,-7.417482106482113,41.65341625066295
pt.ine.add.PTCONT.5289786,EN 206,53,5430-191,POSSACOS,-7.279833615994554,41.61345553458464
pt.ine.add.PTCONT.5289787,BC DO EIROL,1,5430-201,RIO TORTO VLP,-7.2818131182721935,41.55594622334123
pt.ine.add.PTCONT.5289800,R DE STA BÁRBARA,,5430-129,FRIÕES,-7.4174478882101464,41.65325397412422
pt.ine.add.PTCONT.5289801,R DE XELHARIZ,2,5430-201,RIO TORTO VLP,-7.2755047892850975,41.55891556397726
pt.ine.add.PTCONT.5289802,R DA PIPA,6,5445-052,SANTA MARIA DE EMERES,-7.382350338545055,41.54419452775655
pt.ine.add.PTCONT.5289814,R ENG FRANCISCO TAVARES,45,5430-230,SANTA VALHA,-7.2375113836318565,41.67033281983598
pt.ine.add.PTCONT.5290274,R DA CAPELA,1,5445-085,SÃO JOÃO DA CORVEIRA,-7.470330259631192,41.57345703667865
pt.ine.add.PTCONT.5290275,R 7,3,5430-424,VALPAÇOS,-7.304832778691025,41.605283066940466
pt.ine.add.PTCONT.5290288,R DA ESTRADA NOVA,,5445-069,SANTIAGO RIBEIRA ALHARIZ,-7.394455108978188,41.60310273610306
pt.ine.add.PTCONT.5290289,BR DOS VALES,,5430-404,VALPAÇOS,-7.2995496665465245,41.62523277529368
pt.ine.add.PTCONT.5290306,R 25 DE ABRIL,,5445-062,SANTIAGO RIBEIRA ALHARIZ,-7.444641288960572,41.64287692746426
pt.ine.add.PTCONT.5290307,R DA ESTRADA,,5445-069,SANTIAGO RIBEIRA ALHARIZ,-7.3939764001512165,41.60510746157491
pt.ine.add.PTCONT.5290308,R DO ALTO,,5430-493,VALPAÇOS,-7.275618208879235,41.59113133034602
pt.ine.add.PTCONT.5290309,R DA PORTELA,1,5430-650,VILARANDELO,-7.324327752395009,41.663710745485126
pt.ine.add.PTCONT.5290321,R DO GAITEIRO,,5445-066,SANTIAGO RIBEIRA ALHARIZ,-7.392507650053512,41.639122497745845
pt.ine.add.PTCONT.5290322,R GEN HUMBERTO DELGADO,15,5430-474,VALPAÇOS,-7.3159434047785945,41.60699222821003
pt.ine.add.PTCONT.5290328,R DE NSA SRA DA CONCEIÇÃO,7,5430-501,VALPAÇOS,-7.3035770230293435,41.61341323622723
pt.ine.add.PTCONT.5290329,R DA PAZ,,5430-630,VILARANDELO,-7.322498597763817,41.66403999173406
pt.ine.add.PTCONT.5290341,R STO ANTONIO,14,5430-630,VILARANDELO,-7.32198641861282,41.66371225270959
pt.ine.add.PTCONT.5290348,BR DA IGREJA,40,5445-082,SÃO JOÃO DA CORVEIRA,-7.44009757377174,41.58857597932893
pt.ine.add.PTCONT.5290349,R DA PRAÇA,,5430-293,TINHELA,-7.306439993401395,41.72544608512557
pt.ine.add.PTCONT.5290350,AV DR FRANCISCO SÁ CARNEIRO,,5430-423,VALPAÇOS,-7.313758148339586,41.61093824451431
pt.ine.add.PTCONT.5290351,AV DR FRANCISCO SÁ CARNEIRO,,5430-423,VALPAÇOS,-7.313758148339586,41.61093824451431
pt.ine.add.PTCONT.5290352,AV DR FRANCISCO SÁ CARNEIRO,,5430-423,VALPAÇOS,-7.313758148339586,41.61093824451431
pt.ine.add.PTCONT.5290353,AV DR FRANCISCO SÁ CARNEIRO,,5430-423,VALPAÇOS,-7.313758148339586,41.61093824451431
pt.ine.add.PTCONT.5290354,AV DR FRANCISCO SÁ CARNEIRO,,5430-423,VALPAÇOS,-7.313758148339586,41.61093824451431
pt.ine.add.PTCONT.5290355,AV DR FRANCISCO SÁ CARNEIRO,,5430-423,VALPAÇOS,-7.313758148339586,41.61093824451431
pt.ine.add.PTCONT.5290356,AV DR FRANCISCO SÁ CARNEIRO,,5430-423,VALPAÇOS,-7.313758148339586,41.61093824451431
pt.ine.add.PTCONT.5290357,AV DR FRANCISCO SÁ CARNEIRO,,5430-423,VALPAÇOS,-7.313758148339586,41.61093824451431
pt.ine.add.PTCONT.5290358,AV DR FRANCISCO SÁ CARNEIRO,,5430-423,VALPAÇOS,-7.313758148339586,41.61093824451431
pt.ine.add.PTCONT.5290359,AV DR FRANCISCO SÁ CARNEIRO,,5430-423,VALPAÇOS,-7.313758148339586,41.61093824451431
pt.ine.add.PTCONT.5290366,R DA ESTRADA,18,5445-084,SÃO JOÃO DA CORVEIRA,-7.439891875868234,41.58650390340792
pt.ine.add.PTCONT.5290367,BR DAS EIRAS,,5430-293,TINHELA,-7.303362687770569,41.72175952479974
pt.ine.add.PTCONT.5290376,BR DO BELO MONTE,10,5445-084,SÃO JOÃO DA CORVEIRA,-7.457517498373121,41.58451998127742
pt.ine.add.PTCONT.5290377,R DIREITA,,5445-094,SERAPICOS VLP,-7.444505025703293,41.62748902489997
pt.ine.add.PTCONT.5290390,R DA PONTE,,5445-063,SANTIAGO RIBEIRA ALHARIZ,-7.386643423734385,41.622058842303865
pt.ine.add.PTCONT.5290391,R DE BAIXO,,5430-291,TINHELA,-7.311788949399634,41.698951393839494
pt.ine.add.PTCONT.5290392,AV DR FRANCISCO SÁ CARNEIRO,11,5430-423,VALPAÇOS,-7.3136661183866805,41.60588658560106
pt.ine.add.PTCONT.5290393,AV DR FRANCISCO SÁ CARNEIRO,7,5430-423,VALPAÇOS,-7.3136802777209375,41.6057156186172
pt.ine.add.PTCONT.5290394,R C,16,5430-495,VALPAÇOS,-7.307013609276039,41.602651707838746
pt.ine.add.PTCONT.5290395,BR DA IGREJA,17,5430-620,VEIGA DE LILA,-7.324015133296235,41.52256816492903
pt.ine.add.PTCONT.5290403,BR DOS BARREIROS,,5430-404,VALPAÇOS,-7.293632030359263,41.62722451082794
pt.ine.add.PTCONT.5290404,R DE STO ANTÓNIO,32,5430-455,VALPAÇOS,-7.313637258877914,41.61385453760548
pt.ine.add.PTCONT.5290405,R DE STO ANTÓNIO,21,5430-455,VALPAÇOS,-7.313965262519172,41.61353274709622
pt.ine.add.PTCONT.5290406,R PASSOS MANUEL,13,5430-486,VALPAÇOS,-7.311334646059059,41.608111832385205
pt.ine.add.PTCONT.5290407,AV ENG ADELINO AMARO DA COSTA,,5430-409,VALPAÇOS,-7.311353382971709,41.60474463012311
pt.ine.add.PTCONT.5290408,AV ENG ADELINO AMARO DA COSTA,,5430-409,VALPAÇOS,-7.311353382971709,41.60474463012311
pt.ine.add.PTCONT.5290409,AV ENG ADELINO AMARO DA COSTA,,5430-409,VALPAÇOS,-7.311353382971709,41.60474463012311
pt.ine.add.PTCONT.5290410,AV ENG ADELINO AMARO DA COSTA,,5430-409,VALPAÇOS,-7.311353382971709,41.60474463012311
pt.ine.add.PTCONT.5290411,AV ENG ADELINO AMARO DA COSTA,,5430-409,VALPAÇOS,-7.311353382971709,41.60474463012311
pt.ine.add.PTCONT.5290412,AV ENG ADELINO AMARO DA COSTA,,5430-409,VALPAÇOS,-7.311353382971709,41.60474463012311
pt.ine.add.PTCONT.5290413,R DAS ALMAS,36,5430-620,VEIGA DE LILA,-7.321954863929817,41.52061785426801
pt.ine.add.PTCONT.5290433,BR NOVO,41,5445-081,SÃO JOÃO DA CORVEIRA,-7.4724133660062915,41.591413298738274
pt.ine.add.PTCONT.5290434,R DO CHAFARIZ,1,5445-092,SERAPICOS VLP,-7.435229344495356,41.599629991450925
pt.ine.add.PTCONT.5290435,R DA CAPELA,39,5430-301,VALES VLP,-7.347014485111925,41.473333111879754
pt.ine.add.PTCONT.5290436,R EÇA DE QUEIROZ,,5430-528,VALPAÇOS,-7.295718635589494,41.60970981870764
pt.ine.add.PTCONT.5290437,AV ENG ADELINO AMARO DA COSTA,,5430-409,VALPAÇOS,-7.311188084963019,41.604536366188334
pt.ine.add.PTCONT.5290438,AV ENG ADELINO AMARO DA COSTA,,5430-409,VALPAÇOS,-7.311188084963019,41.604536366188334
pt.ine.add.PTCONT.5290439,AV ENG ADELINO AMARO DA COSTA,,5430-409,VALPAÇOS,-7.311188084963019,41.604536366188334
pt.ine.add.PTCONT.5290440,AV ENG ADELINO AMARO DA COSTA,,5430-409,VALPAÇOS,-7.311188084963019,41.604536366188334
pt.ine.add.PTCONT.5290441,AV ENG ADELINO AMARO DA COSTA,,5430-409,VALPAÇOS,-7.311188084963019,41.604536366188334
pt.ine.add.PTCONT.5290442,AV ENG ADELINO AMARO DA COSTA,,5430-409,VALPAÇOS,-7.311188084963019,41.604536366188334
pt.ine.add.PTCONT.5290443,AV ENG ADELINO AMARO DA COSTA,,5430-409,VALPAÇOS,-7.311188084963019,41.604536366188334
pt.ine.add.PTCONT.5290444,AV ENG ADELINO AMARO DA COSTA,,5430-409,VALPAÇOS,-7.311188084963019,41.604536366188334
pt.ine.add.PTCONT.5290445,AV ENG ADELINO AMARO DA COSTA,,5430-409,VALPAÇOS,-7.311188084963019,41.604536366188334
pt.ine.add.PTCONT.5290446,AV ENG ADELINO AMARO DA COSTA,,5430-409,VALPAÇOS,-7.311188084963019,41.604536366188334
pt.ine.add.PTCONT.5290447,BR 1 DE MAIO,,5430-620,VEIGA DE LILA,-7.325388189461536,41.516203190026715
pt.ine.add.PTCONT.5290448,R DOS PRAZERES,4,5430-632,VILARANDELO,-7.3194799690314385,41.66156971324244
pt.ine.add.PTCONT.5290463,R DA ESCOLA,,5445-073,SANTIAGO RIBEIRA ALHARIZ,-7.420559682872821,41.627964335452624
pt.ine.add.PTCONT.5290464,AV DO SENHOR DO BONFIM,20,5430-271,SONIM,-7.2292801769482375,41.71707714004578
pt.ine.add.PTCONT.5290465,AV DO SENHOR DO BONFIM,22,5430-271,SONIM,-7.225261320639624,41.719161252098125
pt.ine.add.PTCONT.5290466,AV ENG ADELINO AMARO DA COSTA,,5430-409,VALPAÇOS,-7.311188084963019,41.604536366188334
pt.ine.add.PTCONT.5290467,AV ENG ADELINO AMARO DA COSTA,,5430-409,VALPAÇOS,-7.311188084963019,41.604536366188334
pt.ine.add.PTCONT.5290471,R DA IGREJA,1,5445-083,SÃO JOÃO DA CORVEIRA,-7.481064730647504,41.57312225232824
pt.ine.add.PTCONT.5290472,BR DA ESCOLA,1,5445-083,SÃO JOÃO DA CORVEIRA,-7.486774267379663,41.575297361915105
pt.ine.add.PTCONT.5290473,BR NOVO,14,5430-302,VALES VLP,-7.385049828608206,41.464853075589964
pt.ine.add.PTCONT.5290474,R ALTO DO GASPAR,14,5430-528,VALPAÇOS,-7.294752375650115,41.60743387771459
pt.ine.add.PTCONT.5290475,BR DO ATALHO,17,5430-603,VASSAL,-7.351099772419634,41.617302750540816
pt.ine.add.PTCONT.5290476,R DOS FONSECAS,,5430-632,VILARANDELO,-7.3189232061513625,41.66097154015511
pt.ine.add.PTCONT.5290486,AV DO PINHEIRO MANSO,64,5430-430,VALPAÇOS,-7.315357104711691,41.59927199200042
pt.ine.add.PTCONT.5290487,R DO PAÇO,2,5430-630,VILARANDELO,-7.322346735836331,41.664660161133234
pt.ine.add.PTCONT.5290496,R DR JULIO DO CARVALHAL,,5430-481,VALPAÇOS,-7.309596643856488,41.60988210175576
pt.ine.add.PTCONT.5290500,BR DO PRADO,21,5445-154,CARRAZEDO DE MONTENEGRO,-7.427819843957105,41.558546162982026
pt.ine.add.PTCONT.5290511,AV DR FRANCISCO SÁ CARNEIRO,,5430-423,VALPAÇOS,-7.313758148339586,41.61093824451431
pt.ine.add.PTCONT.5290512,BR DAS EIRAS,,5430-293,TINHELA,-7.304071753753752,41.722691992246325
pt.ine.add.PTCONT.5290518,EN 213,11,5430-201,RIO TORTO VLP,-7.284949420494533,41.55810326385354
pt.ine.add.PTCONT.5290540,R DA CORREDOURA,12,5445-163,CARRAZEDO DE MONTENEGRO,-7.433873951534815,41.56183346504727
pt.ine.add.PTCONT.5290551,AV DR FRANCISCO SÁ CARNEIRO,,5430-423,VALPAÇOS,-7.313758148339586,41.61093824451431
pt.ine.add.PTCONT.5290554,BR DA CAPELA,,5445-101,CARRAZEDO DE MONTENEGRO,-7.420846201484819,41.583380276100634
pt.ine.add.PTCONT.5290562,R DO ALTO,40,5430-493,VALPAÇOS,-7.27558957787226,41.591482256649684
pt.ine.add.PTCONT.5290567,R DOS BAIRRAIS,9,5430-201,RIO TORTO VLP,-7.281232562718989,41.5554287159915
pt.ine.add.PTCONT.5290569,R ENG FRANCISCO TAVARES,,5430-230,SANTA VALHA,-7.237858703199296,41.67039855003113
pt.ine.add.PTCONT.5290572,AV ENG ADELINO AMARO DA COSTA,,5430-409,VALPAÇOS,-7.311188084963019,41.604536366188334
pt.ine.add.PTCONT.5290603,R DIREITA,22,5430-090,FIÃES VLP,-7.268513963985697,41.73952734225057
pt.ine.add.PTCONT.5290625,R DE BRUNHAIS,,5430-012,ÁGUA REVÊS E CRASTO,-7.35986236438994,41.54661155517248
pt.ine.add.PTCONT.5290636,BR DA IGREJA,4,5430-042,BOUÇOÃES,-7.20626874371442,41.73711537544575
pt.ine.add.PTCONT.5290643,,,5430-201,RIO TORTO VLP,-7.255290547530615,41.535263493570895
pt.ine.add.PTCONT.5290644,,,5430-201,RIO TORTO VLP,-7.283671005136947,41.521151777632554
pt.ine.add.PTCONT.5290662,R DO RELÓGIO,3,5430-220,SANFINS VLP,-7.34859982448298,41.59290400962619
pt.ine.add.PTCONT.5290686,R DO CANTO,9,5430-022,ALVARELHOS VLP,-7.3398506644252945,41.701993611990005
pt.ine.add.PTCONT.5290687,R DA PRAÇA,16,5430-031,BARREIROS VLP,-7.227275592621375,41.687818306518444
pt.ine.add.PTCONT.5290699,R PRINCIPAL,72,5430-031,BARREIROS VLP,-7.228285430409931,41.687754234510294
pt.ine.add.PTCONT.5290715,R DA PONTE,9,5430-180,NOZELOS,-7.288785065740244,41.755740066907514
pt.ine.add.PTCONT.5290716,R CENTRAL,13,5445-043,PADRELA E TÁZEM,-7.50230621622167,41.569918396369665
pt.ine.add.PTCONT.5290717,R CENTRAL,,5445-043,PADRELA E TÁZEM,-7.492519406189312,41.56905395663169
pt.ine.add.PTCONT.5290718,R CENTRAL,38,5445-043,PADRELA E TÁZEM,-7.499090832755341,41.56891931051801
pt.ine.add.PTCONT.5290730,R MANUEL JOSÉ VIEIRA,,5430-191,POSSACOS,-7.273535766908954,41.61429996674439
pt.ine.add.PTCONT.5290741,R DIREITA,32 B,5445-109,CARRAZEDO DE MONTENEGRO,-7.4127326653262156,41.56027137270898
pt.ine.add.PTCONT.5290742,URB VILA,LOTE 12,5445-174,CARRAZEDO DE MONTENEGRO,-7.428259583113363,41.56518155960835
pt.ine.add.PTCONT.5290743,URB VILA,,5445-174,CARRAZEDO DE MONTENEGRO,-7.428259583113363,41.56518155960835
pt.ine.add.PTCONT.5290744,URB VILA,LOTE 17,5445-174,CARRAZEDO DE MONTENEGRO,-7.428259583113363,41.56518155960835
pt.ine.add.PTCONT.5290745,R MONSENHOR SILVINO NOBREGA,24,5445-162,CARRAZEDO DE MONTENEGRO,-7.4271801846116245,41.56335019864993
pt.ine.add.PTCONT.5290753,EN 206,1 B,5445-011,ARGERIZ,-7.3749787008264915,41.59146033776616
pt.ine.add.PTCONT.5290768,,,5445-031,CURROS VLP,-7.476533391168598,41.53394839960474
pt.ine.add.PTCONT.5290769,,,5445-033,CURROS VLP,-7.439633045965069,41.518749589724145
pt.ine.add.PTCONT.5290770,,,5445-032,CURROS VLP,-7.460804490352261,41.50805279444141
pt.ine.add.PTCONT.5290778,AV DOS BOMBEIROS VOLUNTÁRIOS,,5445-151,CARRAZEDO DE MONTENEGRO,-7.425700675336838,41.57149842338043
pt.ine.add.PTCONT.5290794,ESTR CAMARÁRIA,6,5430-046,BOUÇOÃES,-7.231627839828205,41.745987358841646
pt.ine.add.PTCONT.5290795,AV ENG FRANCISCO TAVARES,44,5430-100,FORNOS DO PINHAL,-7.263640316693546,41.65161716104972
pt.ine.add.PTCONT.5290796,R 25 DE ABRIL,,5430-127,FRIÕES,-7.388687669531301,41.680063794950506
pt.ine.add.PTCONT.5290797,R DE S JOÃO,,5430-126,FRIÕES,-7.427655162175563,41.68156107875707
pt.ine.add.PTCONT.5290803,R DAS LAMELINHAS,,5430-127,FRIÕES,-7.391771273925912,41.68031781761997
pt.ine.add.PTCONT.5290804,R DA IGREJA,,5430-191,POSSACOS,-7.273601366282071,41.613877290370645
pt.ine.add.PTCONT.5290805,R DA ESCOLA,3,5430-191,POSSACOS,-7.279545587861712,41.61346239983993
pt.ine.add.PTCONT.5290814,R DO SENHOR DOS MILAGRES,,5430-151,LEBUÇÃO,-7.251432924515372,41.75617976308942
pt.ine.add.PTCONT.5290815,R DO CASTANHEIRO,10,5430-191,POSSACOS,-7.2771640527463015,41.61301252132117
pt.ine.add.PTCONT.5290816,EN 206,37,5430-191,POSSACOS,-7.282227091099379,41.61208672817324
pt.ine.add.PTCONT.5290817,,,5430-201,RIO TORTO VLP,-7.284089358938172,41.52030851952844
pt.ine.add.PTCONT.5290820,R ENG FRANCISCO TAVARES,43,5430-230,SANTA VALHA,-7.237310391022126,41.67010616704463
pt.ine.add.PTCONT.5291376,R AMÉRICO SOUSA MARTINS,3,5430-276,SONIM,-7.229287295808474,41.71142307081921
pt.ine.add.PTCONT.5291377,R DAS ESCOLAS,17,5430-651,VILARANDELO,-7.325451658998728,41.66120667512561
pt.ine.add.PTCONT.5291378,R DAS ESCOLAS,17,5430-651,VILARANDELO,-7.325451658998728,41.66120667512561
pt.ine.add.PTCONT.5291379,R DAS ESCOLAS,17,5430-651,VILARANDELO,-7.325451658998728,41.66120667512561
pt.ine.add.PTCONT.5291380,R DAS ESCOLAS,17,5430-651,VILARANDELO,-7.325451658998728,41.66120667512561
pt.ine.add.PTCONT.5291381,R DAS ESCOLAS,17,5430-651,VILARANDELO,-7.325451658998728,41.66120667512561
pt.ine.add.PTCONT.5291390,R PRINCIPAL,9,5430-230,SANTA VALHA,-7.2387119238114925,41.67035117241885
pt.ine.add.PTCONT.5291391,R DIREITA,,5445-070,SANTIAGO RIBEIRA ALHARIZ,-7.374212528596704,41.60976860134581
pt.ine.add.PTCONT.5291392,R DO CRUZEIRO,12,5430-603,VASSAL,-7.355967918145132,41.61556206110547
pt.ine.add.PTCONT.5310480,,,5445-032,CURROS VLP,-7.459482108105423,41.50736077065053
pt.ine.add.PTCONT.5291406,R DO OUTEIRO,6,5430-251,S PEDRO DE VEIGA DE LILA,-7.355064082268804,41.496959716214256
pt.ine.add.PTCONT.5291416,R 25 DE ABRIL,,5445-062,SANTIAGO RIBEIRA ALHARIZ,-7.443486296357178,41.64200566298673
pt.ine.add.PTCONT.5291417,R DIREITA,,5445-066,SANTIAGO RIBEIRA ALHARIZ,-7.393982336909498,41.64031145384843
pt.ine.add.PTCONT.5291418,BR DOS BARREIROS,,5430-404,VALPAÇOS,-7.29693061055271,41.624547491443714
pt.ine.add.PTCONT.5291419,R DA PORTELA,3,5430-603,VASSAL,-7.354589011814789,41.61150112302185
pt.ine.add.PTCONT.5291432,R DO VINHAL,112,5430-251,S PEDRO DE VEIGA DE LILA,-7.357885541918868,41.49535809263279
pt.ine.add.PTCONT.5291433,R DO LOUREIRO,4,5430-630,VILARANDELO,-7.321851191869021,41.66396339592768
pt.ine.add.PTCONT.5291451,R DA EIRA,,5445-072,SANTIAGO RIBEIRA ALHARIZ,-7.416168192059768,41.637660873187954
pt.ine.add.PTCONT.5291452,TV DA FONTE,15,5430-293,TINHELA,-7.305681528926836,41.72554866659956
pt.ine.add.PTCONT.5291453,AV 25 DE ABRIL,47,5430-420,VALPAÇOS,-7.316280147446072,41.60502283853026
pt.ine.add.PTCONT.5291459,BR DO PINHEIRO,7,5445-082,SÃO JOÃO DA CORVEIRA,-7.44472022695886,41.586938078217486
pt.ine.add.PTCONT.5291460,R DA CASA BRANCA,12,5430-425,VALPAÇOS,-7.322922896434626,41.60525892065649
pt.ine.add.PTCONT.5291477,AV DA LIBERDADE,5,5430-633,VILARANDELO,-7.331299490406106,41.66404770559912
pt.ine.add.PTCONT.5291488,AV D MARIA DO CARMO CARMONA,7,5430-469,VALPAÇOS,-7.311379200034468,41.60838225796629
pt.ine.add.PTCONT.5291498,R CENTRAL,11,5445-084,SÃO JOÃO DA CORVEIRA,-7.452925572297557,41.58327741501655
pt.ine.add.PTCONT.5291508,R ORIENTAL,12,5430-484,VALPAÇOS,-7.308509293655651,41.60671405450277
pt.ine.add.PTCONT.5291509,R G,12,5430-495,VALPAÇOS,-7.306055176029271,41.60161840877554
pt.ine.add.PTCONT.5291510,R 1,6,5430-424,VALPAÇOS,-7.306829969869498,41.60200213047874
pt.ine.add.PTCONT.5291524,R DA ESCOLA,,5445-065,SANTIAGO RIBEIRA ALHARIZ,-7.374629849206362,41.614084070678096
pt.ine.add.PTCONT.5291525,R DO OUTEIRO GRANDE,2,5445-092,SERAPICOS VLP,-7.435571453523475,41.600163280898634
pt.ine.add.PTCONT.5291526,R DA EIRA,,5445-092,SERAPICOS VLP,-7.43627071690456,41.59871793951326
pt.ine.add.PTCONT.5291537,R DO CIMO DE VILA,13,5445-083,SÃO JOÃO DA CORVEIRA,-7.4856034102738445,41.57847806996744
pt.ine.add.PTCONT.5291538,R FERNANDO PESSOA,3,5430-528,VALPAÇOS,-7.299648729595016,41.611016885722314
pt.ine.add.PTCONT.5291548,R ALTO DO GASPAR,12,5430-528,VALPAÇOS,-7.29491832684259,41.607588148457424
pt.ine.add.PTCONT.5291549,R 13,,5430-424,VALPAÇOS,-7.303479212599328,41.60419287783872
pt.ine.add.PTCONT.5291550,R DA CASA BRANCA,108,5430-425,VALPAÇOS,-7.32444733184568,41.60614300108238
pt.ine.add.PTCONT.5291551,BR DO ATALHO,,5430-603,VASSAL,-7.352211815389006,41.61761643136688
pt.ine.add.PTCONT.5291561,R DA CAPELA,,5430-493,VALPAÇOS,-7.274946685076131,41.59474576022802
pt.ine.add.PTCONT.5291562,R CIDADE DE BETTEMBOURG,6,5430-426,VALPAÇOS,-7.3118171668529826,41.6031723184865
pt.ine.add.PTCONT.5291563,R DA INDÚSTRIA,20,5430-633,VILARANDELO,-7.335266064967884,41.66369716261061
pt.ine.add.PTCONT.5291589,R DO OUTEIRO,43,5430-052,CANAVESES,-7.362265222575572,41.50473342246735
pt.ine.add.PTCONT.5291599,R DAS ESCOLAS,17,5430-651,VILARANDELO,-7.325451658998728,41.66120667512561
pt.ine.add.PTCONT.5291602,R TRAMAGAL,,5430-466,VALPAÇOS,-7.310448761108892,41.6041889420524
pt.ine.add.PTCONT.5291609,R DO PRADO,,5445-064,SANTIAGO RIBEIRA ALHARIZ,-7.408831260404336,41.6101179728008
pt.ine.add.PTCONT.5291623,LG DAS AMOREIRAS,6,5430-441,VALPAÇOS,-7.310035985880541,41.60646389171485
pt.ine.add.PTCONT.5291629,R DA CRUZ,1,5430-273,SONIM,-7.229027671410974,41.71537351461575
pt.ine.add.PTCONT.5291641,AV ENG FRANCISCO TAVARES,,5430-121,FRIÕES,-7.402570790750998,41.65140469291078
pt.ine.add.PTCONT.5291645,R DA MOITA,28,5445-085,SÃO JOÃO DA CORVEIRA,-7.468598519827929,41.57630120142736
pt.ine.add.PTCONT.5291660,R DAS FONTAÍNHAS,53,5445-045,PADRELA E TÁZEM,-7.490624607558654,41.54973947529732
pt.ine.add.PTCONT.5291719,BR NOVO,,5445-015,ARGERIZ,-7.349592509300375,41.571311094030996
pt.ine.add.PTCONT.5291744,R PRINCIPAL,11,5430-021,ALVARELHOS VLP,-7.333133234923568,41.71085143244478
pt.ine.add.PTCONT.5291745,R PRINCIPAL,14,5430-051,CANAVESES,-7.376439002666212,41.51359719146275
pt.ine.add.PTCONT.5291746,TV DAS FLORES,3,5430-220,SANFINS VLP,-7.348328135025823,41.593550414751874
pt.ine.add.PTCONT.5291747,R DIREITA,9,5430-220,SANFINS VLP,-7.348109762995718,41.592765610437816
pt.ine.add.PTCONT.5291761,R DA GRANJA,,5430-052,CANAVESES,-7.360734057701907,41.505578505104815
pt.ine.add.PTCONT.5291762,R JOÃO ANTÓNIO DE CASTRO,,5430-231,SANTA VALHA,-7.2727800907410005,41.70809254637483
pt.ine.add.PTCONT.5291763,R DO CANTO,10,5430-231,SANTA VALHA,-7.270480240756733,41.71026313178869
pt.ine.add.PTCONT.5291764,BR DO PONTÃO,12,5430-236,SANTA VALHA,-7.272404690898786,41.68488791270454
pt.ine.add.PTCONT.5291778,BR DA MADALENA,,5430-234,SANTA VALHA,-7.268919336211712,41.68415948811804
pt.ine.add.PTCONT.5291791,R DO CANTO,,5445-013,ARGERIZ,-7.404020016694243,41.599508331099436
pt.ine.add.PTCONT.5291792,PC CÂNDIDO SOTTO MAYOR,7,5430-157,LEBUÇÃO,-7.256379763110396,41.755812469265834
pt.ine.add.PTCONT.5291801,BR DE ALÉM,,5445-013,ARGERIZ,-7.403727902810854,41.59988462966066
pt.ine.add.PTCONT.5291802,R DA FONTE,,5445-043,PADRELA E TÁZEM,-7.4918658207182185,41.56846507458248
pt.ine.add.PTCONT.5291818,R PRINCIPAL,,5430-013,ÁGUA REVÊS E CRASTO,-7.3248033393089935,41.56126250225157
pt.ine.add.PTCONT.5291819,R DO PRADO,,5445-183,CARRAZEDO DE MONTENEGRO,-7.431270298925157,41.558720338169685
pt.ine.add.PTCONT.5291820,R DO PRADO,,5445-183,CARRAZEDO DE MONTENEGRO,-7.431520555474845,41.558856920565304
pt.ine.add.PTCONT.5291821,BR DO PRADO,,5445-154,CARRAZEDO DE MONTENEGRO,-7.429492874902659,41.55902460403481
pt.ine.add.PTCONT.5291831,R DA CORREDOURA,26,5445-163,CARRAZEDO DE MONTENEGRO,-7.432030369520244,41.56159714719369
pt.ine.add.PTCONT.5291842,R DO PELOURINHO,,5430-011,ÁGUA REVÊS E CRASTO,-7.350347162944483,41.55646921760383
pt.ine.add.PTCONT.5291843,R DA ESTRADA,,5445-109,CARRAZEDO DE MONTENEGRO,-7.413170402255833,41.554313681752056
pt.ine.add.PTCONT.5291844,R DO LOUREIRO,,5430-073,ERVÕES,-7.356580618706582,41.65548789677936
pt.ine.add.PTCONT.5291845,R DO CRUZEIRO,,5430-073,ERVÕES,-7.357170664136079,41.65533882200971
pt.ine.add.PTCONT.5291846,R DAS FRAGAS,2,5430-072,ERVÕES,-7.3728848755032,41.645179819651
pt.ine.add.PTCONT.5291847,R DO ADRO,22,5430-100,FORNOS DO PINHAL,-7.2643123105007845,41.65342294029123
pt.ine.add.PTCONT.5291848,R DO ADRO,12,5430-100,FORNOS DO PINHAL,-7.264317754567355,41.65301782449287
pt.ine.add.PTCONT.5291864,R DA CALÇADA,,5430-011,ÁGUA REVÊS E CRASTO,-7.3478099706781395,41.55514638662725
pt.ine.add.PTCONT.5291865,EM 543,,5430-073,ERVÕES,-7.356987918325069,41.65856084358875
pt.ine.add.PTCONT.5291866,LG DE S JOÃO,8,5430-100,FORNOS DO PINHAL,-7.262266851849727,41.65287625488285
pt.ine.add.PTCONT.5291878,R DO CABO,5,5430-100,FORNOS DO PINHAL,-7.263748868135734,41.65336465897135
pt.ine.add.PTCONT.5291879,LG DO OUTEIRO,22,5430-164,LEBUÇÃO,-7.256990246811299,41.756897525526156
pt.ine.add.PTCONT.5291893,AV D DINIS,,5445-110,CARRAZEDO DE MONTENEGRO,-7.425796752720704,41.567087221532724
pt.ine.add.PTCONT.5291894,LG DA FONTE,,5430-191,POSSACOS,-7.274261334767677,41.61477357447743
pt.ine.add.PTCONT.5291895,LG DA FONTE,,5430-191,POSSACOS,-7.27497837743492,41.61498601104345
pt.ine.add.PTCONT.5291896,R NOVA DO ADRO,2,5430-191,POSSACOS,-7.273220435469679,41.61274899760881
pt.ine.add.PTCONT.5291897,TV DOS MARTIANOS,,5430-191,POSSACOS,-7.273658150119854,41.612311096868545
pt.ine.add.PTCONT.5291906,AV ENG FRANCISCO TAVARES,,5430-121,FRIÕES,-7.404632235089992,41.65702697119118
pt.ine.add.PTCONT.5291907,R DO CAMPO DE FUTEBOL,7,5430-191,POSSACOS,-7.28138801377409,41.61020777452539
pt.ine.add.PTCONT.5291908,R DO CAMPO DE FUTEBOL,,5430-191,POSSACOS,-7.282108861533004,41.61104144041498
pt.ine.add.PTCONT.5291909,,,5430-203,RIO TORTO VLP,-7.283157469210767,41.520112558122285
pt.ine.add.PTCONT.5291910,R DR OLÍMPIO SECA,26,5430-231,SANTA VALHA,-7.270593041416897,41.71081318600908
pt.ine.add.PTCONT.5291915,BR DOS CIPRESTES,8,5430-238,SANTA VALHA,-7.271651814260026,41.681001787185394
pt.ine.add.PTCONT.5292380,R DO BAIRRO,7,5445-085,SÃO JOÃO DA CORVEIRA,-7.471047819689347,41.57481172003944
pt.ine.add.PTCONT.5292381,BR ALTO,1,5430-272,SONIM,-7.229136029660002,41.711070748777495
pt.ine.add.PTCONT.5292382,R DR LOPES,14,5430-630,VILARANDELO,-7.322179105720267,41.664622964564515
pt.ine.add.PTCONT.5292394,R DA EIRA,,5445-070,SANTIAGO RIBEIRA ALHARIZ,-7.375584687007911,41.60938149368428
pt.ine.add.PTCONT.5292395,R TRAMAGAL,94,5430-466,VALPAÇOS,-7.306070612775358,41.595712169224726
pt.ine.add.PTCONT.5292416,R DO ALTO,34,5430-493,VALPAÇOS,-7.2751462261795,41.5914519381088
pt.ine.add.PTCONT.5292417,R DAS LAGES,24,5430-529,VALPAÇOS,-7.305402977475726,41.60478297366633
pt.ine.add.PTCONT.5292428,BR DA CAPELA,18,5445-087,SÃO JOÃO DA CORVEIRA,-7.457059665950037,41.59851793754521
pt.ine.add.PTCONT.5292429,R DA FONTE,,5430-293,TINHELA,-7.305845380213499,41.725891975101575
pt.ine.add.PTCONT.5292430,TV D MARIA DO CARMO CARMONA,,5430-469,VALPAÇOS,-7.315449658883452,41.63183852605016
pt.ine.add.PTCONT.5292436,R DIREITA,,5445-066,SANTIAGO RIBEIRA ALHARIZ,-7.393014486533815,41.63888266653279
pt.ine.add.PTCONT.5292437,SIT DE VALE VINHAS,,5430-251,S PEDRO DE VEIGA DE LILA,-7.3549439567700015,41.4929882470641
pt.ine.add.PTCONT.5292447,R DO POILO GRANDE,,5445-072,SANTIAGO RIBEIRA ALHARIZ,-7.418260327783612,41.638403190749464
pt.ine.add.PTCONT.5292448,BR TABERNA,6,5445-087,SÃO JOÃO DA CORVEIRA,-7.459500562761746,41.59217570496618
pt.ine.add.PTCONT.5292449,R CERAMUNHEIRO BAIXO,30,5430-252,S PEDRO DE VEIGA DE LILA,-7.330075476181014,41.49751725888092
pt.ine.add.PTCONT.5292450,R NSA SRA SAUDE,55,5430-500,VALPAÇOS,-7.304475092777499,41.61073665174786
pt.ine.add.PTCONT.5292451,R BISPO GOMES CARDOSO,3,5430-451,VALPAÇOS,-7.315059403844483,41.60669782671233
pt.ine.add.PTCONT.5292452,R 3,11,5430-424,VALPAÇOS,-7.304344320503039,41.60408207131871
pt.ine.add.PTCONT.5292468,BR DO PINHEIRO,4,5445-082,SÃO JOÃO DA CORVEIRA,-7.445230426386318,41.587454339154235
pt.ine.add.PTCONT.5292479,BR DAS EIRAS,,5430-293,TINHELA,-7.3029209772447095,41.72153124950639
pt.ine.add.PTCONT.5292480,BC DA IGUALDADE,13,5430-436,VALPAÇOS,-7.311687070031,41.60586345813972
pt.ine.add.PTCONT.5292498,R DA LIBERDADE,5,5445-067,SANTIAGO RIBEIRA ALHARIZ,-7.4021458574437995,41.632710640463
pt.ine.add.PTCONT.5292499,R DIREITA,,5445-094,SERAPICOS VLP,-7.443581559895758,41.62743847142555
pt.ine.add.PTCONT.5292500,R DO POMBAL,7,5430-464,VALPAÇOS,-7.308778456757123,41.60630182058314
pt.ine.add.PTCONT.5292508,R DA PONTE,,5445-063,SANTIAGO RIBEIRA ALHARIZ,-7.385824268500127,41.62337704441231
pt.ine.add.PTCONT.5292509,BR DO CANTO,1,5445-084,SÃO JOÃO DA CORVEIRA,-7.452981748847343,41.58363789308145
pt.ine.add.PTCONT.5292510,R DR MANUEL MOUTINHO,11,5430-471,VALPAÇOS,-7.314273162912906,41.60815981136593
pt.ine.add.PTCONT.5292511,R D,18,5430-495,VALPAÇOS,-7.306353232791391,41.60270098201815
pt.ine.add.PTCONT.5292512,BR DA IGREJA,4,5430-620,VEIGA DE LILA,-7.323088777480298,41.52287677333638
pt.ine.add.PTCONT.5292518,R DO OUTEIRO,,5445-063,SANTIAGO RIBEIRA ALHARIZ,-7.38773862883226,41.619689006434086
pt.ine.add.PTCONT.5292519,R DA CAPELA,,5445-065,SANTIAGO RIBEIRA ALHARIZ,-7.374353399315267,41.6141272642309
pt.ine.add.PTCONT.5292520,R DA CARREIRA,,5430-301,VALES VLP,-7.346628053568053,41.473609587663596
pt.ine.add.PTCONT.5292521,R DE STO ANTÓNIO,30,5430-455,VALPAÇOS,-7.313590184943748,41.613782173529955
pt.ine.add.PTCONT.5292522,R DO TAMBULHÃO,,5430-465,VALPAÇOS,-7.308977868080103,41.60759976457958
pt.ine.add.PTCONT.5292530,R DA ESCOLA,,5445-065,SANTIAGO RIBEIRA ALHARIZ,-7.373880079944607,41.6135659173729
pt.ine.add.PTCONT.5292531,TV GUERRA JUNQUEIRO,,5430-528,VALPAÇOS,-7.2951889616635,41.61077738308605
pt.ine.add.PTCONT.5292532,R DE S FRANCISCO DE ASSIS,7,5430-662,VILARANDELO,-7.326342611472738,41.66196922581176
pt.ine.add.PTCONT.5292542,R DA IGREJA,24,5445-083,SÃO JOÃO DA CORVEIRA,-7.484207388670802,41.57658843469855
pt.ine.add.PTCONT.5292552,R D MARIA JÚLIA,,5430-302,VALES VLP,-7.384219043091453,41.466315290633425
pt.ine.add.PTCONT.5292553,R DO TRAMAGAL,40,5430-466,VALPAÇOS,-7.3089850298805885,41.60232372135686
pt.ine.add.PTCONT.5292565,TV DO POMAR,9,5430-427,VALPAÇOS,-7.307016507969355,41.59678139328304
pt.ine.add.PTCONT.5292566,AV DO ESTÁDIO,,5430-603,VASSAL,-7.352320502813329,41.612584173911166
pt.ine.add.PTCONT.5292567,AV DA PONTE NOVA,,5430-603,VASSAL,-7.355534745949303,41.613668381829335
pt.ine.add.PTCONT.5292578,R DR FRANCISCO SÁ CARNEIRO,98,5445-160,CARRAZEDO DE MONTENEGRO,-7.43417067572807,41.56322183452305
pt.ine.add.PTCONT.5292618,R CENTRAL,,5430-168,LEBUÇÃO,-7.266157068999164,41.77175051082487
pt.ine.add.PTCONT.5292624,R DA LAGE,7,5430-047,BOUÇOÃES,-7.209499718599027,41.761612429281534
pt.ine.add.PTCONT.5292629,R DA LEIROTA,,5430-404,VALPAÇOS,-7.297544887122089,41.62994507681954
pt.ine.add.PTCONT.5292638,,,5445-101,CARRAZEDO DE MONTENEGRO,-7.4204342723457035,41.58594375911005
pt.ine.add.PTCONT.5292665,,,5445-032,CURROS VLP,-7.460481192073207,41.505727933041975
pt.ine.add.PTCONT.5292666,R DO TANQUE,,5430-077,ERVÕES,-7.371211968699141,41.66694823781454
pt.ine.add.PTCONT.5292667,R DO TANQUE,,5430-077,ERVÕES,-7.370560753562778,41.667187013365144
pt.ine.add.PTCONT.5292668,AV DOS BARREIROS,4,5430-074,ERVÕES,-7.360054189118455,41.64410385399684
pt.ine.add.PTCONT.5292669,R DAS FRAGAS,15,5430-072,ERVÕES,-7.3733039012698445,41.64527262559261
pt.ine.add.PTCONT.5292670,R DAS LAGES,14,5430-529,VALPAÇOS,-7.306220456341534,41.60464479938684
pt.ine.add.PTCONT.5292671,R 4,8,5430-424,VALPAÇOS,-7.3070879245243,41.60340854228634
pt.ine.add.PTCONT.5292672,R DO TRAMAGAL,65,5430-466,VALPAÇOS,-7.306463601349227,41.597812831268
pt.ine.add.PTCONT.5292673,R 11,,5430-424,VALPAÇOS,-7.304229559841897,41.6036760830731
pt.ine.add.PTCONT.5292674,R DA FONTE,,5430-602,VASSAL,-7.365627584946222,41.63264368555684
pt.ine.add.PTCONT.5292675,BR DO OUTEIRO,,5430-602,VASSAL,-7.364044650384325,41.63254307031726
pt.ine.add.PTCONT.5292676,,,5430-601,VASSAL,-7.344710405412527,41.60895781500333
pt.ine.add.PTCONT.5292721,R DO POULO,5,5430-090,FIÃES VLP,-7.262939076367912,41.73754053153829
pt.ine.add.PTCONT.5292722,R DO BAIRRO DE BAIXO,6,5430-100,FORNOS DO PINHAL,-7.26198992264339,41.65293718075264
pt.ine.add.PTCONT.5292723,R DO SOUTO,20,5430-100,FORNOS DO PINHAL,-7.264605687261609,41.652137658669076
pt.ine.add.PTCONT.5292724,AV HUMBERTO DELGADO,,5430-127,FRIÕES,-7.387360622304284,41.685781401115456
pt.ine.add.PTCONT.5292725,R GEN SOUSA TELES,20,5430-620,VEIGA DE LILA,-7.326791822111792,41.52279475248934
pt.ine.add.PTCONT.5292726,BR DA IGREJA,20,5430-620,VEIGA DE LILA,-7.323833757245433,41.52270194426182
pt.ine.add.PTCONT.5292727,AV DA LIBERDADE,,5430-633,VILARANDELO,-7.332881543365449,41.665247192122536
pt.ine.add.PTCONT.5292728,R DA PORTELA,21,5430-650,VILARANDELO,-7.326035997308553,41.66537039180504
pt.ine.add.PTCONT.5292729,R D AMÉLIA CASTELO,218,5430-659,VILARANDELO,-7.327007819399163,41.66446785981196
pt.ine.add.PTCONT.5292779,LG DO OUTEIRO,,5430-164,LEBUÇÃO,-7.2572908175486806,41.756899817201976
pt.ine.add.PTCONT.5292780,R DA PAZ,,5430-630,VILARANDELO,-7.322088481948966,41.664190157772175
pt.ine.add.PTCONT.5292781,R D AMÉLIA CASTELO,,5430-659,VILARANDELO,-7.3247389861387155,41.66347054440651
pt.ine.add.PTCONT.5292782,R DO SACO,8,5430-657,VILARANDELO,-7.324261802631507,41.66322409300979
pt.ine.add.PTCONT.5292783,R DA BOAVISTA,20,5430-648,VILARANDELO,-7.328206126053749,41.66080283391358
pt.ine.add.PTCONT.5292784,R DO SALGUEIRO,,5430-631,VILARANDELO,-7.318156946260401,41.65984967653547
pt.ine.add.PTCONT.5292844,R DA AVARENTA,1,5430-180,NOZELOS,-7.288415330788385,41.75459392527975
pt.ine.add.PTCONT.5292843,R DA MISERICÓRDIA,2,5430-166,LEBUÇÃO,-7.261035074691419,41.7583238146556
pt.ine.add.PTCONT.5292899,R CENTRAL,,5445-046,PADRELA E TÁZEM,-7.471732122925414,41.5535669796361
pt.ine.add.PTCONT.5292900,R DIREITA,67,5445-045,PADRELA E TÁZEM,-7.491515884404458,41.55172526630177
pt.ine.add.PTCONT.5292901,R DA LAMEIRA,1,5430-191,POSSACOS,-7.273343186716919,41.61344318924514
pt.ine.add.PTCONT.5292902,R DA CAPELA,14,5430-191,POSSACOS,-7.276366744845695,41.61252039001792
pt.ine.add.PTCONT.5292903,R DAS LADEIRAS,9,5430-201,RIO TORTO VLP,-7.287024173870673,41.55802851314433
pt.ine.add.PTCONT.5292904,R DA EIRA,1,5430-201,RIO TORTO VLP,-7.281324309519413,41.55574452317396
pt.ine.add.PTCONT.5292965,,,5430-201,RIO TORTO VLP,-7.283398546217511,41.52091566869074
pt.ine.add.PTCONT.5292966,R DOS BARREIROS,1,5445-052,SANTA MARIA DE EMERES,-7.388603383694342,41.55071783564638
pt.ine.add.PTCONT.5292967,LG DO TOURAL,,5445-052,SANTA MARIA DE EMERES,-7.379709112211313,41.54768868978682
pt.ine.add.PTCONT.5292968,R DE STO ANTÓNIO,14,5445-051,SANTA MARIA DE EMERES,-7.404263450998172,41.53625919080963
pt.ine.add.PTCONT.5292969,BC DE S FRANCISCO,6,5445-051,SANTA MARIA DE EMERES,-7.397386076607181,41.53511694356781
pt.ine.add.PTCONT.5293011,R CENTRAL,,5445-066,SANTIAGO RIBEIRA ALHARIZ,-7.391960334710597,41.638704807067164
pt.ine.add.PTCONT.5293012,R DA LIBERDADE,,5445-067,SANTIAGO RIBEIRA ALHARIZ,-7.400995940023772,41.63463908636363
pt.ine.add.PTCONT.5293013,R DA LIBERDADE,,5445-067,SANTIAGO RIBEIRA ALHARIZ,-7.400901691031407,41.63342300639095
pt.ine.add.PTCONT.5293060,R DA PONTE,,5445-063,SANTIAGO RIBEIRA ALHARIZ,-7.387354840689107,41.62175733845807
pt.ine.add.PTCONT.5293061,R DA ESTRADA NOVA,,5445-069,SANTIAGO RIBEIRA ALHARIZ,-7.393977275400414,41.602928596556026
pt.ine.add.PTCONT.5293115,R DIREITA,35,5430-251,S PEDRO DE VEIGA DE LILA,-7.355329127638225,41.495827035910885
pt.ine.add.PTCONT.5293116,R DIREITA,3,5445-094,SERAPICOS VLP,-7.44311867551345,41.628083951149414
pt.ine.add.PTCONT.5293160,R DA PEDRA D ARMAS,1,5430-278,SONIM,-7.228234965195425,41.711063656744685
pt.ine.add.PTCONT.5293161,R DA PRAÇA,,5430-293,TINHELA,-7.3065249209864085,41.72538367237719
pt.ine.add.PTCONT.5293162,BR DO PONTÃO,,5430-293,TINHELA,-7.312546435892211,41.72346409184325
pt.ine.add.PTCONT.5293163,R DO BAIRRO,56,5430-301,VALES VLP,-7.346116902677181,41.47429938301374
pt.ine.add.PTCONT.5293164,R 25 DE ABRIL,,5430-302,VALES VLP,-7.38436064998865,41.465451846852886
pt.ine.add.PTCONT.5293215,LG DOS MARCELOS,,5430-404,VALPAÇOS,-7.295597149523596,41.63022801866013
pt.ine.add.PTCONT.5293216,R DA FREIXEDA,11,5430-502,VALPAÇOS,-7.308001794455355,41.618297997993
pt.ine.add.PTCONT.5293271,R DO ALTO,48,5430-493,VALPAÇOS,-7.275689882366376,41.59205923423419
pt.ine.add.PTCONT.5293272,AV D MARIA DO CARMO CARMONA,105,5430-469,VALPAÇOS,-7.310576534534263,41.61679484909988
pt.ine.add.PTCONT.5293273,R ADRIANO BRAGA,10,5430-449,VALPAÇOS,-7.3121917444686595,41.6133670352724
pt.ine.add.PTCONT.5293274,R ADRIANO BRAGA,10,5430-449,VALPAÇOS,-7.3121917444686595,41.6133670352724
pt.ine.add.PTCONT.5293275,R 13,23,5430-424,VALPAÇOS,-7.304119314446976,41.60479173132946
pt.ine.add.PTCONT.5293276,AV ENG LUIS DE CASTRO SARAIVA,51,5430-472,VALPAÇOS,-7.3052241275472385,41.610327884521965
pt.ine.add.PTCONT.5293321,R DE S JOSÉ,,5430-011,ÁGUA REVÊS E CRASTO,-7.3410933023144045,41.55745027272
pt.ine.add.PTCONT.5293322,R DE S JOÃO,,5430-011,ÁGUA REVÊS E CRASTO,-7.350078148511595,41.55690856526791
pt.ine.add.PTCONT.5293323,R DO SOUTO,8,5430-021,ALVARELHOS VLP,-7.337403111369441,41.7134200419541
pt.ine.add.PTCONT.5293324,R DAS LADEIRAS,1,5430-022,ALVARELHOS VLP,-7.339529421375205,41.70369304258952
pt.ine.add.PTCONT.5293325,R PADRE MANUEL TORRÃO MESQUITA,6,5430-485,VALPAÇOS,-7.314611536285447,41.607964142497536
pt.ine.add.PTCONT.5293326,AV D MARIA DO CARMO CARMONA,48,5430-469,VALPAÇOS,-7.312318644932386,41.61092797552232
pt.ine.add.PTCONT.5293374,R DA PORTELA,5,5430-022,ALVARELHOS VLP,-7.340275772009718,41.698683281382564
pt.ine.add.PTCONT.5293375,EN 206,4 A,5445-011,ARGERIZ,-7.381849028847286,41.59058706880996
pt.ine.add.PTCONT.5293376,R DA ESCOLA,5,5445-014,ARGERIZ,-7.403105992702291,41.583755201066694
pt.ine.add.PTCONT.5293377,R DA IGREJA,13,5430-031,BARREIROS VLP,-7.228728218610467,41.689585414847556
pt.ine.add.PTCONT.5293378,R DA IGREJA,4,5430-031,BARREIROS VLP,-7.227458168753951,41.689359330808834
pt.ine.add.PTCONT.5293379,AV DR MANUEL CHAVES SOBRINHO DE MORAIS,15,5430-474,VALPAÇOS,-7.3147288239300785,41.607226684626696
pt.ine.add.PTCONT.5293380,R DA CASA BRANCA,39,5430-425,VALPAÇOS,-7.32147035798184,41.604384331163835
pt.ine.add.PTCONT.5293381,R PROF DR AMANDIO TAVARES,28,5430-487,VALPAÇOS,-7.316766066654937,41.604540096977246
pt.ine.add.PTCONT.5293382,R DE S VICENTE,11,5430-456,VALPAÇOS,-7.309696715550146,41.605786194185406
pt.ine.add.PTCONT.5293383,R CIDADE DE BETTEMBOURG,,5430-426,VALPAÇOS,-7.310748854877437,41.604173081991576
pt.ine.add.PTCONT.5293384,R CIDADE DE BETTEMBOURG,,5430-426,VALPAÇOS,-7.310748854877437,41.604173081991576
pt.ine.add.PTCONT.5293417,ESTR CAMARÁRIA,22,5430-046,BOUÇOÃES,-7.226665054669366,41.746677582796586
pt.ine.add.PTCONT.5293418,R PRINCIPAL,19,5430-042,BOUÇOÃES,-7.206593644139151,41.737090985820316
pt.ine.add.PTCONT.5293419,R PRINCIPAL,6,5430-045,BOUÇOÃES,-7.211255416260327,41.72715276957153
pt.ine.add.PTCONT.5293420,R PRINCIPAL,18,5430-051,CANAVESES,-7.37691686753858,41.51370837937819
pt.ine.add.PTCONT.5293421,R CIDADE DE BETTEMBOURG,,5430-426,VALPAÇOS,-7.310748854877437,41.604173081991576
pt.ine.add.PTCONT.5293422,R CIDADE DE BETTEMBOURG,,5430-426,VALPAÇOS,-7.310748854877437,41.604173081991576
pt.ine.add.PTCONT.5293423,R CIDADE DE BETTEMBOURG,,5430-426,VALPAÇOS,-7.310748854877437,41.604173081991576
pt.ine.add.PTCONT.5293424,R CIDADE DE BETTEMBOURG,,5430-426,VALPAÇOS,-7.310748854877437,41.604173081991576
pt.ine.add.PTCONT.5293425,R CIDADE DE BETTEMBOURG,,5430-426,VALPAÇOS,-7.310748854877437,41.604173081991576
pt.ine.add.PTCONT.5293426,R CIDADE DE BETTEMBOURG,,5430-426,VALPAÇOS,-7.310748854877437,41.604173081991576
pt.ine.add.PTCONT.5293427,R CIDADE DE BETTEMBOURG,,5430-426,VALPAÇOS,-7.310748854877437,41.604173081991576
pt.ine.add.PTCONT.5293428,R CIDADE DE BETTEMBOURG,,5430-426,VALPAÇOS,-7.310748854877437,41.604173081991576
pt.ine.add.PTCONT.5293429,R CIDADE DE BETTEMBOURG,,5430-426,VALPAÇOS,-7.310748854877437,41.604173081991576
pt.ine.add.PTCONT.5293430,R CIDADE DE BETTEMBOURG,,5430-426,VALPAÇOS,-7.310748854877437,41.604173081991576
pt.ine.add.PTCONT.5293431,R CIDADE DE BETTEMBOURG,,5430-426,VALPAÇOS,-7.310748854877437,41.604173081991576
pt.ine.add.PTCONT.5293432,R CIDADE DE BETTEMBOURG,,5430-426,VALPAÇOS,-7.310748854877437,41.604173081991576
pt.ine.add.PTCONT.5293433,R CIDADE DE BETTEMBOURG,,5430-426,VALPAÇOS,-7.310748854877437,41.604173081991576
pt.ine.add.PTCONT.5293476,BR DA CAPELA,,5445-101,CARRAZEDO DE MONTENEGRO,-7.4207179612475285,41.58304634702476
pt.ine.add.PTCONT.5293477,BR DO SOUTO,,5445-155,CARRAZEDO DE MONTENEGRO,-7.429419689838995,41.566875356160416
pt.ine.add.PTCONT.5293478,AV DOS BOMBEIROS VOLUNTÁRIOS,39,5445-151,CARRAZEDO DE MONTENEGRO,-7.425546195377935,41.57137142164786
pt.ine.add.PTCONT.5293479,R DIREITA,,5445-159,CARRAZEDO DE MONTENEGRO,-7.424544092122851,41.567619728512014
pt.ine.add.PTCONT.5293480,R CIDADE DE BETTEMBOURG,,5430-426,VALPAÇOS,-7.310711059978849,41.60242611761243
pt.ine.add.PTCONT.5293481,R DO TRAMAGAL,44,5430-466,VALPAÇOS,-7.30848287596006,41.60219407036201
pt.ine.add.PTCONT.5293482,R FERNÃO DE MAGALHÃES,,5430-426,VALPAÇOS,-7.312287345370739,41.60298660138902
pt.ine.add.PTCONT.5293516,R DO OUTEIRO,37 A,5445-102,CARRAZEDO DE MONTENEGRO,-7.392038194334287,41.57215073439664
pt.ine.add.PTCONT.5293517,BR DA ADEGA,,5445-152,CARRAZEDO DE MONTENEGRO,-7.43638525019217,41.56240693713517
pt.ine.add.PTCONT.5293518,R DO PRADO,,5445-183,CARRAZEDO DE MONTENEGRO,-7.431119930044001,41.55821521433364
pt.ine.add.PTCONT.5293519,R DA ESTRADA,72,5445-109,CARRAZEDO DE MONTENEGRO,-7.413014782763339,41.55537514133862
pt.ine.add.PTCONT.5293520,R DA ESTRADA,,5445-109,CARRAZEDO DE MONTENEGRO,-7.412940475924927,41.55451032286249
pt.ine.add.PTCONT.5293521,R DO BAIRRO DE BAIXO,3,5430-100,FORNOS DO PINHAL,-7.262028844230958,41.652721392031886
pt.ine.add.PTCONT.5293523,R DO RIGUENGO,7,5430-047,BOUÇOÃES,-7.210971103726738,41.76130913303243
pt.ine.add.PTCONT.5293526,R CIDADE DE BETTEMBOURG,,5430-426,VALPAÇOS,-7.310748854877437,41.604173081991576
pt.ine.add.PTCONT.5293532,BR DA CAPELA,,5445-101,CARRAZEDO DE MONTENEGRO,-7.420751064611629,41.583307657589955
pt.ine.add.PTCONT.5293553,CALHEIAS,,5430-407,VALPAÇOS,-7.314052496163995,41.60379150590505
pt.ine.add.PTCONT.5293555,R CIDADE DE BETTEMBOURG,,5430-426,VALPAÇOS,-7.310748854877437,41.604173081991576
pt.ine.add.PTCONT.5293556,TV DA ATALAIA,2,5430-632,VILARANDELO,-7.319544528277329,41.66121003063394
pt.ine.add.PTCONT.5293579,R DIREITA,106,5430-052,CANAVESES,-7.365886024948762,41.50442449540966
pt.ine.add.PTCONT.5293585,R DO SOBREIRO,6,5430-469,VALPAÇOS,-7.3109901307250995,41.618238376646715
pt.ine.add.PTCONT.5293625,R FRANCISCO BATISTA TAVARES,1,5430-090,FIÃES VLP,-7.264864608692409,41.739157695740474
pt.ine.add.PTCONT.5293633,R DAS ADEGAS,,5430-011,ÁGUA REVÊS E CRASTO,-7.350208947323617,41.55500968349237
pt.ine.add.PTCONT.5293663,,,5430-201,RIO TORTO VLP,-7.283243642063838,41.52085149814671
pt.ine.add.PTCONT.5293677,TV DO MAÇADOURO,6,5430-220,SANFINS VLP,-7.348240045675518,41.59290155399665
pt.ine.add.PTCONT.5293692,R DAS LADEIRAS,4,5430-022,ALVARELHOS VLP,-7.3396208255299165,41.705053191585485
pt.ine.add.PTCONT.5293708,R DO OUTEIRO,,5430-052,CANAVESES,-7.36276129427506,41.50532198959828
pt.ine.add.PTCONT.5293709,BR DOS CIPRESTES,,5430-238,SANTA VALHA,-7.273355043251138,41.68206794502025
pt.ine.add.PTCONT.5293716,R DA PRAÇA,3,5430-031,BARREIROS VLP,-7.228079874960229,41.68785165355515
pt.ine.add.PTCONT.5293717,BR DAS POÇAS,,5445-101,CARRAZEDO DE MONTENEGRO,-7.422125455510588,41.58810609763271
pt.ine.add.PTCONT.5293718,R DA IGREJA,9,5430-180,NOZELOS,-7.288028626516121,41.75382579772413
pt.ine.add.PTCONT.5293719,R ENG FRANCISCO BATISTA TAVARES,,5430-167,LEBUÇÃO,-7.25867278585987,41.756073034315584
pt.ine.add.PTCONT.5293731,TV DA AJUDA,1,5445-013,ARGERIZ,-7.403884535248304,41.59982259805187
pt.ine.add.PTCONT.5293732,BR DO VILAR,,5445-101,CARRAZEDO DE MONTENEGRO,-7.420581606283493,41.58345066569018
pt.ine.add.PTCONT.5293733,R CENTRAL,36,5445-043,PADRELA E TÁZEM,-7.4992221790996965,41.56897405676376
pt.ine.add.PTCONT.5293734,BC DA PAZ,,5445-043,PADRELA E TÁZEM,-7.491490080073018,41.56887714750535
pt.ine.add.PTCONT.5293744,R DA FIGUEIRA,1,5430-047,BOUÇOÃES,-7.209468183308264,41.76213436746815
pt.ine.add.PTCONT.5293745,R DO PRADO,21,5445-109,CARRAZEDO DE MONTENEGRO,-7.415359227377228,41.56232262751962
pt.ine.add.PTCONT.5293761,URB VILA DA TORRE,,5445-174,CARRAZEDO DE MONTENEGRO,-7.4290579669036125,41.56485632082142
pt.ine.add.PTCONT.5293762,URB VILA DA TORRE,,5445-174,CARRAZEDO DE MONTENEGRO,-7.4290579669036125,41.56485632082142
pt.ine.add.PTCONT.5293763,URB VILA DA TORRE,,5445-174,CARRAZEDO DE MONTENEGRO,-7.4290579669036125,41.56485632082142
pt.ine.add.PTCONT.5293778,R DO LADÁRIO,60,5445-109,CARRAZEDO DE MONTENEGRO,-7.412063352787961,41.55793522653255
pt.ine.add.PTCONT.5293797,EN 213,22,5430-075,ERVÕES,-7.346062672850765,41.672360929689795
pt.ine.add.PTCONT.5293807,R 25 DE ABRIL,,5430-127,FRIÕES,-7.388220429408079,41.68100613272079
pt.ine.add.PTCONT.5293808,R JOAQUIM DUARTE OLIVEIRA,43,5430-149,LEBUÇÃO,-7.256618922752485,41.758560308457454
pt.ine.add.PTCONT.5293823,R DIREITA,11,5445-159,CARRAZEDO DE MONTENEGRO,-7.42424389610848,41.56766289645724
pt.ine.add.PTCONT.5293824,R DO SENHOR DOS AFLITOS,,5430-127,FRIÕES,-7.3940651330269,41.679270180598884
pt.ine.add.PTCONT.5293825,R DO SENHOR DOS AFLITOS,,5430-127,FRIÕES,-7.394149812424551,41.679216704212365
pt.ine.add.PTCONT.5293826,R DA FONTE,24,5430-127,FRIÕES,-7.393914273346092,41.6788100328234
pt.ine.add.PTCONT.5293827,R DA LAMEIRA,,5430-191,POSSACOS,-7.273412653485055,41.61363278335265
pt.ine.add.PTCONT.5293828,R DA IGREJA,13,5430-191,POSSACOS,-7.273959771987876,41.61308765704187
pt.ine.add.PTCONT.5293829,BC DO EIROL,5,5430-201,RIO TORTO VLP,-7.281368705739721,41.55601496131493
pt.ine.add.PTCONT.5293839,BR DE BAIXO,60,5445-102,CARRAZEDO DE MONTENEGRO,-7.39359742079739,41.574204601134575
pt.ine.add.PTCONT.5293840,R DO CANTO,,5430-124,FRIÕES,-7.424131738178158,41.65132362305729
pt.ine.add.PTCONT.5293841,R ENG FRANCISCO BATISTA TAVARES,40,5430-167,LEBUÇÃO,-7.260516546214583,41.757545591542765
pt.ine.add.PTCONT.5293842,R DO EIROL,4,5430-201,RIO TORTO VLP,-7.282209705645037,41.55586812609564
pt.ine.add.PTCONT.5293843,,,5430-201,RIO TORTO VLP,-7.259884781358161,41.52956313407388
pt.ine.add.PTCONT.5293844,R DO VALE DAS CORÇAS,13,5430-220,SANFINS VLP,-7.348107227140664,41.59693426006959
pt.ine.add.PTCONT.5293845,AV FRANCISCO BATISTA TAVARES,1,5430-220,SANFINS VLP,-7.34923523744685,41.594907143472994
pt.ine.add.PTCONT.5293846,R DA PIPA,,5445-052,SANTA MARIA DE EMERES,-7.3822675982369805,41.54409494696168
pt.ine.add.PTCONT.5294431,BR DO PONTÃO,,5430-293,TINHELA,-7.311129636296131,41.72241857527511
pt.ine.add.PTCONT.5294781,,,5430-201,RIO TORTO VLP,-7.253383533481513,41.53627533785371
pt.ine.add.PTCONT.5294337,R DIREITA,,5430-302,VALES VLP,-7.38353187093128,41.465698555745774
pt.ine.add.PTCONT.5294338,R DO CALÇÃO,16,5430-493,VALPAÇOS,-7.274341857275588,41.59422803971959
pt.ine.add.PTCONT.5294352,R DA CAPELA,,5445-068,SANTIAGO RIBEIRA ALHARIZ,-7.370865019708984,41.60776566552577
pt.ine.add.PTCONT.5294353,R DO CIMO DO POVO,12,5445-085,SÃO JOÃO DA CORVEIRA,-7.468918007098099,41.57203531200334
pt.ine.add.PTCONT.5294354,R DO OLIVAL,7,5430-272,SONIM,-7.229618110297284,41.71096649953112
pt.ine.add.PTCONT.5294355,BR NOVO,,5430-302,VALES VLP,-7.384866499912026,41.46414058213902
pt.ine.add.PTCONT.5294356,R SISENANDO CHAVES,17,5430-434,VALPAÇOS,-7.307457787754881,41.59603726560517
pt.ine.add.PTCONT.5294357,R DOS PRAZERES,24,5430-632,VILARANDELO,-7.319994044099768,41.660790047586346
pt.ine.add.PTCONT.5294365,R 25 DE ABRIL,,5445-062,SANTIAGO RIBEIRA ALHARIZ,-7.444592226102616,41.6429756726323
pt.ine.add.PTCONT.5294366,BR DA PORTELA,3,5430-251,S PEDRO DE VEIGA DE LILA,-7.35290672100756,41.49909699806954
pt.ine.add.PTCONT.5294367,R GAGO COUTINHO,8,5430-410,VALPAÇOS,-7.3120197759879915,41.61084480912516
pt.ine.add.PTCONT.5294368,R 13,30,5430-424,VALPAÇOS,-7.304100050022285,41.6044224458939
pt.ine.add.PTCONT.5294369,TV DO LG DA FEIRA,5,5430-648,VILARANDELO,-7.326996187884382,41.66058727382926
pt.ine.add.PTCONT.5294381,R DA ESTRADA,,5445-069,SANTIAGO RIBEIRA ALHARIZ,-7.39367635089739,41.604070118419806
pt.ine.add.PTCONT.5294382,BR DOS BARREIROS,,5430-404,VALPAÇOS,-7.295225550492648,41.62648884373089
pt.ine.add.PTCONT.5294383,R DA LAMEIRA,25,5430-493,VALPAÇOS,-7.275315692508659,41.593145876553066
pt.ine.add.PTCONT.5294384,R PROF DR AMÂNDIO TAVARES,32,5430-487,VALPAÇOS,-7.312006024429628,41.606252890386195
pt.ine.add.PTCONT.5294397,R CENTRAL,,5445-066,SANTIAGO RIBEIRA ALHARIZ,-7.391649644142336,41.63858575730676
pt.ine.add.PTCONT.5294398,BR DA TABERNA,44,5445-087,SÃO JOÃO DA CORVEIRA,-7.459158412485074,41.59624333968022
pt.ine.add.PTCONT.5294399,R DR LOPES,,5430-630,VILARANDELO,-7.3223517053329985,41.66426404279216
pt.ine.add.PTCONT.5294415,AV D MARIA DO CARMO CARMONA,182,5430-469,VALPAÇOS,-7.311041842662013,41.6236138660101
pt.ine.add.PTCONT.5294416,R GEN HUMBERTO DELGADO,,5430-630,VILARANDELO,-7.321497464497857,41.663447699815634
pt.ine.add.PTCONT.5294432,R ARCO,30,5430-506,VALPAÇOS,-7.317307479832206,41.61012615554823
pt.ine.add.PTCONT.5294452,R DA ESTRADA,13,5445-084,SÃO JOÃO DA CORVEIRA,-7.440685828593465,41.586274593270886
pt.ine.add.PTCONT.5294453,R DAS EIRAS DO BAIRRO ESQUERDO,,5430-293,TINHELA,-7.3030011993949735,41.72370164645972
pt.ine.add.PTCONT.5294471,R DIREITA,34,5445-094,SERAPICOS VLP,-7.4432779332908465,41.62890423197422
pt.ine.add.PTCONT.5294472,R DR MANUEL MOUTINHO,17,5430-471,VALPAÇOS,-7.314243935226645,41.608573767421014
pt.ine.add.PTCONT.5294486,R CENTRAL,,5445-067,SANTIAGO RIBEIRA ALHARIZ,-7.400494424428269,41.63229496709254
pt.ine.add.PTCONT.5294495,R DAS EIRAS,,5445-063,SANTIAGO RIBEIRA ALHARIZ,-7.38621886717181,41.621416831245014
pt.ine.add.PTCONT.5294496,R NOVA,,5430-301,VALES VLP,-7.34373226010945,41.47349971304965
pt.ine.add.PTCONT.5294497,R G,3,5430-424,VALPAÇOS,-7.305894308315524,41.60200440521939
pt.ine.add.PTCONT.5294512,R DAS ALMAS,28,5430-620,VEIGA DE LILA,-7.3222133485159695,41.521024844041484
pt.ine.add.PTCONT.5294521,R DO CHAFARIZ,7,5445-092,SERAPICOS VLP,-7.435166013404583,41.598828285264034
pt.ine.add.PTCONT.5294535,BR DA MOURISCA,3,5430-273,SONIM,-7.230874276456751,41.7147938053492
pt.ine.add.PTCONT.5294536,R DE ANGOLA,2,5430-403,VALPAÇOS,-7.318337324542419,41.60836875949705
pt.ine.add.PTCONT.5294537,BR DO ATALHO,19,5430-603,VASSAL,-7.350498608698964,41.61740670220022
pt.ine.add.PTCONT.5294549,LG DO SOUTO,1,5430-302,VALES VLP,-7.383852242316902,41.46594374583707
pt.ine.add.PTCONT.5294550,BR DE S JOSÉ,,5430-302,VALES VLP,-7.381059218746557,41.46317935689846
pt.ine.add.PTCONT.5294551,AV DA LIBERDADE,,5430-633,VILARANDELO,-7.334837520635914,41.66534182551986
pt.ine.add.PTCONT.5294557,LG FEIRA,,5430-156,LEBUÇÃO,-7.259275372591016,41.75774323456702
pt.ine.add.PTCONT.5294565,R 13,,5430-424,VALPAÇOS,-7.303180501694855,41.604100686011186
pt.ine.add.PTCONT.5294581,R CIDADE DE BETTEMBOURG,,5430-426,VALPAÇOS,-7.311057522888588,41.602536638529045
pt.ine.add.PTCONT.5294588,BR DA CAPELA,51,5445-102,CARRAZEDO DE MONTENEGRO,-7.391621041375758,41.57402980671277
pt.ine.add.PTCONT.5294613,AV ENG FRANCISCO BATISTA TAVARES,8,5430-042,BOUÇOÃES,-7.206833690498741,41.74213479094062
pt.ine.add.PTCONT.5294614,R DA CAPELA,,5430-125,FRIÕES,-7.40151957915765,41.69866632792518
pt.ine.add.PTCONT.5294661,R DE S TOMÉ E PRÍNCIPE,16,5430-403,VALPAÇOS,-7.321082833588785,41.60945961059549
pt.ine.add.PTCONT.5294673,R DO OURO,7,5430-047,BOUÇOÃES,-7.208975342912512,41.76212140087313
pt.ine.add.PTCONT.5294674,R DO RIGUENGO,1,5430-047,BOUÇOÃES,-7.210361903644362,41.76102513917797
pt.ine.add.PTCONT.5294675,R DO ARCO,6,5430-506,VALPAÇOS,-7.317433637556055,41.6067777222564
pt.ine.add.PTCONT.5294676,R DE S VICENTE,30,5430-456,VALPAÇOS,-7.309865216361978,41.60574238310394
pt.ine.add.PTCONT.5294677,R DA FORMIGUEIRA,,5430-504,VALPAÇOS,-7.310845994107128,41.598411485311715
pt.ine.add.PTCONT.5294678,R CIDADE DE MADRID,,5430-492,VALPAÇOS,-7.312195075173068,41.597016567112576
pt.ine.add.PTCONT.5294679,AV ENG ADELINO AMARO COSTA,,5430-409,VALPAÇOS,-7.312125392643844,41.605353385527906
pt.ine.add.PTCONT.5294688,BR DO PEREIRO,6,5445-153,CARRAZEDO DE MONTENEGRO,-7.4340857553992885,41.56665171569163
pt.ine.add.PTCONT.5294689,BR DO PEREIRO,23,5445-153,CARRAZEDO DE MONTENEGRO,-7.433708793616898,41.564920719392596
pt.ine.add.PTCONT.5294690,AV ENG ADELINO AMARO COSTA,,5430-409,VALPAÇOS,-7.312125392643844,41.605353385527906
pt.ine.add.PTCONT.5294691,AV ENG ADELINO AMARO COSTA W,W,5430-409,VALPAÇOS,-7.312125392643844,41.605353385527906
pt.ine.add.PTCONT.5294692,R 5,2,5430-424,VALPAÇOS,-7.305929134452193,41.6049128108001
pt.ine.add.PTCONT.5294693,R 14,5,5430-424,VALPAÇOS,-7.305383820792891,41.604404685632495
pt.ine.add.PTCONT.5294704,ESTR DE LAMAS DE OURIÇO,26,5430-075,ERVÕES,-7.3488108482487755,41.67843905604898
pt.ine.add.PTCONT.5294705,CM 1098,7,5430-077,ERVÕES,-7.372146216147923,41.670204688054596
pt.ine.add.PTCONT.5294706,R DO TANQUE,11,5430-077,ERVÕES,-7.370831055365999,41.66666660373197
pt.ine.add.PTCONT.5294707,R DO LOUREIRO,,5430-073,ERVÕES,-7.356688008226965,41.65554264331633
pt.ine.add.PTCONT.5294708,R DAS FRAGAS,,5430-072,ERVÕES,-7.373197360683443,41.645145871871634
pt.ine.add.PTCONT.5294709,R DO POMAR,13,5430-434,VALPAÇOS,-7.303577771818222,41.5908772878938
pt.ine.add.PTCONT.5294710,R MÁRIO GAVAIA DA CRUZ COUTINHO,60,5430-424,VALPAÇOS,-7.304907237988243,41.60321278129448
pt.ine.add.PTCONT.5294711,TV DO BONFIM,6,5430-603,VASSAL,-7.357238053144916,41.61469729421331
pt.ine.add.PTCONT.5294712,,,5430-601,VASSAL,-7.333271862823313,41.60845563113676
pt.ine.add.PTCONT.5294713,TV DA PORTELA,10,5430-603,VASSAL,-7.3535707888885,41.610377779334826
pt.ine.add.PTCONT.5294724,R DA MÃE DE DEUS,24,5430-100,FORNOS DO PINHAL,-7.264128529073939,41.65012627363977
pt.ine.add.PTCONT.5294725,R CENTRAL,,5430-126,FRIÕES,-7.426016462746231,41.68314462495713
pt.ine.add.PTCONT.5294726,AV ENG FRANCISCO TAVARES,,5430-121,FRIÕES,-7.403195213405034,41.65457790045193
pt.ine.add.PTCONT.5294727,BR 1 DE MAIO,5,5430-620,VEIGA DE LILA,-7.32396090630479,41.51922740778598
pt.ine.add.PTCONT.5294728,BC DAS HORTAS,5,5430-643,VILARANDELO,-7.321256655331603,41.66254565024036
pt.ine.add.PTCONT.5294729,R S SEBASTIAO,36,5430-632,VILARANDELO,-7.31980399816032,41.66158101010916
pt.ine.add.PTCONT.5294730,R DOS PRAZERES,66,5430-632,VILARANDELO,-7.319928581670666,41.66122175201423
pt.ine.add.PTCONT.5294738,R DE NSA SRA DA ASSUNÇÃO,,5430-121,FRIÕES,-7.399546536893467,41.648153164860105
pt.ine.add.PTCONT.5294739,EN 103,13,5430-169,LEBUÇÃO,-7.2766346875378485,41.76796667999126
pt.ine.add.PTCONT.5294740,R PRINCIPAL,,5430-131,LEBUÇÃO,-7.249290114963417,41.768632891545806
pt.ine.add.PTCONT.5294741,R DA TALAIA,,5430-131,LEBUÇÃO,-7.2497711598692005,41.76950991192818
pt.ine.add.PTCONT.5294742,R DA CAPELA,,5430-131,LEBUÇÃO,-7.248173375505214,41.767633931178715
pt.ine.add.PTCONT.5294743,LG DA FEIRA,22,5430-156,LEBUÇÃO,-7.258809652879768,41.757505604953835
pt.ine.add.PTCONT.5294744,R JOAQUIM DUARTE OLIVEIRA,30,5430-149,LEBUÇÃO,-7.256355747270118,41.75757693801689
pt.ine.add.PTCONT.5295789,R DIREITA,,5445-011,ARGERIZ,-7.383074639821013,41.59038798788704
pt.ine.add.PTCONT.5294757,AV DOS FRANCISCANOS,27,5430-180,NOZELOS,-7.285351429448522,41.755345645330664
pt.ine.add.PTCONT.5294758,EN 206,16,5445-043,PADRELA E TÁZEM,-7.502192610520613,41.57173651513506
pt.ine.add.PTCONT.5294759,R DIREITA,56,5445-045,PADRELA E TÁZEM,-7.490126441704115,41.550420972239145
pt.ine.add.PTCONT.5294760,BR DOS DEPÓSITOS,44,5430-191,POSSACOS,-7.2831885434788965,41.61561423007224
pt.ine.add.PTCONT.5294780,R DO CASTANHEIRO,,5430-191,POSSACOS,-7.27791603288166,41.61148751374396
pt.ine.add.PTCONT.5294782,AV FRANCISCO BATISTA TAVARES,12,5430-220,SANFINS VLP,-7.350678658347989,41.598536422591174
pt.ine.add.PTCONT.5294807,R COR AUGUSTO SEQUEIRA,7,5430-220,SANFINS VLP,-7.349610597066094,41.593622187163405
pt.ine.add.PTCONT.5294808,TV DO FORNO,,5430-220,SANFINS VLP,-7.3480216692747575,41.593107145816326
pt.ine.add.PTCONT.5294809,BC DA AMIZADE,,5445-051,SANTA MARIA DE EMERES,-7.399053664384385,41.537063396892414
pt.ine.add.PTCONT.5294810,CAM DA BREIA,,5445-052,SANTA MARIA DE EMERES,-7.394441871912045,41.55480714456039
pt.ine.add.PTCONT.5294829,BR DO PONTÃO,28,5430-236,SANTA VALHA,-7.273526390839888,41.68543651460214
pt.ine.add.PTCONT.5294830,R DO CEMITÉRIO,38,5430-233,SANTA VALHA,-7.267385826303909,41.68476918368777
pt.ine.add.PTCONT.5294831,BR DO SOBREIRO,44,5430-237,SANTA VALHA,-7.272391099894252,41.68320416713553
pt.ine.add.PTCONT.5294832,SIT DAS POÇAS,60,5430-230,SANTA VALHA,-7.235385082588322,41.67039726170392
pt.ine.add.PTCONT.5295790,R DIREITA,,5445-109,CARRAZEDO DE MONTENEGRO,-7.411199097661175,41.55911828840506
pt.ine.add.PTCONT.5294855,R CENTRAL,,5445-067,SANTIAGO RIBEIRA ALHARIZ,-7.402303283109443,41.632585591653935
pt.ine.add.PTCONT.5294856,R DO PRADO,,5445-064,SANTIAGO RIBEIRA ALHARIZ,-7.408654342539754,41.609846750268716
pt.ine.add.PTCONT.5294857,R DA ESTRADA,,5445-068,SANTIAGO RIBEIRA ALHARIZ,-7.370197305527651,41.60741910000801
pt.ine.add.PTCONT.5294858,BR DA TABERNA,35,5445-087,SÃO JOÃO DA CORVEIRA,-7.457966752351374,41.59549805054977
pt.ine.add.PTCONT.5294859,BR DA CAPELA,4,5445-087,SÃO JOÃO DA CORVEIRA,-7.458595835751922,41.59728446078569
pt.ine.add.PTCONT.5294860,BR DA TABERNA,18,5445-087,SÃO JOÃO DA CORVEIRA,-7.459165244345461,41.59443365083105
pt.ine.add.PTCONT.5294887,BR DO BELO MONTE,4,5445-084,SÃO JOÃO DA CORVEIRA,-7.456294849237542,41.584467772108965
pt.ine.add.PTCONT.5294888,BR NOVO,25,5445-081,SÃO JOÃO DA CORVEIRA,-7.467150209562213,41.58655698237291
pt.ine.add.PTCONT.5294889,R DE FELGUEIRAS,11,5445-083,SÃO JOÃO DA CORVEIRA,-7.47895325009129,41.572056829710476
pt.ine.add.PTCONT.5294890,R DA FONTE,94,5430-251,S PEDRO DE VEIGA DE LILA,-7.356974394326843,41.495441985141746
pt.ine.add.PTCONT.5294891,R DO BAIRRO,,5430-251,S PEDRO DE VEIGA DE LILA,-7.3542739472658365,41.49493752730729
pt.ine.add.PTCONT.5294908,BR POCO CRUZ,24,5430-252,S PEDRO DE VEIGA DE LILA,-7.329875271840762,41.4991815535061
pt.ine.add.PTCONT.5294909,R DA EIRA DOS POMBAIS,,5430-252,S PEDRO DE VEIGA DE LILA,-7.32908796199869,41.49796054683364
pt.ine.add.PTCONT.5294910,R DA CASTELAR,4,5430-275,SONIM,-7.227797504769351,41.71826291750425
pt.ine.add.PTCONT.5294911,AV DO SENHOR DO BONFIM,8,5430-271,SONIM,-7.230858754705093,41.71332613174322
pt.ine.add.PTCONT.5294912,BR DO PAÇO,9,5430-277,SONIM,-7.228378883010227,41.71108279673421
pt.ine.add.PTCONT.5294929,R DE STO AMARO,,5430-292,TINHELA,-7.292719389190077,41.712210601661695
pt.ine.add.PTCONT.5294930,R DA IGREJA,82,5430-301,VALES VLP,-7.344373427656521,41.47097404693351
pt.ine.add.PTCONT.5294931,QTA DAS ESPADANAS,,5430-404,VALPAÇOS,-7.301308394281765,41.6275054035731
pt.ine.add.PTCONT.5294932,BR DE CIMA,,5430-406,VALPAÇOS,-7.280042778743618,41.64036864588957
pt.ine.add.PTCONT.5294947,R DA LAMEIRA,2,5430-493,VALPAÇOS,-7.274781226230836,41.59365509167344
pt.ine.add.PTCONT.5294948,R DR VELOSO MARTINS,16 A,5430-507,VALPAÇOS,-7.313646685242358,41.61216193491657
pt.ine.add.PTCONT.5294949,BC ADRIANO BRAGA,9,5430-449,VALPAÇOS,-7.312591273843893,41.61308177367026
pt.ine.add.PTCONT.5294950,R ALTO DO GASPAR,20,5430-528,VALPAÇOS,-7.294146687806013,41.60696127354803
pt.ine.add.PTCONT.5295075,LG DO PRADO,,5430-011,ÁGUA REVÊS E CRASTO,-7.348642791711033,41.55863648750639
pt.ine.add.PTCONT.5295076,R DO PELOURINHO,,5430-011,ÁGUA REVÊS E CRASTO,-7.349708214105398,41.55677099054322
pt.ine.add.PTCONT.5295077,BR DE S JOÃO,8,5445-011,ARGERIZ,-7.389516046684602,41.59133919550702
pt.ine.add.PTCONT.5295078,BR DE S JOÃO,8,5445-011,ARGERIZ,-7.389516046684602,41.59133919550702
pt.ine.add.PTCONT.5295079,R DO OUTEIRO,6,5445-012,ARGERIZ,-7.363792943353061,41.56586074191543
pt.ine.add.PTCONT.5295080,R PRINCIPAL,53,5430-031,BARREIROS VLP,-7.229592446186667,41.687053247249
pt.ine.add.PTCONT.5295562,BR DO EMIGRANTE,7,5445-012,ARGERIZ,-7.354359394430339,41.56773301952944
pt.ine.add.PTCONT.5295570,R DR MANUEL CHAVES SOBRINHO DE MORAIS,,5430-166,LEBUÇÃO,-7.25996824922843,41.75719029615758
pt.ine.add.PTCONT.5295572,BR DO BELO MONTE,13,5445-084,SÃO JOÃO DA CORVEIRA,-7.457219498152442,41.58434716058727
pt.ine.add.PTCONT.5295586,R DA CAPELA,,5430-191,POSSACOS,-7.276644202052396,41.61240541131659
pt.ine.add.PTCONT.5295590,R DO LOMBO,18,5430-031,BARREIROS VLP,-7.227507946488583,41.68752302475856
pt.ine.add.PTCONT.5295591,R MEM PAZ I,,5430-440,VALPAÇOS,-7.31611482810701,41.619076229289824
pt.ine.add.PTCONT.5295603,R DOS FONSECAS,24,5430-632,VILARANDELO,-7.31825182520542,41.66089475425682
pt.ine.add.PTCONT.5295608,R DO MIRADOURO,,5430-641,VILARANDELO,-7.330424914541567,41.66002604345731
pt.ine.add.PTCONT.5295617,R DA CASA BRANCA,114,5430-425,VALPAÇOS,-7.325041577748154,41.606588354904694
pt.ine.add.PTCONT.5295621,QTA DO FERRÃO,,5445-167,CARRAZEDO DE MONTENEGRO,-7.429233158122446,41.5663880165601
pt.ine.add.PTCONT.5295650,AV ENG ADELINO AMARO DA COSTA,,5430-409,VALPAÇOS,-7.312125392643844,41.605353385527906
pt.ine.add.PTCONT.5295651,AV ENG ADELINO AMARO DA COSTA,,5430-409,VALPAÇOS,-7.312125392643844,41.605353385527906
pt.ine.add.PTCONT.5295652,AV ENG ADELINO AMARO DA COSTA,,5430-409,VALPAÇOS,-7.312125392643844,41.605353385527906
pt.ine.add.PTCONT.5295653,AV ENG ADELINO AMARO DA COSTA,,5430-409,VALPAÇOS,-7.312125392643844,41.605353385527906
pt.ine.add.PTCONT.5295654,AV ENG ADELINO AMARO DA COSTA,,5430-409,VALPAÇOS,-7.312125392643844,41.605353385527906
pt.ine.add.PTCONT.5295655,AV ENG ADELINO AMARO DA COSTA,,5430-409,VALPAÇOS,-7.312125392643844,41.605353385527906
pt.ine.add.PTCONT.5295656,AV ENG ADELINO AMARO DA COSTA,,5430-409,VALPAÇOS,-7.312125392643844,41.605353385527906
pt.ine.add.PTCONT.5295657,AV ENG ADELINO AMARO DA COSTA,,5430-409,VALPAÇOS,-7.312125392643844,41.605353385527906
pt.ine.add.PTCONT.5295662,R DE ANGOLA,7,5430-403,VALPAÇOS,-7.318860933669619,41.60870560154548
pt.ine.add.PTCONT.5295682,LG DO VALE,23,5430-011,ÁGUA REVÊS E CRASTO,-7.348442930766879,41.55633018732834
pt.ine.add.PTCONT.5295683,R DAS ADEGAS,,5430-011,ÁGUA REVÊS E CRASTO,-7.349568381317659,41.55544649966848
pt.ine.add.PTCONT.5295689,BR DA IGREJA,2,5430-042,BOUÇOÃES,-7.206377432161507,41.73708023877743
pt.ine.add.PTCONT.5295690,R DO POMBAL,,5430-167,LEBUÇÃO,-7.258613940290825,41.75686487925229
pt.ine.add.PTCONT.5295691,R DR MANUEL CHAVES SOBRINHO DE MORAIS,9,5430-166,LEBUÇÃO,-7.260243975899338,41.75636408515965
pt.ine.add.PTCONT.5295702,EN 213,17,5430-201,RIO TORTO VLP,-7.2810504582794255,41.55651680735202
pt.ine.add.PTCONT.5295715,R DOS BARREIROS,20,5445-052,SANTA MARIA DE EMERES,-7.383667279398574,41.547426437672385
pt.ine.add.PTCONT.5295716,LG DOS NEGRILHOS,,5445-052,SANTA MARIA DE EMERES,-7.3799105078025535,41.54582624683794
pt.ine.add.PTCONT.5295722,R DO CIMO DA VINHA,23,5430-031,BARREIROS VLP,-7.229132043699081,41.6873377362171
pt.ine.add.PTCONT.5295723,R DIREITA,,5430-052,CANAVESES,-7.363273905015566,41.50451508516628
pt.ine.add.PTCONT.5295724,BC DAS FLORES,6,5445-051,SANTA MARIA DE EMERES,-7.400282683488876,41.53646798759988
pt.ine.add.PTCONT.5295735,R DIREITA,91,5430-052,CANAVESES,-7.363686430029806,41.50406765855777
pt.ine.add.PTCONT.5295736,R DAS ESCOLAS,2,5430-236,SANTA VALHA,-7.272492956211254,41.68457345327021
pt.ine.add.PTCONT.5295737,BR PONTAO,36,5430-236,SANTA VALHA,-7.273370242160156,41.68453500240291
pt.ine.add.PTCONT.5295750,R DO EIRÓ,,5430-167,LEBUÇÃO,-7.257164932192953,41.75643068449705
pt.ine.add.PTCONT.5295751,TV DAS ANTAS,5,5430-180,NOZELOS,-7.281531340289442,41.75872065406224
pt.ine.add.PTCONT.5295775,R DO ARRABALDE,5,5430-047,BOUÇOÃES,-7.2108488061363785,41.76145220425324
pt.ine.add.PTCONT.5295776,BR DO VILAR,,5445-101,CARRAZEDO DE MONTENEGRO,-7.420023176634395,41.582979014441015
pt.ine.add.PTCONT.5295777,AV DOS FRANCISCANOS,48,5430-180,NOZELOS,-7.289279883847119,41.75559964881995
pt.ine.add.PTCONT.5295778,R DOS NABAIS,,5445-041,PADRELA E TÁZEM,-7.519411975882626,41.58038319813948
pt.ine.add.PTCONT.5295779,EN 206,15,5445-043,PADRELA E TÁZEM,-7.499986999626324,41.572912875812946
pt.ine.add.PTCONT.5295800,EN 206,,5445-011,ARGERIZ,-7.3795757856256845,41.59114842311224
pt.ine.add.PTCONT.5295801,URB VILA DA TORRE,,5445-174,CARRAZEDO DE MONTENEGRO,-7.428422340505249,41.56482583826553
pt.ine.add.PTCONT.5295802,URB VILA DA TORRE,,5445-174,CARRAZEDO DE MONTENEGRO,-7.428422340505249,41.56482583826553
pt.ine.add.PTCONT.5295803,URB VILA DA TORRE,,5445-174,CARRAZEDO DE MONTENEGRO,-7.428422340505249,41.56482583826553
pt.ine.add.PTCONT.5295804,R DIREITA,70,5445-159,CARRAZEDO DE MONTENEGRO,-7.425530257346098,41.565140790441035
pt.ine.add.PTCONT.5295812,R DA PORTELA,13,5445-164,CARRAZEDO DE MONTENEGRO,-7.435792195415445,41.560701647776185
