id,street,house,postcode,city,lon,lat
pt.ine.add.PTCONT.3540053,R JANUARIO JOSE ALMEIDA,124,4480-123,ÁRVORE,-8.722854864293858,41.334298032959296
pt.ine.add.PTCONT.3540054,R 9,36,4480-101,ÁRVORE,-8.72795571163989,41.33559537810652
pt.ine.add.PTCONT.3540055,R ESTRADA VELHA,385,4480-107,ÁRVORE,-8.732902421156473,41.33569576203754
pt.ine.add.PTCONT.3540237,R DR JOSE CORREIA,55,4480-607,ÁRVORE,-8.732273135976298,41.33351105628364
pt.ine.add.PTCONT.3540238,R CIMA,332,4480-113,ÁRVORE,-8.72406631317019,41.3335174708059
pt.ine.add.PTCONT.3540239,R CIMA,332,4480-113,ÁRVORE,-8.72406631317019,41.3335174708059
pt.ine.add.PTCONT.3540240,R CIMA,332,4480-113,ÁRVORE,-8.72406631317019,41.3335174708059
pt.ine.add.PTCONT.3540241,R CIMA,332,4480-113,ÁRVORE,-8.72406631317019,41.3335174708059
pt.ine.add.PTCONT.3541513,R CIMA,197,4480-113,ÁRVORE,-8.725168921260392,41.33259339095017
pt.ine.add.PTCONT.3541514,AV COR AIRES MARTINS,356,4480-051,ÁRVORE,-8.732417615665033,41.33233077354048
pt.ine.add.PTCONT.3541515,R ESTRADA VELHA,650,4480-107,ÁRVORE,-8.73087273610053,41.33190661298928
pt.ine.add.PTCONT.3541516,R AVELEDA,883,4485-017,AVELEDA VCD,-8.698128963605289,41.26681023282907
pt.ine.add.PTCONT.3541517,TV AVELEDA,333,4485-036,AVELEDA VCD,-8.69944775529948,41.264750804343926
pt.ine.add.PTCONT.3541518,TV AVELEDA,333,4485-036,AVELEDA VCD,-8.69944775529948,41.264750804343926
pt.ine.add.PTCONT.3541519,R RAMIL,331,4485-030,AVELEDA VCD,-8.696697374527092,41.26408898865886
pt.ine.add.PTCONT.3541520,R CABREIRO,68,4480-180,AZURARA,-8.734093330919558,41.33658995406761
pt.ine.add.PTCONT.3541521,R CABREIRO,68,4480-180,AZURARA,-8.734093330919558,41.33658995406761
pt.ine.add.PTCONT.3541522,R CABREIRO,68,4480-180,AZURARA,-8.734093330919558,41.33658995406761
pt.ine.add.PTCONT.3541523,R CABREIRO,68,4480-180,AZURARA,-8.734093330919558,41.33658995406761
pt.ine.add.PTCONT.3541524,R CABREIRO,68,4480-180,AZURARA,-8.734093330919558,41.33658995406761
pt.ine.add.PTCONT.3541525,R CABREIRO,68,4480-180,AZURARA,-8.734093330919558,41.33658995406761
pt.ine.add.PTCONT.3541526,URB GAIVOTA,,4480-179,AZURARA,-8.740112925870106,41.33771988537434
pt.ine.add.PTCONT.3541527,URB GAIVOTA,,4480-179,AZURARA,-8.740112925870106,41.33771988537434
pt.ine.add.PTCONT.3541528,URB GAIVOTA,,4480-179,AZURARA,-8.740112925870106,41.33771988537434
pt.ine.add.PTCONT.3541529,URB GAIVOTA,,4480-179,AZURARA,-8.740112925870106,41.33771988537434
pt.ine.add.PTCONT.3541530,URB GAIVOTA,,4480-179,AZURARA,-8.740112925870106,41.33771988537434
pt.ine.add.PTCONT.3541531,URB GAIVOTA,,4480-179,AZURARA,-8.740112925870106,41.33771988537434
pt.ine.add.PTCONT.3541532,URB GAIVOTA,,4480-179,AZURARA,-8.740112925870106,41.33771988537434
pt.ine.add.PTCONT.3541533,R 47,76,4480-164,AZURARA,-8.737984663106298,41.33494884089809
pt.ine.add.PTCONT.3541534,R SENHORA DA AJUDA,,4480-233,BAGUNTE,-8.680104983709123,41.353489667126894
pt.ine.add.PTCONT.3541535,R 25 DE ABRIL,486,4485-060,CANIDELO VCD,-8.640616418823207,41.31719511656514
pt.ine.add.PTCONT.3541536,ESC BELAVISTA,96,4485-112,FORNELO,-8.636616608291932,41.337507872686196
pt.ine.add.PTCONT.3541537,R SOBREIROS,185,4485-138,FORNELO,-8.646433504044293,41.337086337013396
pt.ine.add.PTCONT.3541668,R 15,228,4480-066,ÁRVORE,-8.728048774522419,41.33138100178681
pt.ine.add.PTCONT.3541669,R 71,77,4480-098,ÁRVORE,-8.724512941158292,41.33006662435546
pt.ine.add.PTCONT.3541670,2 TRAVESSA DA RUA 30,21,4480-608,ÁRVORE,-8.726514844311463,41.32952508122122
pt.ine.add.PTCONT.3541671,R NSA SRA DAS NEVES,77,4480-172,AZURARA,-8.73611269000303,41.344403900149885
pt.ine.add.PTCONT.3541672,R LADAINHAS,105,4480-215,BAGUNTE,-8.663963183645075,41.371402214950365
pt.ine.add.PTCONT.3541673,R CAVALEIROS,226,4480-226,BAGUNTE,-8.657898669148668,41.3768054193326
pt.ine.add.PTCONT.3541674,TV S EUFEMIA,753,4485-060,CANIDELO VCD,-8.64206179543749,41.30955325955686
pt.ine.add.PTCONT.3541675,TV S EUFEMIA,959,4485-060,CANIDELO VCD,-8.643757376157927,41.30953674591774
pt.ine.add.PTCONT.3541676,R 25 DE ABRIL,331,4485-060,CANIDELO VCD,-8.638898075709536,41.31738276195581
pt.ine.add.PTCONT.3541677,R CARACOI,573,4485-060,CANIDELO VCD,-8.644523160867243,41.30973143643037
pt.ine.add.PTCONT.3541678,R REAL,3,4485-085,FAJOZES,-8.698583672339822,41.327774843579476
pt.ine.add.PTCONT.3541679,R TOURAO,74,4485-088,FAJOZES,-8.695714178001767,41.324682502207686
pt.ine.add.PTCONT.3541680,R LAMA,26,4485-118,FORNELO,-8.648203051801339,41.33272046448865
pt.ine.add.PTCONT.3541681,R PINTOR JULIO RAMOS,356,4485-265,GUILHABREU,-8.646367434483983,41.29365088171623
pt.ine.add.PTCONT.3541682,R PEDREIRAS,92,4485-003,GUILHABREU,-8.636145818879047,41.293380857594826
pt.ine.add.PTCONT.3541683,R BATEL,171,4485-253,GUILHABREU,-8.634546652401305,41.29190215282277
pt.ine.add.PTCONT.3541684,R FOJO,230,4485-321,LABRUGE,-8.7024110077201,41.28304162193501
pt.ine.add.PTCONT.3541685,R 25 DE ABRIL,364,4485-304,LABRUGE,-8.72183832657572,41.27974744263765
pt.ine.add.PTCONT.3541686,R JUNCES,123,4485-388,MACIEIRA DA MAIA,-8.661623873218256,41.342284956142116
pt.ine.add.PTCONT.3541687,R SAUL DIAS,254,4485-627,MINDELO,-8.719991971371178,41.31878966352551
pt.ine.add.PTCONT.3541835,R CALVELHE,743,4485-314,LABRUGE,-8.715191643520773,41.271884608987975
pt.ine.add.PTCONT.3541821,R JOUDINA,335,4485-179,GIÃO VCD,-8.679225545246384,41.31402004782485
pt.ine.add.PTCONT.3541822,R BATEL,510,4485-253,GUILHABREU,-8.632957345462021,41.28857753450206
pt.ine.add.PTCONT.3541823,AV ALBERTO FERREIRA DA COSTA,423,4480-268,JUNQUEIRA VCD,-8.677904562613065,41.38337539511107
pt.ine.add.PTCONT.3541824,R NSA SRA DA GRAÇA,322,4480-305,JUNQUEIRA VCD,-8.684518932003682,41.379508192396386
pt.ine.add.PTCONT.3541825,R PROF COSTA,21,4480-308,JUNQUEIRA VCD,-8.683111373136589,41.37845245799546
pt.ine.add.PTCONT.3541826,R LABRUGE,10,4485-317,LABRUGE,-8.701083967102129,41.28142743254028
pt.ine.add.PTCONT.3541827,R CARVALHOSA,110,4485-353,LABRUGE,-8.726151744501058,41.27364750981309
pt.ine.add.PTCONT.3541828,R CARVALHOSA,110,4485-353,LABRUGE,-8.726151744501058,41.27364750981309
pt.ine.add.PTCONT.3541829,R CARVALHOSA,110,4485-353,LABRUGE,-8.726151744501058,41.27364750981309
pt.ine.add.PTCONT.3541830,R CARVALHOSA,110,4485-353,LABRUGE,-8.726151744501058,41.27364750981309
pt.ine.add.PTCONT.3541831,R CARVALHOSA,110,4485-353,LABRUGE,-8.726151744501058,41.27364750981309
pt.ine.add.PTCONT.3541832,R CARVALHOSA,110,4485-353,LABRUGE,-8.726151744501058,41.27364750981309
pt.ine.add.PTCONT.3541833,R CARVALHOSA,116,4485-353,LABRUGE,-8.726151744501058,41.27364750981309
pt.ine.add.PTCONT.3541834,R CARVALHOSA,110,4485-353,LABRUGE,-8.726151744501058,41.27364750981309
pt.ine.add.PTCONT.3541836,R MONTE,2,4485-397,MACIEIRA DA MAIA,-8.68401654992179,41.349716328392404
pt.ine.add.PTCONT.3541837,R PONTE D AVE,324,4485-389,MACIEIRA DA MAIA,-8.68074653528938,41.341637302711604
pt.ine.add.PTCONT.3541838,R PONTE D AVE,734,4485-389,MACIEIRA DA MAIA,-8.679141160729953,41.34539961673361
pt.ine.add.PTCONT.3541839,R RAL,106,4485-390,MACIEIRA DA MAIA,-8.671610860239415,41.34213961669524
pt.ine.add.PTCONT.3541840,R DR SERAFIM LIMA,251,4485-380,MACIEIRA DA MAIA,-8.64541951182336,41.34032331179279
pt.ine.add.PTCONT.3541841,R REVOLTO,214,4485-548,MINDELO,-8.725968643242062,41.308800521157046
pt.ine.add.PTCONT.3541842,R ALEXANDRE HERCULANO,96,4485-569,MINDELO,-8.714045228239284,41.310833210618654
pt.ine.add.PTCONT.3541843,R ALEXANDRE HERCULANO,96,4485-569,MINDELO,-8.714045228239284,41.310833210618654
pt.ine.add.PTCONT.3541844,R ALEXANDRE HERCULANO,96,4485-569,MINDELO,-8.714045228239284,41.310833210618654
pt.ine.add.PTCONT.3541845,R PRAIA,1130,4485-495,MINDELO,-8.735607171469667,41.31029017303001
pt.ine.add.PTCONT.3541846,AV REPUBLICA,1037,4480-340,PARADA VCD,-8.638994283638858,41.36224055301295
pt.ine.add.PTCONT.3541847,R OUTEIRO,100,4480-362,RETORTA,-8.721396659495856,41.36075933387024
pt.ine.add.PTCONT.3541848,R BALANCAS,188,4480-421,RIO MAU VCD,-8.701691783933843,41.40767905353573
pt.ine.add.PTCONT.3541849,R VISTA ALEGRE,40,4480-415,RIO MAU VCD,-8.70166504734183,41.403240241579155
pt.ine.add.PTCONT.3541850,R CARVALHAL,182,4480-436,RIO MAU VCD,-8.691110080966386,41.403778126617965
pt.ine.add.PTCONT.3541851,R PADRE VIEIRA,86,4480-457,RIO MAU VCD,-8.69199291537625,41.40353073520433
pt.ine.add.PTCONT.3541852,R ANDRE,2124,4480-472,RIO MAU VCD,-8.689411184052684,41.39527761564924
pt.ine.add.PTCONT.3541853,R S CRISTÓVÃO,862,4480-430,RIO MAU VCD,-8.680154637082424,41.40364165202907
pt.ine.add.PTCONT.3541854,R CENTRAL,564,4480-561,TOUGUINHÓ,-8.7029219408207,41.378734233495884
pt.ine.add.PTCONT.3541855,R CENTRAL,564,4480-561,TOUGUINHÓ,-8.7029219408207,41.378734233495884
pt.ine.add.PTCONT.3541856,R CENTRAL,564,4480-561,TOUGUINHÓ,-8.7029219408207,41.378734233495884
pt.ine.add.PTCONT.3541857,R CENTRAL,564,4480-561,TOUGUINHÓ,-8.7029219408207,41.378734233495884
pt.ine.add.PTCONT.3541858,R LAVANDEIRA,1390,4485-704,VILA CHÃ VCD,-8.723139568112497,41.29434546821882
pt.ine.add.PTCONT.3541859,R LAVANDEIRA,1390,4485-704,VILA CHÃ VCD,-8.723139568112497,41.29434546821882
pt.ine.add.PTCONT.3541860,R PADRE VENTURA TEIXEIRA,20,4485-750,VILA CHÃ VCD,-8.723241413331548,41.293723662424625
pt.ine.add.PTCONT.3542031,R UCHAS,354,4485-060,CANIDELO VCD,-8.653858020299257,41.30778971822749
pt.ine.add.PTCONT.3542032,R BRUXELAS,311,4485-502,MINDELO,-8.735471019198526,41.308472060310585
pt.ine.add.PTCONT.3542033,R ROMA,248,4485-511,MINDELO,-8.733780421630103,41.30772455147415
pt.ine.add.PTCONT.3542034,R OASIS,12,4485-522,MINDELO,-8.729684763729317,41.3077458511301
pt.ine.add.PTCONT.3542035,R VIENA,256,4485-514,MINDELO,-8.73011824275959,41.30813978361507
pt.ine.add.PTCONT.3542036,R BRUXELAS,65,4485-502,MINDELO,-8.735677750586763,41.30628298473863
pt.ine.add.PTCONT.3542037,BR ARCANJO S RAFAEL,4,4485-472,MINDELO,-8.739354021976407,41.309982369350365
pt.ine.add.PTCONT.3542038,R LONDRES,399,4485-503,MINDELO,-8.736384995205619,41.309169592537955
pt.ine.add.PTCONT.3542039,R LAGE,612,4485-624,MODIVAS,-8.686946393854816,41.296389141667746
pt.ine.add.PTCONT.3542040,R 9 IRMÃOS,245,4485-594,MODIVAS,-8.680712796825361,41.2962298774972
pt.ine.add.PTCONT.3542041,R VISO,41,4485-593,MODIVAS,-8.686460223292093,41.29113307359303
pt.ine.add.PTCONT.3542042,R COSTA PADRAO,322,4485-908,MOSTEIRÓ VCD,-8.655218521573005,41.279240474360655
pt.ine.add.PTCONT.3542043,R VÁRZEA,115,4480-418,RIO MAU VCD,-8.681777451265127,41.3961066178887
pt.ine.add.PTCONT.3542044,R VÁRZEA,132,4480-418,RIO MAU VCD,-8.681548603992406,41.39590962172511
pt.ine.add.PTCONT.3542045,R MANUEL AZEVEDO FERNANDES,8,4480-480,TOUGUES,-8.698359457238636,41.362630574865086
pt.ine.add.PTCONT.3542046,R FONTE,93,4480-480,TOUGUES,-8.703549871305015,41.36029993673754
pt.ine.add.PTCONT.3542047,R CAMPELOS,191,4480-480,TOUGUES,-8.705101854544349,41.35738393645927
pt.ine.add.PTCONT.3542048,R CAMPELOS,191,4480-480,TOUGUES,-8.705101854544349,41.35738393645927
pt.ine.add.PTCONT.3542049,R CAMPELOS,191,4480-480,TOUGUES,-8.705101854544349,41.35738393645927
pt.ine.add.PTCONT.3542050,R CAMPELOS,191,4480-480,TOUGUES,-8.705101854544349,41.35738393645927
pt.ine.add.PTCONT.3542051,TV MOINHOS,100,4485-682,VAIRÃO,-8.665928558569961,41.33245969071521
pt.ine.add.PTCONT.3542052,R AMORA,215,4485-647,VAIRÃO,-8.680504263940511,41.332679421783446
pt.ine.add.PTCONT.3542053,R PEDREIRAS,110,4485-652,VAIRÃO,-8.672908192352958,41.32706974826528
pt.ine.add.PTCONT.3542054,R ALEGRIA,396,4480-743,VILA DO CONDE,-8.758738971808869,41.371529246631134
pt.ine.add.PTCONT.3542055,AV D MANUEL I,168,4480-793,VILA DO CONDE,-8.757577557501994,41.36632224574299
pt.ine.add.PTCONT.3542056,R S PEDRO DE FORMARIZ,300,4480-784,VILA DO CONDE,-8.730631418792782,41.36170219654852
pt.ine.add.PTCONT.3542057,R CORDOEIRO,24,4480-942,VILA DO CONDE,-8.757986743517108,41.36161993866141
pt.ine.add.PTCONT.3542257,R CAMPELOS,191,4480-480,TOUGUES,-8.705101854544349,41.35738393645927
pt.ine.add.PTCONT.3542258,R CAMPELOS,191,4480-480,TOUGUES,-8.705101854544349,41.35738393645927
pt.ine.add.PTCONT.3542259,R PENA,287,4480-501,TOUGUINHA,-8.708780794963909,41.373455747864305
pt.ine.add.PTCONT.3542260,R AFONSO ALBUQUERQUE,30,4480-529,TOUGUINHA,-8.721796509729593,41.37329985977863
pt.ine.add.PTCONT.3542261,VLA CALÇADAS,96,4480-546,TOUGUINHA,-8.72571792446938,41.36679685691182
pt.ine.add.PTCONT.3542262,VLA CALÇADAS,96,4480-546,TOUGUINHA,-8.72571792446938,41.36679685691182
pt.ine.add.PTCONT.3542263,R POÇO NOVO,911,4480-578,TOUGUINHÓ,-8.709076558351782,41.3947846848032
pt.ine.add.PTCONT.3542264,R GANDARA,752,4480-563,TOUGUINHÓ,-8.704013557313475,41.39010084408135
pt.ine.add.PTCONT.3542265,R TRAS DO FIEIRO,,4485-728,VILA CHÃ VCD,-8.725951883349044,41.299040167259434
pt.ine.add.PTCONT.3542266,R 105,,4485-690,VILA CHÃ VCD,-8.736954523292464,41.30488966397769
pt.ine.add.PTCONT.3542267,TV AREIAS,5,4485-757,VILA CHÃ VCD,-8.733447480472622,41.30136939833541
pt.ine.add.PTCONT.3542268,AV INF D HENRIQUE,40,4480-670,VILA DO CONDE,-8.761147188006937,41.36963429581243
pt.ine.add.PTCONT.3542269,R ALFREDO BASTOS,160,4480-724,VILA DO CONDE,-8.760525096218991,41.368332111035784
pt.ine.add.PTCONT.3542270,R D PEDRO IV,103,4480-947,VILA DO CONDE,-8.754944177602798,41.37092854021017
pt.ine.add.PTCONT.3542271,R D PEDRO IV,103,4480-947,VILA DO CONDE,-8.754944177602798,41.37092854021017
pt.ine.add.PTCONT.3542272,R D PEDRO IV,103,4480-947,VILA DO CONDE,-8.754944177602798,41.37092854021017
pt.ine.add.PTCONT.3542273,R D PEDRO IV,103,4480-947,VILA DO CONDE,-8.754944177602798,41.37092854021017
pt.ine.add.PTCONT.3542274,R D PEDRO IV,103,4480-947,VILA DO CONDE,-8.754944177602798,41.37092854021017
pt.ine.add.PTCONT.3542275,R D PEDRO IV,103,4480-947,VILA DO CONDE,-8.754944177602798,41.37092854021017
pt.ine.add.PTCONT.3542276,R LIRIOS,98,4480-799,VILA DO CONDE,-8.756229106549078,41.36779720581479
pt.ine.add.PTCONT.3542277,R PEDRO ÁLVARES CABRAL,23,4480-924,VILA DO CONDE,-8.754915800415558,41.36794837345607
pt.ine.add.PTCONT.3542278,R PEDRO ÁLVARES CABRAL,30,4480-924,VILA DO CONDE,-8.754709623078348,41.36763434764952
pt.ine.add.PTCONT.3542279,R ALTO DE PEGA,7,4480-726,VILA DO CONDE,-8.748725138484595,41.36420898367965
pt.ine.add.PTCONT.3542280,R NSA SRA DO LEME,40,4480-830,VILA DO CONDE,-8.7519941743733,41.3610850697482
pt.ine.add.PTCONT.3542281,R SENHORA DA BONANCA,36,4480-826,VILA DO CONDE,-8.751369686015664,41.36076428237163
pt.ine.add.PTCONT.3542282,AV CIDADE GUIMARÃES,80,4480-660,VILA DO CONDE,-8.752818487675311,41.359793061398726
pt.ine.add.PTCONT.3542283,AV CIDADE GUIMARÃES,80,4480-660,VILA DO CONDE,-8.752818487675311,41.359793061398726
pt.ine.add.PTCONT.3542284,AV CIDADE GUIMARÃES,80,4480-660,VILA DO CONDE,-8.752818487675311,41.359793061398726
pt.ine.add.PTCONT.3542285,AV DR CARLOS PINTO FERREIRA,36,4480-665,VILA DO CONDE,-8.755429481368841,41.35913968740198
pt.ine.add.PTCONT.3542286,AV DR CARLOS PINTO FERREIRA,36,4480-665,VILA DO CONDE,-8.755429481368841,41.35913968740198
pt.ine.add.PTCONT.3542287,AV DR CARLOS PINTO FERREIRA,36,4480-665,VILA DO CONDE,-8.755429481368841,41.35913968740198
pt.ine.add.PTCONT.3542288,AV DR CARLOS PINTO FERREIRA,36,4480-665,VILA DO CONDE,-8.755429481368841,41.35913968740198
pt.ine.add.PTCONT.3542289,AV DR CARLOS PINTO FERREIRA,36,4480-665,VILA DO CONDE,-8.755429481368841,41.35913968740198
pt.ine.add.PTCONT.3542290,AV DR CARLOS PINTO FERREIRA,36,4480-665,VILA DO CONDE,-8.755429481368841,41.35913968740198
pt.ine.add.PTCONT.3542291,AV DR CARLOS PINTO FERREIRA,36,4480-665,VILA DO CONDE,-8.755429481368841,41.35913968740198
pt.ine.add.PTCONT.3542292,R PROF JOAQUIM TORRES,134,4480-871,VILA DO CONDE,-8.73346157060535,41.357554627321036
pt.ine.add.PTCONT.3542293,AV BERNARDINO MACHADO,169,4480-657,VILA DO CONDE,-8.733112301082155,41.354657156451104
pt.ine.add.PTCONT.3542294,R LIDADOR,116,4480-791,VILA DO CONDE,-8.7426014768519,41.352203220207315
pt.ine.add.PTCONT.3542295,AV JULIO GRAÇA,283,4480-672,VILA DO CONDE,-8.747242904441805,41.34892809464877
pt.ine.add.PTCONT.3542296,LG GEN LEMOS,26,4485-765,VILAR VCD,-8.677168882774994,41.27922887341222
pt.ine.add.PTCONT.3542297,R OLIVEIRAS,1,4485-785,VILAR VCD,-8.669659504648566,41.28486469307651
pt.ine.add.PTCONT.3542495,R VASCO DA GAMA,99,4480-840,VILA DO CONDE,-8.753983946494492,41.36924997936677
pt.ine.add.PTCONT.3542496,R JASMINS,106,4480-798,VILA DO CONDE,-8.757973978454121,41.36903029495731
pt.ine.add.PTCONT.3542497,R MAREANTES,53,4480-800,VILA DO CONDE,-8.758678964173685,41.36900845675655
pt.ine.add.PTCONT.3542498,R ROSAS,124,4480-773,VILA DO CONDE,-8.75672281956549,41.368181702972066
pt.ine.add.PTCONT.3542499,R MARES DA GRONELANDIA,155,4480-778,VILA DO CONDE,-8.759015470969437,41.36795316028726
pt.ine.add.PTCONT.3542500,AV CIDADE GUIMARÃES,250,4480-660,VILA DO CONDE,-8.754900824195243,41.36260908554875
pt.ine.add.PTCONT.3542501,R ANTÓNIO FERREIRA VILA COVA,397,4480-728,VILA DO CONDE,-8.757568504310761,41.36412532029679
pt.ine.add.PTCONT.3542502,R 5 DE OUTUBRO,1059,4480-666,VILA DO CONDE,-8.745938190993922,41.361423614579046
pt.ine.add.PTCONT.3542503,R 5 DE OUTUBRO,1059,4480-666,VILA DO CONDE,-8.745938190993922,41.361423614579046
pt.ine.add.PTCONT.3542504,R 5 DE OUTUBRO,1059,4480-666,VILA DO CONDE,-8.745938190993922,41.361423614579046
pt.ine.add.PTCONT.3542505,R 5 DE OUTUBRO,1059,4480-666,VILA DO CONDE,-8.745938190993922,41.361423614579046
pt.ine.add.PTCONT.3542506,R 5 DE OUTUBRO,1059,4480-666,VILA DO CONDE,-8.745938190993922,41.361423614579046
pt.ine.add.PTCONT.3542507,R 5 DE OUTUBRO,1059,4480-666,VILA DO CONDE,-8.745938190993922,41.361423614579046
pt.ine.add.PTCONT.3542508,R NSA SRA DE FÁTIMA,64,4480-829,VILA DO CONDE,-8.742436659863026,41.35503135381544
pt.ine.add.PTCONT.3542509,R S BENTO,S0,4480-781,VILA DO CONDE,-8.743396235675666,41.35285630165101
pt.ine.add.PTCONT.3542510,R RAMIRO MARTINS,,4480-836,VILA DO CONDE,-8.748913643240341,41.34363380407882
pt.ine.add.PTCONT.3542511,R RAMIRO MARTINS,,4480-836,VILA DO CONDE,-8.748913643240341,41.34363380407882
pt.ine.add.PTCONT.3542512,R RAMIRO MARTINS,,4480-836,VILA DO CONDE,-8.748913643240341,41.34363380407882
pt.ine.add.PTCONT.3542513,R RAMIRO MARTINS,,4480-836,VILA DO CONDE,-8.748913643240341,41.34363380407882
pt.ine.add.PTCONT.3542514,R RAMIRO MARTINS,,4480-836,VILA DO CONDE,-8.748913643240341,41.34363380407882
pt.ine.add.PTCONT.3542515,R RAMIRO MARTINS,,4480-836,VILA DO CONDE,-8.748913643240341,41.34363380407882
pt.ine.add.PTCONT.3542516,R RAMIRO MARTINS,,4480-836,VILA DO CONDE,-8.748913643240341,41.34363380407882
pt.ine.add.PTCONT.3542517,VIA JOSE REGIO,,4485-860,VILAR DE PINHEIRO,-8.67083048632609,41.27046159651007
pt.ine.add.PTCONT.3542518,R 12 URB DA IGREJA,23,4485-892,VILAR DE PINHEIRO,-8.66653203622969,41.27021146802554
pt.ine.add.PTCONT.3542519,R 104,46,4485-824,VILAR DE PINHEIRO,-8.672415947781625,41.26588907000205
pt.ine.add.PTCONT.3542520,R 103,29,4485-823,VILAR DE PINHEIRO,-8.673916706382311,41.2655398718562
pt.ine.add.PTCONT.3542678,AV DR CARLOS PINTO FERREIRA,36,4480-665,VILA DO CONDE,-8.755429481368841,41.35913968740198
pt.ine.add.PTCONT.3542679,AV DR CARLOS PINTO FERREIRA,36,4480-665,VILA DO CONDE,-8.755429481368841,41.35913968740198
pt.ine.add.PTCONT.3542680,AV DR CARLOS PINTO FERREIRA,36,4480-665,VILA DO CONDE,-8.755429481368841,41.35913968740198
pt.ine.add.PTCONT.3542681,AV DR CARLOS PINTO FERREIRA,36,4480-665,VILA DO CONDE,-8.755429481368841,41.35913968740198
pt.ine.add.PTCONT.3542682,TV ESTEVÃO SOARES,,4480-865,VILA DO CONDE,-8.751901035692152,41.35251375453634
pt.ine.add.PTCONT.3542683,R ANTÓNIO MARIZ CARNEIRO,103,4480-823,VILA DO CONDE,-8.750699136762949,41.344191490469775
pt.ine.add.PTCONT.3542684,R ANTÓNIO MARIZ CARNEIRO,103,4480-823,VILA DO CONDE,-8.750699136762949,41.344191490469775
pt.ine.add.PTCONT.3542685,R ANTÓNIO MARIZ CARNEIRO,103,4480-823,VILA DO CONDE,-8.750699136762949,41.344191490469775
pt.ine.add.PTCONT.3542686,R ANTÓNIO MARIZ CARNEIRO,103,4480-823,VILA DO CONDE,-8.750699136762949,41.344191490469775
pt.ine.add.PTCONT.3542687,R ANTÓNIO MARIZ CARNEIRO,103,4480-823,VILA DO CONDE,-8.750699136762949,41.344191490469775
pt.ine.add.PTCONT.3542688,R ANTÓNIO MARIZ CARNEIRO,103,4480-823,VILA DO CONDE,-8.750699136762949,41.344191490469775
pt.ine.add.PTCONT.3542689,R VISO,554,4485-819,VILAR VCD,-8.680462327007469,41.29340377516552
pt.ine.add.PTCONT.3542690,R VISO,5,4485-819,VILAR VCD,-8.680462327007469,41.29340377516552
pt.ine.add.PTCONT.3542691,R TELHEIRA,406,4485-781,VILAR VCD,-8.673793614015974,41.2896715657711
pt.ine.add.PTCONT.3542692,TV 7,20,4485-855,VILAR DE PINHEIRO,-8.661119881724945,41.265041013431414
pt.ine.add.PTCONT.3542895,R JOSE SILVA MEIRA,,4480-032,ARCOS VCD,-8.654786469327199,41.398717249219615
pt.ine.add.PTCONT.3542896,R ALOISIO FERREIRA,1,4480-102,ÁRVORE,-8.707132371819082,41.34094147200177
pt.ine.add.PTCONT.3542897,R ALDEIA NOVA,277,4480-105,ÁRVORE,-8.707694109249527,41.34096568106838
pt.ine.add.PTCONT.3542898,R CORGO,60,4480-118,ÁRVORE,-8.722385658558641,41.340558247393965
pt.ine.add.PTCONT.3542899,R DR ANTÓNIO JOSE SOUSA PEREIRA,193,4480-136,ÁRVORE,-8.713995992955546,41.33756653447627
pt.ine.add.PTCONT.3542900,R DR ANTÓNIO JOSE SOUSA PEREIRA,193,4480-136,ÁRVORE,-8.713995992955546,41.33756653447627
pt.ine.add.PTCONT.3542901,R DR ANTÓNIO JOSE SOUSA PEREIRA,193,4480-136,ÁRVORE,-8.713995992955546,41.33756653447627
pt.ine.add.PTCONT.3542902,R DR ANTÓNIO JOSE SOUSA PEREIRA,193,4480-136,ÁRVORE,-8.713995992955546,41.33756653447627
pt.ine.add.PTCONT.3544659,URB GAIVOTA,,4480-179,AZURARA,-8.740112925870106,41.33771988537434
pt.ine.add.PTCONT.3544660,TV S EUFEMIA,886,4485-060,CANIDELO VCD,-8.642959770821872,41.30985542515727
pt.ine.add.PTCONT.3544676,R PADRE SERAFIM DAS NEVES,184,4480-174,AZURARA,-8.73511018797725,41.34452620074161
pt.ine.add.PTCONT.3544692,R CARVALHOSA,110,4485-353,LABRUGE,-8.726151744501058,41.27364750981309
pt.ine.add.PTCONT.3544707,R CAMPELOS,191,4480-480,TOUGUES,-8.705101854544349,41.35738393645927
pt.ine.add.PTCONT.3544743,CC S FRANCISCO,80,4480-688,VILA DO CONDE,-8.739818332776126,41.35360454474099
pt.ine.add.PTCONT.3544843,R DE PEDRA LARA,220,4480-413,RIO MAU VCD,-8.6799249492125,41.40619986518588
pt.ine.add.PTCONT.3544871,R 4,96,4480-110,ÁRVORE,-8.704002868010198,41.34375729473418
pt.ine.add.PTCONT.3544883,R BALANCAS,188,4480-421,RIO MAU VCD,-8.701691783933843,41.40767905353573
pt.ine.add.PTCONT.3544932,R CAMPELOS,191,4480-480,TOUGUES,-8.705101854544349,41.35738393645927
pt.ine.add.PTCONT.3544933,TV AMORA,19,4485-671,VAIRÃO,-8.681202981109296,41.333378413251225
pt.ine.add.PTCONT.3544976,R INF D HENRIQUE,209,4480-535,TOUGUINHA,-8.714047356154481,41.37559924232258
pt.ine.add.PTCONT.3545016,R PROF MÁRIO ARMANDITO DE ALMEIDA,33,4480-928,VILA DO CONDE,-8.743436436282652,41.35716000671782
pt.ine.add.PTCONT.3545032,R CIMO DE CHEIRA,164,4480-250,FERREIRÓ,-8.627798386937107,41.356247520754486
pt.ine.add.PTCONT.3545033,R RAMIRO MARTINS,,4480-836,VILA DO CONDE,-8.748913643240341,41.34363380407882
pt.ine.add.PTCONT.3545058,R FRAGA,137,4480-752,VILA DO CONDE,-8.742900952834356,41.35228266994802
pt.ine.add.PTCONT.3545072,R LABRUGE,326,4485-317,LABRUGE,-8.701382600468914,41.281452971195975
pt.ine.add.PTCONT.3545082,R 25 DE ABRIL,,4480-267,JUNQUEIRA VCD,-8.688121191260283,41.379977089766534
pt.ine.add.PTCONT.3545118,R CAPITÃO HERCULANO RAMALHO,,4480-892,VILA DO CONDE,-8.746562434112121,41.36044785630916
pt.ine.add.PTCONT.3545086,R ANTÓNIO MARIZ CARNEIRO,103,4480-823,VILA DO CONDE,-8.750699136762949,41.344191490469775
pt.ine.add.PTCONT.3545112,R CAPITÃO HERCULANO RAMALHO,,4480-892,VILA DO CONDE,-8.746562434112121,41.36044785630916
pt.ine.add.PTCONT.3545113,R CAPITÃO HERCULANO RAMALHO,,4480-892,VILA DO CONDE,-8.746562434112121,41.36044785630916
pt.ine.add.PTCONT.3545114,R CAPITÃO HERCULANO RAMALHO,,4480-892,VILA DO CONDE,-8.746562434112121,41.36044785630916
pt.ine.add.PTCONT.3545115,R CAPITÃO HERCULANO RAMALHO,,4480-892,VILA DO CONDE,-8.746562434112121,41.36044785630916
pt.ine.add.PTCONT.3545116,R CAPITÃO HERCULANO RAMALHO,,4480-892,VILA DO CONDE,-8.746562434112121,41.36044785630916
pt.ine.add.PTCONT.3545117,R CAPITÃO HERCULANO RAMALHO,,4480-892,VILA DO CONDE,-8.746562434112121,41.36044785630916
pt.ine.add.PTCONT.3545119,R CAPITÃO HERCULANO RAMALHO,,4480-892,VILA DO CONDE,-8.746562434112121,41.36044785630916
pt.ine.add.PTCONT.3545120,R CAPITÃO HERCULANO RAMALHO,,4480-892,VILA DO CONDE,-8.746562434112121,41.36044785630916
pt.ine.add.PTCONT.3545121,R CAPITÃO HERCULANO RAMALHO,,4480-892,VILA DO CONDE,-8.746562434112121,41.36044785630916
pt.ine.add.PTCONT.3545122,R CAPITÃO HERCULANO RAMALHO,,4480-892,VILA DO CONDE,-8.746562434112121,41.36044785630916
pt.ine.add.PTCONT.3545123,R CAPITÃO HERCULANO RAMALHO,,4480-892,VILA DO CONDE,-8.746562434112121,41.36044785630916
pt.ine.add.PTCONT.3545124,R CAPITÃO HERCULANO RAMALHO,,4480-892,VILA DO CONDE,-8.746562434112121,41.36044785630916
pt.ine.add.PTCONT.3545125,R CAPITÃO HERCULANO RAMALHO,,4480-892,VILA DO CONDE,-8.746562434112121,41.36044785630916
pt.ine.add.PTCONT.3545126,R CAPITÃO HERCULANO RAMALHO,,4480-892,VILA DO CONDE,-8.746562434112121,41.36044785630916
pt.ine.add.PTCONT.3545127,R CAPITÃO HERCULANO RAMALHO,,4480-892,VILA DO CONDE,-8.746562434112121,41.36044785630916
pt.ine.add.PTCONT.3545128,R CAPITÃO HERCULANO RAMALHO,,4480-892,VILA DO CONDE,-8.746562434112121,41.36044785630916
pt.ine.add.PTCONT.3545129,R CAPITÃO HERCULANO RAMALHO,,4480-892,VILA DO CONDE,-8.746562434112121,41.36044785630916
pt.ine.add.PTCONT.3545130,R CAPITÃO HERCULANO RAMALHO,,4480-892,VILA DO CONDE,-8.746562434112121,41.36044785630916
pt.ine.add.PTCONT.3545131,R CAPITÃO HERCULANO RAMALHO,,4480-892,VILA DO CONDE,-8.746562434112121,41.36044785630916
pt.ine.add.PTCONT.3545132,R CAPITÃO HERCULANO RAMALHO,,4480-892,VILA DO CONDE,-8.746562434112121,41.36044785630916
pt.ine.add.PTCONT.3545133,R CAPITÃO HERCULANO RAMALHO,,4480-892,VILA DO CONDE,-8.746562434112121,41.36044785630916
pt.ine.add.PTCONT.3545134,R CAPITÃO HERCULANO RAMALHO,,4480-892,VILA DO CONDE,-8.746562434112121,41.36044785630916
pt.ine.add.PTCONT.3545135,R CAPITÃO HERCULANO RAMALHO,,4480-892,VILA DO CONDE,-8.746562434112121,41.36044785630916
pt.ine.add.PTCONT.3545136,R CAPITÃO HERCULANO RAMALHO,,4480-892,VILA DO CONDE,-8.746562434112121,41.36044785630916
pt.ine.add.PTCONT.3545137,R CAPITÃO HERCULANO RAMALHO,,4480-892,VILA DO CONDE,-8.746562434112121,41.36044785630916
pt.ine.add.PTCONT.3545138,R CAPITÃO HERCULANO RAMALHO,,4480-892,VILA DO CONDE,-8.746562434112121,41.36044785630916
pt.ine.add.PTCONT.3545210,R ALFREDO BASTOS,264,4480-724,VILA DO CONDE,-8.760522991156627,41.370601127215984
pt.ine.add.PTCONT.3545215,R AGRA LONGA,207,4480-744,VILA DO CONDE,-8.755001794822292,41.36442734741392
pt.ine.add.PTCONT.3545265,R 1,70,4485-893,VILAR DE PINHEIRO,-8.678369540126395,41.2714706195661
pt.ine.add.PTCONT.3545274,R 1,9,4485-893,VILAR DE PINHEIRO,-8.677585922995107,41.27196055266717
pt.ine.add.PTCONT.3545634,R EMIGRANTE,,4480-223,BAGUNTE,-8.665291953824962,41.370180537017745
pt.ine.add.PTCONT.3545635,R EMIGRANTE,,4480-223,BAGUNTE,-8.665291953824962,41.370180537017745
pt.ine.add.PTCONT.3545757,LG PAZ,20,4480-921,VILA DO CONDE,-8.74473774804878,41.365959012595326
pt.ine.add.PTCONT.3545758,LG PAZ,20,4480-921,VILA DO CONDE,-8.74473774804878,41.365959012595326
pt.ine.add.PTCONT.3545759,LG PAZ,20,4480-921,VILA DO CONDE,-8.74473774804878,41.365959012595326
pt.ine.add.PTCONT.3545760,LG PAZ,20,4480-921,VILA DO CONDE,-8.74473774804878,41.365959012595326
pt.ine.add.PTCONT.3545761,LG PAZ,20,4480-921,VILA DO CONDE,-8.74473774804878,41.365959012595326
pt.ine.add.PTCONT.3545762,LG PAZ,20,4480-921,VILA DO CONDE,-8.74473774804878,41.365959012595326
pt.ine.add.PTCONT.3545763,LG PAZ,20,4480-921,VILA DO CONDE,-8.74473774804878,41.365959012595326
pt.ine.add.PTCONT.3545764,LG PAZ,20,4480-921,VILA DO CONDE,-8.74473774804878,41.365959012595326
pt.ine.add.PTCONT.3545765,AV DR CARLOS PINTO FERREIRA,550,4480-665,VILA DO CONDE,-8.759381642277136,41.365006862773434
pt.ine.add.PTCONT.3545766,AV DR CARLOS PINTO FERREIRA,550,4480-665,VILA DO CONDE,-8.759381642277136,41.365006862773434
pt.ine.add.PTCONT.3545767,AV DR CARLOS PINTO FERREIRA,550,4480-665,VILA DO CONDE,-8.759381642277136,41.365006862773434
pt.ine.add.PTCONT.3545768,AV DR CARLOS PINTO FERREIRA,550,4480-665,VILA DO CONDE,-8.759381642277136,41.365006862773434
pt.ine.add.PTCONT.3545769,AV DR CARLOS PINTO FERREIRA,550,4480-665,VILA DO CONDE,-8.759381642277136,41.365006862773434
pt.ine.add.PTCONT.3545770,AV DR CARLOS PINTO FERREIRA,550,4480-665,VILA DO CONDE,-8.759381642277136,41.365006862773434
pt.ine.add.PTCONT.3545771,AV DR CARLOS PINTO FERREIRA,550,4480-665,VILA DO CONDE,-8.759381642277136,41.365006862773434
pt.ine.add.PTCONT.3545772,AV CMDT COUTINHO LANHOSO,857,4480-662,VILA DO CONDE,-8.755100829847402,41.35851118383994
pt.ine.add.PTCONT.3545773,AV CMDT COUTINHO LANHOSO,857,4480-662,VILA DO CONDE,-8.755100829847402,41.35851118383994
pt.ine.add.PTCONT.3545774,AV CMDT COUTINHO LANHOSO,857,4480-662,VILA DO CONDE,-8.755100829847402,41.35851118383994
pt.ine.add.PTCONT.3545775,AV CMDT COUTINHO LANHOSO,857,4480-662,VILA DO CONDE,-8.755100829847402,41.35851118383994
pt.ine.add.PTCONT.3545776,AV CMDT COUTINHO LANHOSO,857,4480-662,VILA DO CONDE,-8.755100829847402,41.35851118383994
pt.ine.add.PTCONT.3545777,AV CMDT COUTINHO LANHOSO,857,4480-662,VILA DO CONDE,-8.755100829847402,41.35851118383994
pt.ine.add.PTCONT.3545778,AV D MANUEL I,26,4480-793,VILA DO CONDE,-8.756636585221584,41.36540894074134
pt.ine.add.PTCONT.3545779,AV D MANUEL I,26,4480-793,VILA DO CONDE,-8.756636585221584,41.36540894074134
pt.ine.add.PTCONT.3545780,AV CMDT COUTINHO LANHOSO,857,4480-662,VILA DO CONDE,-8.755100829847402,41.35851118383994
pt.ine.add.PTCONT.3545781,AV CMDT COUTINHO LANHOSO,857,4480-662,VILA DO CONDE,-8.755100829847402,41.35851118383994
pt.ine.add.PTCONT.3545782,AV CMDT COUTINHO LANHOSO,857,4480-662,VILA DO CONDE,-8.755100829847402,41.35851118383994
pt.ine.add.PTCONT.3545783,AV CMDT COUTINHO LANHOSO,857,4480-662,VILA DO CONDE,-8.755100829847402,41.35851118383994
pt.ine.add.PTCONT.3545784,AV CMDT COUTINHO LANHOSO,857,4480-662,VILA DO CONDE,-8.755100829847402,41.35851118383994
pt.ine.add.PTCONT.3545785,AV CMDT COUTINHO LANHOSO,857,4480-662,VILA DO CONDE,-8.755100829847402,41.35851118383994
pt.ine.add.PTCONT.3545786,AV CMDT COUTINHO LANHOSO,857,4480-662,VILA DO CONDE,-8.755100829847402,41.35851118383994
pt.ine.add.PTCONT.3545797,LG PAZ,20,4480-921,VILA DO CONDE,-8.74473774804878,41.365959012595326
pt.ine.add.PTCONT.3545801,AV CMDT COUTINHO LANHOSO,857,4480-662,VILA DO CONDE,-8.755100829847402,41.35851118383994
pt.ine.add.PTCONT.3545802,AV CMDT COUTINHO LANHOSO,857,4480-662,VILA DO CONDE,-8.755100829847402,41.35851118383994
pt.ine.add.PTCONT.3545955,R CORGO,19,4480-162,AZURARA,-8.73353321293347,41.344543442706176
pt.ine.add.PTCONT.3546031,R LAVANDEIRAS,68,4480-022,ARCOS VCD,-8.65691925544899,41.394781830819
pt.ine.add.PTCONT.3546034,R FELGUEIRA,196,4485-176,GIÃO VCD,-8.678013806145904,41.30187926010447
pt.ine.add.PTCONT.3546111,R DA FELICIDADE,14,4485-381,MACIEIRA DA MAIA,-8.679984852792614,41.337706154674265
pt.ine.add.PTCONT.3645975,R 71,,4480-098,ÁRVORE,-8.723529485402768,41.32963047470559
pt.ine.add.PTCONT.3549522,R 60,8T,4480-094,ÁRVORE,-8.73339786204862,41.33500887157835
pt.ine.add.PTCONT.3549416,R CIDADE NOVA,154,4480-128,ÁRVORE,-8.724615097058367,41.33475721058625
pt.ine.add.PTCONT.3549417,R CIDADE NOVA,154,4480-128,ÁRVORE,-8.724615097058367,41.33475721058625
pt.ine.add.PTCONT.3549418,R CIDADE NOVA,154,4480-128,ÁRVORE,-8.724615097058367,41.33475721058625
pt.ine.add.PTCONT.3549419,R CIDADE NOVA,154,4480-128,ÁRVORE,-8.724615097058367,41.33475721058625
pt.ine.add.PTCONT.3549420,R JANUARIO JOSE ALMEIDA,154,4480-123,ÁRVORE,-8.724615097058367,41.33475721058625
pt.ine.add.PTCONT.3549421,R CIDADE NOVA,117,4480-128,ÁRVORE,-8.724615097058367,41.33475721058625
pt.ine.add.PTCONT.3549446,R PADRE AMÉRICO,90,4480-173,AZURARA,-8.737720325488281,41.33865989535835
pt.ine.add.PTCONT.3549460,R CIMA,55,4480-110,ÁRVORE,-8.70450322296723,41.3422241248967
pt.ine.add.PTCONT.3549461,R NSA SRA DE FÁTIMA,1322,4480-231,BAGUNTE,-8.661231622721624,41.36914577386714
pt.ine.add.PTCONT.3549467,R ALOISIO FERREIRA,27,4480-102,ÁRVORE,-8.707664916300443,41.341722166320956
pt.ine.add.PTCONT.3549472,R S LUZIA,478,4485-060,CANIDELO VCD,-8.653177335601,41.31079116168045
pt.ine.add.PTCONT.3549479,R PROF ANTONIO BARBOSA DE SA FARIA,180,4480-175,AZURARA,-8.734060031322201,41.3459633298503
pt.ine.add.PTCONT.3549480,R PROF ANTONIO BARBOSA SA FARIA,7,4480-175,AZURARA,-8.734060031322201,41.3459633298503
pt.ine.add.PTCONT.3549481,R PROF ANTONIO BARBOSA DE SA FARIA,180,4480-175,AZURARA,-8.734060031322201,41.3459633298503
pt.ine.add.PTCONT.3549482,R PROF ANTONIO BARBOSA DE SA FARIA,180,4480-175,AZURARA,-8.734060031322201,41.3459633298503
pt.ine.add.PTCONT.3549483,R CIMO DE VILA,8,4480-158,AZURARA,-8.73245916030736,41.34337851682499
pt.ine.add.PTCONT.3549494,R FRANCISCO GONÇALVES MONTEIRO,423,4480-168,AZURARA,-8.74039294488699,41.344714543510044
pt.ine.add.PTCONT.3549514,R DR AMÉRICO SILVA,107,4480-166,AZURARA,-8.736462925171006,41.346103826198124
pt.ine.add.PTCONT.3549515,EN 13,459,4480-963,AZURARA,-8.732915071678134,41.340981068306505
pt.ine.add.PTCONT.3549520,R CABREIRO,192,4480-116,ÁRVORE,-8.73128454729455,41.33644251366781
pt.ine.add.PTCONT.3549521,R 61,143,4480-095,ÁRVORE,-8.734705573145321,41.335614318697495
pt.ine.add.PTCONT.3549573,R 40,46,4480-081,ÁRVORE,-8.732707272203735,41.33265341072937
pt.ine.add.PTCONT.3549583,R 72,96,4480-099,ÁRVORE,-8.72831261039519,41.3301820985234
pt.ine.add.PTCONT.3549584,R 71,71,4480-098,ÁRVORE,-8.724043107823155,41.329627838794835
pt.ine.add.PTCONT.3549592,R 71A,106,4480-609,ÁRVORE,-8.724009374574976,41.32853852102942
pt.ine.add.PTCONT.3549593,URB GUILHADES,45,4485-039,AVELEDA VCD,-8.680894599502606,41.26657837825747
pt.ine.add.PTCONT.3549595,TV QUINTA 1,70,4480-077,ÁRVORE,-8.72349733990681,41.337977394185266
pt.ine.add.PTCONT.3549596,R SOUTO,116,4480-057,ÁRVORE,-8.724109953584708,41.3396670100028
pt.ine.add.PTCONT.3549599,R OUTEIRO,962,4485-029,AVELEDA VCD,-8.69322870158108,41.263151474737064
pt.ine.add.PTCONT.3549600,R RAMIL,585,4485-030,AVELEDA VCD,-8.696489456670179,41.26627801774956
pt.ine.add.PTCONT.3549601,R COMÉRCIO,107,4480-222,BAGUNTE,-8.661891391803511,41.369439876362335
pt.ine.add.PTCONT.3549602,TV LUIS DE CAMÕES,257,4480-237,BAGUNTE,-8.678954056020954,41.3659116738359
pt.ine.add.PTCONT.3550136,LG PAZ,60,4480-921,VILA DO CONDE,-8.745309300684356,41.365730873540436
pt.ine.add.PTCONT.3550137,LG PAZ,60,4480-921,VILA DO CONDE,-8.745309300684356,41.365730873540436
pt.ine.add.PTCONT.3550138,LG PAZ,60,4480-921,VILA DO CONDE,-8.745309300684356,41.365730873540436
pt.ine.add.PTCONT.3550139,LG PAZ,60,4480-921,VILA DO CONDE,-8.745309300684356,41.365730873540436
pt.ine.add.PTCONT.3550140,LG PAZ,60,4480-921,VILA DO CONDE,-8.745309300684356,41.365730873540436
pt.ine.add.PTCONT.3550141,LG PAZ,60,4480-921,VILA DO CONDE,-8.745309300684356,41.365730873540436
pt.ine.add.PTCONT.3550142,LG PAZ,60,4480-921,VILA DO CONDE,-8.745309300684356,41.365730873540436
pt.ine.add.PTCONT.3550143,LG PAZ,60,4480-921,VILA DO CONDE,-8.745309300684356,41.365730873540436
pt.ine.add.PTCONT.3550144,R NSA SRA DA GUIA,83,4480-827,VILA DO CONDE,-8.753504626923718,41.36157215692823
pt.ine.add.PTCONT.3550145,R LAPA,169,4480-757,VILA DO CONDE,-8.739873760740982,41.358286338966096
pt.ine.add.PTCONT.3550146,AV BERNARDINO MACHADO,204,4480-657,VILA DO CONDE,-8.732935872486795,41.3549642126764
pt.ine.add.PTCONT.3550147,LG CASAL,91,4485-121,FORNELO,-8.65307465463782,41.324919041189716
pt.ine.add.PTCONT.3550148,TV AGRA,50,4485-269,GUILHABREU,-8.65290311272943,41.29280218050851
pt.ine.add.PTCONT.3550149,R ALDEIA NOVA,120,4485-436,MALTA,-8.654583855495755,41.302969234429064
pt.ine.add.PTCONT.3550150,R ALDEIA NOVA,122,4485-436,MALTA,-8.654583855495755,41.302969234429064
pt.ine.add.PTCONT.3550151,R IGREJA,104,4480-499,TOUGUINHA,-8.716939809647345,41.37422500158249
pt.ine.add.PTCONT.3550152,R FACHO,390,4485-717,VILA CHÃ VCD,-8.733740565440073,41.29687482257624
pt.ine.add.PTCONT.3550153,R BENGUIADOS,226,4480-794,VILA DO CONDE,-8.745951573899891,41.359028478129574
pt.ine.add.PTCONT.3550154,R NOVA CASTELOES,253,4485-094,FAJOZES,-8.706099618601264,41.315798272278904
pt.ine.add.PTCONT.3550155,R BATEL,160,4485-253,GUILHABREU,-8.634879812537909,41.291756635005804
pt.ine.add.PTCONT.3550156,R NOVA,361,4485-410,MACIEIRA DA MAIA,-8.685245848405788,41.338230283511756
pt.ine.add.PTCONT.3550157,R FONTE,1253,4485-489,MINDELO,-8.719265824570389,41.31239146323219
pt.ine.add.PTCONT.3550158,R ARROTEIA,,4485-575,MODIVAS,-8.694115539655458,41.29565210525187
pt.ine.add.PTCONT.3550159,R ARROTEIA,,4485-575,MODIVAS,-8.694115539655458,41.29565210525187
pt.ine.add.PTCONT.3550160,R ARROTEIA,,4485-575,MODIVAS,-8.694115539655458,41.29565210525187
pt.ine.add.PTCONT.3550161,R TANQUES,138,4480-432,RIO MAU VCD,-8.701468112358615,41.40397053418784
pt.ine.add.PTCONT.3550162,R MIRANTE,74,4480-576,TOUGUINHÓ,-8.701355379666824,41.375923732103864
pt.ine.add.PTCONT.3550163,AV DR CARLOS PINTO FERREIRA,714,4480-665,VILA DO CONDE,-8.7603286129445,41.3665413880916
pt.ine.add.PTCONT.3550164,TV BERNARDINO MACHADO,61,4480-845,VILA DO CONDE,-8.731681853777078,41.35504277401143
pt.ine.add.PTCONT.3550165,R BARREIRO,30,4480-292,JUNQUEIRA VCD,-8.681425758595608,41.37559723289741
pt.ine.add.PTCONT.3550166,R PINHAL,240,4485-324,LABRUGE,-8.719572252214318,41.27994809575621
pt.ine.add.PTCONT.3550167,R AVELINO OLIVEIRA,32,4480-330,OUTEIRO MAIOR,-8.637967505814593,41.37474263191013
pt.ine.add.PTCONT.3550168,R RIO DA GANDARA,614,4485-721,VILA CHÃ VCD,-8.71579664597534,41.29830866276657
pt.ine.add.PTCONT.3550169,R PRAIA NOVA,72,4485-709,VILA CHÃ VCD,-8.735077966930945,41.29559825762926
pt.ine.add.PTCONT.3550170,R ALTO DOS VARAIS,12,4485-696,VILA CHÃ VCD,-8.734259158797366,41.29354059560291
pt.ine.add.PTCONT.3550171,R NOVA DA ALDEIA,134,4485-220,GIÃO VCD,-8.675285507146748,41.31845968072459
pt.ine.add.PTCONT.3550172,R 25 DE ABRIL,495,4480-267,JUNQUEIRA VCD,-8.688325473452167,41.38150678165039
pt.ine.add.PTCONT.3550173,R POCA,167,4485-382,MACIEIRA DA MAIA,-8.675772972760774,41.33834737038015
pt.ine.add.PTCONT.3550174,R ATENAS,488,4485-499,MINDELO,-8.73448147621922,41.30994490041232
pt.ine.add.PTCONT.3550175,R ALEGRIA,171,4480-743,VILA DO CONDE,-8.759739566706806,41.36867854274033
pt.ine.add.PTCONT.3550176,R ALEGRIA,171,4480-743,VILA DO CONDE,-8.759739566706806,41.36867854274033
pt.ine.add.PTCONT.3550177,R ALEGRIA,171,4480-743,VILA DO CONDE,-8.759739566706806,41.36867854274033
pt.ine.add.PTCONT.3550178,R ALFREDO BASTOS,130,4480-724,VILA DO CONDE,-8.760556799146382,41.36789974671025
pt.ine.add.PTCONT.3550179,R NSA SRA FÁTIMA,107,4480-340,PARADA VCD,-8.628069612619683,41.36523237323409
pt.ine.add.PTCONT.3550180,R D LAURA OSÓRIO,19,4480-509,TOUGUINHA,-8.71845039192036,41.374721551067935
pt.ine.add.PTCONT.3550181,R FONTE,93,4485-376,MACIEIRA DA MAIA,-8.667999106534733,41.34754087751589
pt.ine.add.PTCONT.3550182,R PIPOSA,34,4485-381,MACIEIRA DA MAIA,-8.680433685570005,41.33709174550275
pt.ine.add.PTCONT.3550183,R DESCOBRIMENTOS,238,4485-529,MINDELO,-8.736070326584942,41.31519497157322
pt.ine.add.PTCONT.3550184,R ÁLVARES CABRAL,71,4485-481,MINDELO,-8.737658683770624,41.308730713969844
pt.ine.add.PTCONT.3550185,R ÁLVARES CABRAL,71,4485-481,MINDELO,-8.737658683770624,41.308730713969844
pt.ine.add.PTCONT.3550186,R ÁLVARES CABRAL,71,4485-481,MINDELO,-8.737658683770624,41.308730713969844
pt.ine.add.PTCONT.3550187,R ÁLVARES CABRAL,71,4485-481,MINDELO,-8.737658683770624,41.308730713969844
pt.ine.add.PTCONT.3550188,R ÁLVARES CABRAL,71,4485-481,MINDELO,-8.737658683770624,41.308730713969844
pt.ine.add.PTCONT.3550189,R ÁLVARES CABRAL,71,4485-481,MINDELO,-8.737658683770624,41.308730713969844
pt.ine.add.PTCONT.3550190,R ÁLVARES CABRAL,71,4485-481,MINDELO,-8.737658683770624,41.308730713969844
pt.ine.add.PTCONT.3550191,R D LAURA OSÓRIO,19,4480-509,TOUGUINHA,-8.71845039192036,41.374721551067935
pt.ine.add.PTCONT.3550192,R GIL EANES,278,4480-342,TOUGUINHA,-8.721903155783805,41.37584744255615
pt.ine.add.PTCONT.3550193,AV INF D HENRIQUE,154,4480-670,VILA DO CONDE,-8.756572467674536,41.35994386114902
pt.ine.add.PTCONT.3550194,R GANDARA,278,4485-078,FAJOZES,-8.694799829282498,41.319743731184005
pt.ine.add.PTCONT.3550195,R CIMO DE CHEIRA A,57,4480-250,FERREIRÓ,-8.626660731945442,41.35751296993443
pt.ine.add.PTCONT.3550196,R JOAQUIM CERQUEIRA DA COSTA,248,4480-309,JUNQUEIRA VCD,-8.694698103921112,41.37325521597444
pt.ine.add.PTCONT.3550197,R MUNIQUE,468,4485-504,MINDELO,-8.731148264828143,41.30978218472639
pt.ine.add.PTCONT.3550198,R TORNO,34,4480-580,TOUGUINHÓ,-8.704587801463694,41.38877441028533
pt.ine.add.PTCONT.3550199,R GANDARA,961,4480-563,TOUGUINHÓ,-8.705480362581744,41.38830176756842
pt.ine.add.PTCONT.3550200,AV INF D HENRIQUE,154,4480-670,VILA DO CONDE,-8.756572467674536,41.35994386114902
pt.ine.add.PTCONT.3550201,AV INF D HENRIQUE,154,4480-670,VILA DO CONDE,-8.756572467674536,41.35994386114902
pt.ine.add.PTCONT.3550202,AV INF D HENRIQUE,154,4480-670,VILA DO CONDE,-8.756572467674536,41.35994386114902
pt.ine.add.PTCONT.3550203,AV INF D HENRIQUE,154,4480-670,VILA DO CONDE,-8.756572467674536,41.35994386114902
pt.ine.add.PTCONT.3550204,AV INF D HENRIQUE,154,4480-670,VILA DO CONDE,-8.756572467674536,41.35994386114902
pt.ine.add.PTCONT.3550205,AV INF D HENRIQUE,154,4480-670,VILA DO CONDE,-8.756572467674536,41.35994386114902
pt.ine.add.PTCONT.3550206,AV INF D HENRIQUE,154,4480-670,VILA DO CONDE,-8.756572467674536,41.35994386114902
pt.ine.add.PTCONT.3550207,AV INF D HENRIQUE,154,4480-670,VILA DO CONDE,-8.756572467674536,41.35994386114902
pt.ine.add.PTCONT.3550208,AV INF D HENRIQUE,154,4480-670,VILA DO CONDE,-8.756572467674536,41.35994386114902
pt.ine.add.PTCONT.3550209,AV INF D HENRIQUE,154,4480-670,VILA DO CONDE,-8.756572467674536,41.35994386114902
pt.ine.add.PTCONT.3550210,AV INF D HENRIQUE,154,4480-670,VILA DO CONDE,-8.756572467674536,41.35994386114902
pt.ine.add.PTCONT.3550211,R TRAS,159,4485-089,FAJOZES,-8.694979162493727,41.318374235899434
pt.ine.add.PTCONT.3550212,R TRAS,111,4485-089,FAJOZES,-8.694550461105969,41.318520393069676
pt.ine.add.PTCONT.3550213,R S MARTINHO,1648,4485-126,FORNELO,-8.645845680564682,41.33525212862059
pt.ine.add.PTCONT.3550214,R MINAS,9,4485-247,GUILHABREU,-8.641752751597533,41.28822386386516
pt.ine.add.PTCONT.3550215,TV AGRAS,510,4485-336,LABRUGE,-8.725192666344348,41.28506068463955
pt.ine.add.PTCONT.3550216,R CENTRAL,401,4480-404,RIO MAU VCD,-8.686697716225547,41.402421836046315
pt.ine.add.PTCONT.3550217,TV PEDREIRA,93,4480-480,TOUGUES,-8.703082245897985,41.35875356323643
pt.ine.add.PTCONT.3550218,TV PEDREIRA,93,4480-480,TOUGUES,-8.703082245897985,41.35875356323643
pt.ine.add.PTCONT.3550219,R FACHO,930,4485-717,VILA CHÃ VCD,-8.734316087539463,41.294539754472645
pt.ine.add.PTCONT.3550220,R FACHO,160,4485-717,VILA CHÃ VCD,-8.734175638356225,41.29484662760503
pt.ine.add.PTCONT.3550221,TV FONTE DA PEDRA,232,4485-271,GUILHABREU,-8.636233191784168,41.29387570289778
pt.ine.add.PTCONT.3550222,R 25 DE ABRIL,346 C,4480-267,JUNQUEIRA VCD,-8.68804946732205,41.379977435680715
pt.ine.add.PTCONT.3550223,TV AGRAS,510,4485-336,LABRUGE,-8.725192666344348,41.28506068463955
pt.ine.add.PTCONT.3550224,TV AGRAS,510,4485-336,LABRUGE,-8.725192666344348,41.28506068463955
pt.ine.add.PTCONT.3550225,TV AGRAS,510,4485-336,LABRUGE,-8.725192666344348,41.28506068463955
pt.ine.add.PTCONT.3550226,TV AGRAS,510,4485-336,LABRUGE,-8.725192666344348,41.28506068463955
pt.ine.add.PTCONT.3550227,TV AGRAS,510,4485-336,LABRUGE,-8.725192666344348,41.28506068463955
pt.ine.add.PTCONT.3550228,TV AGRAS,510,4485-336,LABRUGE,-8.725192666344348,41.28506068463955
pt.ine.add.PTCONT.3550229,TV AGRAS,510,4485-336,LABRUGE,-8.725192666344348,41.28506068463955
pt.ine.add.PTCONT.3550230,TV AGRAS,510 M,4485-336,LABRUGE,-8.725192666344348,41.28506068463955
pt.ine.add.PTCONT.3550231,R NAVEGADORES,68,4485-531,MINDELO,-8.738133006105484,41.31353640179065
pt.ine.add.PTCONT.3550232,R ROSAS,235,4480-773,VILA DO CONDE,-8.757590040567061,41.36762775676049
pt.ine.add.PTCONT.3550233,AV 1 DE MAIO,111,4485-105,FAJOZES,-8.716844160431537,41.32740455569816
pt.ine.add.PTCONT.3550234,R ALDEIA,569,4485-174,GIÃO VCD,-8.672645685430188,41.31551874453101
pt.ine.add.PTCONT.3550235,R FONTAO,745,4480-294,JUNQUEIRA VCD,-8.686480020396038,41.36970243260354
pt.ine.add.PTCONT.3550236,R LABRUGE,50,4485-317,LABRUGE,-8.698208201450637,41.282918263019866
pt.ine.add.PTCONT.3550237,R VIENA,200,4485-514,MINDELO,-8.73010789418652,41.307005322000016
pt.ine.add.PTCONT.3550238,TV IGREJA,30,4480-374,RETORTA,-8.723800836293732,41.357019358116155
pt.ine.add.PTCONT.3550239,R CAMELIAS,23,4480-765,VILA DO CONDE,-8.756912761978723,41.37054872230916
pt.ine.add.PTCONT.3550240,R ROSAS,100,4480-773,VILA DO CONDE,-8.756556183619036,41.3682546377855
pt.ine.add.PTCONT.3550241,R MOS,283,4480-771,VILA DO CONDE,-8.742530312231214,41.3599470470705
pt.ine.add.PTCONT.3550242,BR PESCADORES,2,4480-683,VILA DO CONDE,-8.755216042127065,41.35806036081433
pt.ine.add.PTCONT.3550243,R LIDADOR,87,4480-791,VILA DO CONDE,-8.742310844566168,41.351790574203086
pt.ine.add.PTCONT.3550244,R FRAGA,123,4480-752,VILA DO CONDE,-8.742862333854674,41.35198574198541
pt.ine.add.PTCONT.3550245,R VILA VERDE,588,4480-572,TOUGUINHÓ,-8.717114445739263,41.38973796735387
pt.ine.add.PTCONT.3550246,AV INF D HENRIQUE,318,4480-670,VILA DO CONDE,-8.761268439607788,41.372298813398274
pt.ine.add.PTCONT.3550247,R DALIAS,47,4480-767,VILA DO CONDE,-8.757577102426726,41.37127444194444
pt.ine.add.PTCONT.3550248,TV RIO ONDA,35,4485-357,LABRUGE,-8.725776933832506,41.27179458616626
pt.ine.add.PTCONT.3550249,TV RIO ONDA,35,4485-357,LABRUGE,-8.725776933832506,41.27179458616626
pt.ine.add.PTCONT.3550250,LG CAPELA DE S CRISTINA,59,4480-493,TOUGUINHA,-8.71621896356025,41.371140287496374
pt.ine.add.PTCONT.3550251,R ALEGRIA,160,4480-743,VILA DO CONDE,-8.75949215467363,41.3678065027762
pt.ine.add.PTCONT.3550252,R ALEGRIA,160,4480-743,VILA DO CONDE,-8.75949215467363,41.3678065027762
pt.ine.add.PTCONT.3550253,TV D DINIS,41,4480-750,VILA DO CONDE,-8.75587358725156,41.36059593343755
pt.ine.add.PTCONT.3550254,R DR ANTÓNIO JOSE DE SOUSA PEREIRA,214,4480-807,VILA DO CONDE,-8.746279314897617,41.355749273156455
pt.ine.add.PTCONT.3550255,LG LARANJAL,42,4480-707,VILA DO CONDE,-8.74369765264703,41.35186426097811
pt.ine.add.PTCONT.3550256,R ESTEVÃO SOARES,215,4480-814,VILA DO CONDE,-8.751271118313905,41.35034717168853
pt.ine.add.PTCONT.3550257,R SENHORA DO AMPARO,180,4485-266,GUILHABREU,-8.634588465304308,41.29268533018244
pt.ine.add.PTCONT.3550258,TV RIO ONDA,35,4485-357,LABRUGE,-8.725776933832506,41.27179458616626
pt.ine.add.PTCONT.3550259,TV RIO ONDA,35,4485-357,LABRUGE,-8.725776933832506,41.27179458616626
pt.ine.add.PTCONT.3550260,TV RIO ONDA,35,4485-357,LABRUGE,-8.725776933832506,41.27179458616626
pt.ine.add.PTCONT.3550261,TV RIO ONDA,35,4485-357,LABRUGE,-8.725776933832506,41.27179458616626
pt.ine.add.PTCONT.3550262,TV RIO ONDA,35,4485-357,LABRUGE,-8.725776933832506,41.27179458616626
pt.ine.add.PTCONT.3550263,TV RIO ONDA,35,4485-357,LABRUGE,-8.725776933832506,41.27179458616626
pt.ine.add.PTCONT.3550264,R LODEIROS,662,4480-425,RIO MAU VCD,-8.700820911458306,41.412050263113876
pt.ine.add.PTCONT.3550265,R AMORA,27,4485-647,VAIRÃO,-8.68134321390717,41.33443122022669
pt.ine.add.PTCONT.3550266,R AMORA,27,4485-647,VAIRÃO,-8.68134321390717,41.33443122022669
pt.ine.add.PTCONT.3550267,R DALIAS,167,4480-767,VILA DO CONDE,-8.759044639373982,41.37099634932027
pt.ine.add.PTCONT.3550268,AV CASTELO,,4480-894,VILA DO CONDE,-8.74662306603561,41.3478149017876
pt.ine.add.PTCONT.3550269,AV CASTELO,,4480-894,VILA DO CONDE,-8.74662306603561,41.3478149017876
pt.ine.add.PTCONT.3550270,AV CASTELO,,4480-894,VILA DO CONDE,-8.74662306603561,41.3478149017876
pt.ine.add.PTCONT.3550271,AV CASTELO,,4480-894,VILA DO CONDE,-8.74662306603561,41.3478149017876
pt.ine.add.PTCONT.3550272,AV CASTELO,,4480-894,VILA DO CONDE,-8.74662306603561,41.3478149017876
pt.ine.add.PTCONT.3550273,AV CASTELO,,4480-894,VILA DO CONDE,-8.74662306603561,41.3478149017876
pt.ine.add.PTCONT.3550274,R REGO NAVAL,161,4485-135,FORNELO,-8.636548861606732,41.339570098734896
pt.ine.add.PTCONT.3550275,R PRAIA,960,4485-495,MINDELO,-8.733589446838241,41.31033673299312
pt.ine.add.PTCONT.3550276,R PRAIA,960,4485-495,MINDELO,-8.733589446838241,41.31033673299312
pt.ine.add.PTCONT.3550277,R AMORA,27,4485-647,VAIRÃO,-8.68134321390717,41.33443122022669
pt.ine.add.PTCONT.3550278,R DALIAS,167,4480-767,VILA DO CONDE,-8.759044639373982,41.37099634932027
pt.ine.add.PTCONT.3550279,LG PAZ,60,4480-921,VILA DO CONDE,-8.745309300684356,41.365730873540436
pt.ine.add.PTCONT.3550280,LG RIBEIRINHO,50,4480-709,VILA DO CONDE,-8.744683481342967,41.34995017434925
pt.ine.add.PTCONT.3550281,LG PARADA,245,4485-231,GUILHABREU,-8.637680864774154,41.2911771313756
pt.ine.add.PTCONT.3550282,LG PARADA,245,4485-231,GUILHABREU,-8.637680864774154,41.2911771313756
pt.ine.add.PTCONT.3550283,R POMARES,108,4485-562,MINDELO,-8.7109640544148,41.310812703538204
pt.ine.add.PTCONT.3550284,R TRAS DO FIEIRO,82,4485-728,VILA CHÃ VCD,-8.725869976798307,41.29790607187745
pt.ine.add.PTCONT.3550464,R VENDA,348,4485-834,VILAR DE PINHEIRO,-8.663338726435601,41.26789414111792
pt.ine.add.PTCONT.3550465,R VENDA,348,4485-834,VILAR DE PINHEIRO,-8.663338726435601,41.26789414111792
pt.ine.add.PTCONT.3550476,R 10 URB DA IGREJA,85,4485-890,VILAR DE PINHEIRO,-8.665927868329604,41.27076351951446
pt.ine.add.PTCONT.3550503,R IGREJA,33,4485-779,VILAR VCD,-8.67257123667204,41.287651371125484
pt.ine.add.PTCONT.3550523,R 101,91,4485-821,VILAR DE PINHEIRO,-8.671876215779829,41.26555844285861
pt.ine.add.PTCONT.3550597,R ADARIO GONÇALVES MOREIRA,1453,4485-826,VILAR DE PINHEIRO,-8.666420517809394,41.26824007316164
pt.ine.add.PTCONT.3550607,R TESO,340,4485-845,VILAR DE PINHEIRO,-8.670429527725537,41.26231469852064
pt.ine.add.PTCONT.3551371,R MARCELINO SOUTO MAIA,147,4480-370,RETORTA,-8.718557570981313,41.357343283481065
pt.ine.add.PTCONT.3551395,R DAMIÃO DE GOIS,11,4480-762,VILA DO CONDE,-8.752702190216466,41.36895075207959
pt.ine.add.PTCONT.3551433,R TRAS,111,4485-089,FAJOZES,-8.694550461105969,41.318520393069676
pt.ine.add.PTCONT.3551434,TV AGRAS,510,4485-336,LABRUGE,-8.725192666344348,41.28506068463955
pt.ine.add.PTCONT.3551450,R NOVA DE CASTELOES,255,4485-094,FAJOZES,-8.706099618601264,41.315798272278904
pt.ine.add.PTCONT.3551451,AV COMEND MANUEL FERREIRA COSTA,47,4480-510,TOUGUINHA,-8.71761209640756,41.37321314195234
pt.ine.add.PTCONT.3551468,R MANUEL FRANCISCO SILVA,1145,4485-850,VILAR DE PINHEIRO,-8.6787588842564,41.26949686435646
pt.ine.add.PTCONT.3551555,R ASSENTO,75,4485-191,GIÃO VCD,-8.67067973924457,41.318985512086364
pt.ine.add.PTCONT.3551564,R RADIO DIFUSAO PORTUGUESA,63,4480-183,AZURARA,-8.73225021789636,41.34404590318212
pt.ine.add.PTCONT.3551573,R S PEDRO,118,4485-957,MINDELO,-8.731989076979866,41.30901246586248
pt.ine.add.PTCONT.3551596,R TRINDADE,267,4480-250,FERREIRÓ,-8.631168164653646,41.35309057805628
pt.ine.add.PTCONT.3551615,TV AGRAS,510,4485-336,LABRUGE,-8.725192666344348,41.28506068463955
pt.ine.add.PTCONT.3551626,TV PEDREIRA,93,4480-480,TOUGUES,-8.703082245897985,41.35875356323643
pt.ine.add.PTCONT.3551641,R LAGIELAS,1057,4485-027,AVELEDA VCD,-8.680539732811475,41.26981255995701
pt.ine.add.PTCONT.3551662,TV VIOLETAS,30,4480-393,VILA DO CONDE,-8.75545483627075,41.3718351821205
pt.ine.add.PTCONT.3551760,R MANUEL FRANCISCO SILVA,544,4485-850,VILAR DE PINHEIRO,-8.673034108538864,41.26704770997717
pt.ine.add.PTCONT.3551798,LG DE PARADA,,4485-231,GUILHABREU,-8.63758341972781,41.29092544270612
pt.ine.add.PTCONT.3551894,R CENTRAL,210,4485-932,MOSTEIRÓ VCD,-8.655584029031816,41.28316462359549
pt.ine.add.PTCONT.3552556,R D AFONSO HENRIQUES,11,4480-897,VILA DO CONDE,-8.750875950896049,41.35784063229488
pt.ine.add.PTCONT.3552557,BR PESCADORES,31,4480-683,VILA DO CONDE,-8.754243996481966,41.357633419055084
pt.ine.add.PTCONT.3552558,BR PESCADORES,31,4480-683,VILA DO CONDE,-8.754243996481966,41.357633419055084
pt.ine.add.PTCONT.3552561,R D AFONSO HENRIQUES,11,4480-897,VILA DO CONDE,-8.750875950896049,41.35784063229488
pt.ine.add.PTCONT.3552717,R ESPÍRITO SANTO,5,4480-163,AZURARA,-8.740206254719551,41.34905546917568
pt.ine.add.PTCONT.3552719,R ESPÍRITO SANTO,229,4480-163,AZURARA,-8.739555619600324,41.3497612132791
pt.ine.add.PTCONT.3552783,R PESCADOR BACALHOEIRO,144,4480-835,VILA DO CONDE,-8.752679542268153,41.3640436976978
pt.ine.add.PTCONT.3552785,R ESTRADA PRINCIPAL,668,4485-176,GIÃO VCD,-8.67862414020621,41.304910753272694
pt.ine.add.PTCONT.3552798,R NOVA DE CASTELÕES,371,4485-094,FAJOZES,-8.706210365613291,41.31480727184053
pt.ine.add.PTCONT.3552812,AV VISC FARIA MACHADO,1665,4480-011,ARCOS VCD,-8.652995884676118,41.40060718147546
pt.ine.add.PTCONT.3556156,R 61,6,4480-095,ÁRVORE,-8.733618920755081,41.335665013742116
pt.ine.add.PTCONT.3556819,R PENA,18,4480-476,RIO MAU VCD,-8.703751606420626,41.4107301947087
pt.ine.add.PTCONT.3556030,R 3,80,4480-110,ÁRVORE,-8.703475771220917,41.343597835441024
pt.ine.add.PTCONT.3556092,R CASTOARES,88,4480-111,ÁRVORE,-8.710272451200375,41.34206027705461
pt.ine.add.PTCONT.3556093,R PONTE D AVE,304,4480-232,BAGUNTE,-8.67794406231274,41.35372501831573
pt.ine.add.PTCONT.3556128,R LENTE,4,4480-115,ÁRVORE,-8.701656892174022,41.340527452783746
pt.ine.add.PTCONT.3556129,R JUNQUEIRA,519,4480-156,AZURARA,-8.738874035822692,41.34455147165502
pt.ine.add.PTCONT.3556130,R JOSE ANTÓNIO DE MATOS,246,4480-169,AZURARA,-8.729767803924798,41.34434692858622
pt.ine.add.PTCONT.3556152,R DR ANTÓNIO ÁLVARES DOS SANTOS JUNIOR,142,4480-154,AZURARA,-8.734418417901686,41.34335929294273
pt.ine.add.PTCONT.3556153,R PADRE SERAFIM DAS NEVES,127,4480-174,AZURARA,-8.735104466132785,41.34390495248863
pt.ine.add.PTCONT.3556154,R FRANCISCO GONÇALVES MONTEIRO,150,4480-168,AZURARA,-8.735660174295205,41.34197518125338
pt.ine.add.PTCONT.3556155,R 61,6,4480-095,ÁRVORE,-8.733618920755081,41.335665013742116
pt.ine.add.PTCONT.3556163,R FIEIS DE DEUS,636,4480-114,ÁRVORE,-8.71639119533065,41.33956232259437
pt.ine.add.PTCONT.3556164,R NSA SRA DE FÁTIMA,468,4480-125,ÁRVORE,-8.726258449595983,41.33418149807789
pt.ine.add.PTCONT.3556169,R CIMA,165,4480-113,ÁRVORE,-8.725036463992108,41.3324770195702
pt.ine.add.PTCONT.3556174,R QUINTA DA TAPADA,114,4480-069,ÁRVORE,-8.72618410370396,41.33257015618855
pt.ine.add.PTCONT.3556175,R BAIXA,48,4480-104,ÁRVORE,-8.72985904511762,41.3320919542916
pt.ine.add.PTCONT.3556176,R CIMA,60,4480-113,ÁRVORE,-8.724611539688107,41.331722863716955
pt.ine.add.PTCONT.3556177,PCT RUA 33,300,4480-072,ÁRVORE,-8.725434075945055,41.330214956523875
pt.ine.add.PTCONT.3556179,R 3,17 A,4480-057,ÁRVORE,-8.724932960627328,41.33951871623155
pt.ine.add.PTCONT.3556180,R 15,336 A,4480-066,ÁRVORE,-8.727189387496717,41.331457473241436
pt.ine.add.PTCONT.3556181,R 71,7,4480-098,ÁRVORE,-8.723910996584433,41.330871076693576
pt.ine.add.PTCONT.3556186,R IGREJA,1194,4485-021,AVELEDA VCD,-8.690377112046903,41.26460597908667
pt.ine.add.PTCONT.3556187,AV MOUZINHO DE ALBUQUERQUE,407,4480-151,AZURARA,-8.738716982030311,41.34952252080467
pt.ine.add.PTCONT.3556192,URB CARREGAL,17,4485-041,AVELEDA VCD,-8.69553799724363,41.274998690974726
pt.ine.add.PTCONT.3556193,R OUTEIRO,1112,4485-029,AVELEDA VCD,-8.693311609073671,41.2644746836469
pt.ine.add.PTCONT.3556194,R DR AMÉRICO SILVA,13,4480-166,AZURARA,-8.735786880466277,41.345351029946734
pt.ine.add.PTCONT.3556208,CC SANTANA,113,4480-152,AZURARA,-8.737841055469222,41.35041852495189
pt.ine.add.PTCONT.3556209,LG SANTANA,123,4480-204,BAGUNTE,-8.663001871762724,41.370776365211626
pt.ine.add.PTCONT.3556210,R LADAINHAS,132,4480-215,BAGUNTE,-8.664084245775616,41.371590740493765
pt.ine.add.PTCONT.3556211,R EMIGRANTE,,4480-223,BAGUNTE,-8.664679897580074,41.36987722969551
pt.ine.add.PTCONT.3556212,R D ZAMEIRO,199,4480-225,BAGUNTE,-8.681357378814011,41.35321358688333
pt.ine.add.PTCONT.3556213,R ABADE SOUSA MAIA,2,4485-060,CANIDELO VCD,-8.649242704358246,41.311574220062894
pt.ine.add.PTCONT.3556809,R ALFREDO BASTOS,179,4480-724,VILA DO CONDE,-8.760734851361201,41.3690152703251
pt.ine.add.PTCONT.3556810,R CAP CARLOS FONSECA,507,4480-737,VILA DO CONDE,-8.727238202377425,41.36311538557186
pt.ine.add.PTCONT.3556811,R ANTONIO SOUTO,,4485-275,GUILHABREU,-8.64759188063519,41.28994471820084
pt.ine.add.PTCONT.3556812,R ANTONIO SOUTO,CASA 2,4485-275,GUILHABREU,-8.64759188063519,41.28994471820084
pt.ine.add.PTCONT.3556813,R CARVALHOSA,46,4485-353,LABRUGE,-8.72692536491895,41.27340941435642
pt.ine.add.PTCONT.3556814,R NOVA,,4485-410,MACIEIRA DA MAIA,-8.682832001792036,41.33816080169858
pt.ine.add.PTCONT.3556815,URB GANDARA,42,4485-459,MALTA,-8.653088282022859,41.30258882309623
pt.ine.add.PTCONT.3556816,R BRUXELAS,247,4485-502,MINDELO,-8.735525667721115,41.30792252498503
pt.ine.add.PTCONT.3556817,R LONDRES,300,4485-503,MINDELO,-8.735996747009514,41.30850532430151
pt.ine.add.PTCONT.3556818,R COVELO,117,4485-588,MODIVAS,-8.689925399644597,41.294303823639225
pt.ine.add.PTCONT.3556820,R RIO DA GANDARA,1151,4485-721,VILA CHÃ VCD,-8.72093963661291,41.29532016304306
pt.ine.add.PTCONT.3556821,R CASAL DO MONTE,54,4480-776,VILA DO CONDE,-8.740545146494958,41.368799469703724
pt.ine.add.PTCONT.3556822,R LAPA,1076,4480-757,VILA DO CONDE,-8.730824188604553,41.363177852182226
pt.ine.add.PTCONT.3556823,R LAPA,1076,4480-757,VILA DO CONDE,-8.730824188604553,41.363177852182226
pt.ine.add.PTCONT.3556824,R LAPA,1076,4480-757,VILA DO CONDE,-8.730824188604553,41.363177852182226
pt.ine.add.PTCONT.3556825,R CORDOEIRO,15 A,4480-942,VILA DO CONDE,-8.758917798910646,41.36274938315293
pt.ine.add.PTCONT.3556826,R COSTA MONTEIRO,231,4485-060,CANIDELO VCD,-8.649228064263294,41.311232129916895
pt.ine.add.PTCONT.3556827,R ANTONIO SOUTO,,4485-275,GUILHABREU,-8.64759188063519,41.28994471820084
pt.ine.add.PTCONT.3556828,R ANTONIO SOUTO,,4485-275,GUILHABREU,-8.64759188063519,41.28994471820084
pt.ine.add.PTCONT.3556829,R ANTONIO SOUTO,,4485-275,GUILHABREU,-8.64759188063519,41.28994471820084
pt.ine.add.PTCONT.3556830,R CASAL PEDRO,903,4480-307,JUNQUEIRA VCD,-8.670479895069862,41.37459540050697
pt.ine.add.PTCONT.3556831,R CASAL PEDRO,813,4480-307,JUNQUEIRA VCD,-8.6703300876316,41.37382175613981
pt.ine.add.PTCONT.3556832,R BELAS,5,4485-445,MALTA,-8.658470691061416,41.305229600416354
pt.ine.add.PTCONT.3556833,R ATENAS,287,4485-499,MINDELO,-8.734776713297387,41.30828660571502
pt.ine.add.PTCONT.3556834,R BRUXELAS,330,4485-502,MINDELO,-8.735244723495803,41.308536272912455
pt.ine.add.PTCONT.3556835,R 9 IRMÃOS,62,4485-594,MODIVAS,-8.679971149927287,41.294630670017035
pt.ine.add.PTCONT.3556836,R PORTELA,328,4480-415,RIO MAU VCD,-8.700095545625933,41.40290583635936
pt.ine.add.PTCONT.3556837,R PORTELA,328,4480-415,RIO MAU VCD,-8.700095545625933,41.40290583635936
pt.ine.add.PTCONT.3556838,R TANQUES,164,4480-432,RIO MAU VCD,-8.701601616168219,41.40419497328326
pt.ine.add.PTCONT.3556839,AV VARANDAS DE ESTE,49,4480-566,TOUGUINHÓ,-8.705209325288143,41.37511228536113
pt.ine.add.PTCONT.3556840,AV D ANTÓNIO BENTO MARTINS JUNIOR,784,4480-664,VILA DO CONDE,-8.758693444594948,41.3642812823967
pt.ine.add.PTCONT.3556883,R SANGUINHAL,476,4480-298,JUNQUEIRA VCD,-8.680587851069006,41.374034527228424
pt.ine.add.PTCONT.3556841,AV D ANTÓNIO BENTO MARTINS JUNIOR,784,4480-664,VILA DO CONDE,-8.758693444594948,41.3642812823967
pt.ine.add.PTCONT.3556842,AV D ANTÓNIO BENTO MARTINS JUNIOR,784,4480-664,VILA DO CONDE,-8.758693444594948,41.3642812823967
pt.ine.add.PTCONT.3556843,AV D ANTÓNIO BENTO MARTINS JUNIOR,784,4480-664,VILA DO CONDE,-8.758693444594948,41.3642812823967
pt.ine.add.PTCONT.3556844,AV D ANTÓNIO BENTO MARTINS JUNIOR,784,4480-664,VILA DO CONDE,-8.758693444594948,41.3642812823967
pt.ine.add.PTCONT.3556845,AV D ANTÓNIO BENTO MARTINS JUNIOR,784,4480-664,VILA DO CONDE,-8.758693444594948,41.3642812823967
pt.ine.add.PTCONT.3556846,AV D ANTÓNIO BENTO MARTINS JUNIOR,784,4480-664,VILA DO CONDE,-8.758693444594948,41.3642812823967
pt.ine.add.PTCONT.3556847,R CIMO DE VILA,118,4480-777,VILA DO CONDE,-8.744129694779835,41.35845290525566
pt.ine.add.PTCONT.3556848,R CIMO DE VILA,118,4480-777,VILA DO CONDE,-8.744129694779835,41.35845290525566
pt.ine.add.PTCONT.3556849,R CIMO DE VILA,118,4480-777,VILA DO CONDE,-8.744129694779835,41.35845290525566
pt.ine.add.PTCONT.3556850,R CIMO DE VILA,118,4480-777,VILA DO CONDE,-8.744129694779835,41.35845290525566
pt.ine.add.PTCONT.3556851,R NOVA,17,4485-544,MINDELO,-8.730368371614295,41.31068664257112
pt.ine.add.PTCONT.3556852,R BRUXELAS,374,4485-502,MINDELO,-8.735253711622423,41.309011267097794
pt.ine.add.PTCONT.3556853,R VASCO DA GAMA,70,4480-543,TOUGUINHA,-8.722085662710281,41.37222690538581
pt.ine.add.PTCONT.3556854,R PEDREIRAS,84,4485-652,VAIRÃO,-8.67315627275833,41.326735433900446
pt.ine.add.PTCONT.3556855,R CRASTO,500,4485-684,VAIRÃO,-8.678585966736962,41.324683913382685
pt.ine.add.PTCONT.3556856,R ALEGRIA,359,4480-743,VILA DO CONDE,-8.759295721749798,41.371003987308605
pt.ine.add.PTCONT.3556857,AV CIDADE GUIMARÃES,162,4480-660,VILA DO CONDE,-8.755602714905045,41.36352369878931
pt.ine.add.PTCONT.3556858,AV INF D HENRIQUE,25 A,4480-670,VILA DO CONDE,-8.76002364211851,41.36346570986654
pt.ine.add.PTCONT.3556859,R REGADAS,687,4485-086,FAJOZES,-8.695414738147772,41.328753803770184
pt.ine.add.PTCONT.3556860,R TOUREIRO,262,4480-443,RIO MAU VCD,-8.706118408223022,41.40377639431931
pt.ine.add.PTCONT.3556861,R TRAS DO FIEIRO,229,4485-728,VILA CHÃ VCD,-8.726305569878477,41.29854311946461
pt.ine.add.PTCONT.3556862,R RIO DA GANDARA,780,4485-721,VILA CHÃ VCD,-8.717665442389357,41.29766890047178
pt.ine.add.PTCONT.3556863,R ALEGRIA,201 A,4480-743,VILA DO CONDE,-8.759551965842213,41.36905773163361
pt.ine.add.PTCONT.3556864,R VIOLETAS,445,4480-775,VILA DO CONDE,-8.755807500713022,41.369960445280185
pt.ine.add.PTCONT.3556865,R MARES DA GRONELANDIA,94,4480-778,VILA DO CONDE,-8.758697656254185,41.36721656124796
pt.ine.add.PTCONT.3556866,R TRAS DOS ARCOS,300,4480-839,VILA DO CONDE,-8.739880601554553,41.35644948481983
pt.ine.add.PTCONT.3556867,R PEDACO,,4480-330,OUTEIRO MAIOR,-8.647651909213803,41.376518544996365
pt.ine.add.PTCONT.3556868,R CAP CARLOS FONSECA,329,4480-737,VILA DO CONDE,-8.727245888745909,41.36133255283388
pt.ine.add.PTCONT.3556869,R CAP CARLOS FONSECA,319,4480-737,VILA DO CONDE,-8.727245888745909,41.36133255283388
pt.ine.add.PTCONT.3556870,R CAP CARLOS FONSECA,319,4480-737,VILA DO CONDE,-8.727245888745909,41.36133255283388
pt.ine.add.PTCONT.3556871,R AQUEDUTO,98,4480-940,VILA DO CONDE,-8.740961286188567,41.358289603919125
pt.ine.add.PTCONT.3556872,R D AFONSO HENRIQUES,42,4480-897,VILA DO CONDE,-8.750239039122665,41.35746588118728
pt.ine.add.PTCONT.3556873,R D AFONSO HENRIQUES,58,4480-897,VILA DO CONDE,-8.750263789123297,41.35755578853995
pt.ine.add.PTCONT.3556874,R D AFONSO HENRIQUES,58,4480-897,VILA DO CONDE,-8.750263789123297,41.35755578853995
pt.ine.add.PTCONT.3556875,R TELHEIRA,251,4485-781,VILAR VCD,-8.672242403274538,41.289759878199526
pt.ine.add.PTCONT.3556876,R ANTÓNIO BATISTA DA SILVA,,4480-319,JUNQUEIRA VCD,-8.685087242508795,41.376029927716864
pt.ine.add.PTCONT.3556877,R GRANJA,43,4485-306,LABRUGE,-8.710661317864018,41.27649953953694
pt.ine.add.PTCONT.3556878,R REAL,83,4480-480,TOUGUES,-8.702749495098095,41.36170852719578
pt.ine.add.PTCONT.3556879,R FUNDO DE VILA,73,4485-725,VILA CHÃ VCD,-8.726756719187497,41.29299426280831
pt.ine.add.PTCONT.3556880,R MAREANTES,203,4480-800,VILA DO CONDE,-8.758806388968065,41.36609047114235
pt.ine.add.PTCONT.3556881,R MONTE GRANDE,115,4485-255,GUILHABREU,-8.62291148092662,41.29732771231247
pt.ine.add.PTCONT.3556882,R BARROS,620,4480-279,JUNQUEIRA VCD,-8.675880710431702,41.38727467835696
pt.ine.add.PTCONT.3556884,R PONTE D AVE,959,4485-389,MACIEIRA DA MAIA,-8.679014558902987,41.34740811815616
pt.ine.add.PTCONT.3556885,R SOL,335,4485-400,MACIEIRA DA MAIA,-8.680966182493554,41.33790858083109
pt.ine.add.PTCONT.3556886,AV MARGINAL,60,4485-469,MINDELO,-8.739266455921818,41.31470997261726
pt.ine.add.PTCONT.3556887,R CENTRAL DE CARRAZEDO,667,4485-654,VAIRÃO,-8.665484660505166,41.32195399266678
pt.ine.add.PTCONT.3556888,R PARTICULAR DAS AREIAS,23,4485-755,VILA CHÃ VCD,-8.733860778470557,41.3021686068244
pt.ine.add.PTCONT.3556889,R TRAS LAVANDEIRA,160,4485-727,VILA CHÃ VCD,-8.720755851826688,41.29346625431284
pt.ine.add.PTCONT.3556890,AV DR CARLOS PINTO FERREIRA,346,4480-665,VILA DO CONDE,-8.757805696280041,41.36268339345802
pt.ine.add.PTCONT.3556891,R PEDRO HISPANO,19,4480-922,VILA DO CONDE,-8.735729142635755,41.35982079001208
pt.ine.add.PTCONT.3556892,TV REVILHOES,17,4485-616,MODIVAS,-8.674327968238565,41.29654820510131
pt.ine.add.PTCONT.3556893,TV ARRIBELA,90,4485-920,MOSTEIRÓ VCD,-8.673778630163044,41.282072146356356
pt.ine.add.PTCONT.3556894,TV ARRIBELA,90,4485-920,MOSTEIRÓ VCD,-8.673778630163044,41.282072146356356
pt.ine.add.PTCONT.3556895,R CASTUARES,374,4480-358,RETORTA,-8.71614133608801,41.34905384198616
pt.ine.add.PTCONT.3556896,R TRAS DA LAVANDEIRA,158,4485-727,VILA CHÃ VCD,-8.720755851826688,41.29346625431284
pt.ine.add.PTCONT.3556897,TV CASAL DO MONTE,14,4480-893,VILA DO CONDE,-8.74149999220619,41.3673717946444
pt.ine.add.PTCONT.3556898,R MARES DA GRONELANDIA,215,4480-778,VILA DO CONDE,-8.758937245166326,41.368520837050006
pt.ine.add.PTCONT.3556899,AV DR CARLOS PINTO FERREIRA,659,4480-665,VILA DO CONDE,-8.760310522616798,41.365902203257775
pt.ine.add.PTCONT.3556900,R JOÃO DE DEUS,117,4480-880,VILA DO CONDE,-8.73309406410873,41.356575106587684
pt.ine.add.PTCONT.3556901,R JOÃO DE DEUS,117,4480-880,VILA DO CONDE,-8.73309406410873,41.356575106587684
pt.ine.add.PTCONT.3556902,R JOÃO DE DEUS,117,4480-880,VILA DO CONDE,-8.73309406410873,41.356575106587684
pt.ine.add.PTCONT.3556903,R JOÃO DE DEUS,117,4480-880,VILA DO CONDE,-8.73309406410873,41.356575106587684
pt.ine.add.PTCONT.3556904,R JOÃO DE DEUS,117,4480-880,VILA DO CONDE,-8.73309406410873,41.356575106587684
pt.ine.add.PTCONT.3556905,R JOÃO DE DEUS,117,4480-880,VILA DO CONDE,-8.73309406410873,41.356575106587684
pt.ine.add.PTCONT.3556906,R TRAS,99,4485-089,FAJOZES,-8.694312533125734,41.31862960233254
pt.ine.add.PTCONT.3556907,R BENEMERITO ANTÓNIO AZEVEDO SANTOS,795,4485-072,FAJOZES,-8.694007556992485,41.317883750213355
pt.ine.add.PTCONT.3556908,URB PARADA,14,4485-291,GUILHABREU,-8.64151687099135,41.28859407545888
pt.ine.add.PTCONT.3556909,R INF D HENRIQUE,442,4485-540,MINDELO,-8.734213684328182,41.314592405183134
pt.ine.add.PTCONT.3556910,R D MARIA II,315,4485-902,MOSTEIRÓ VCD,-8.64788447645167,41.281605576619825
pt.ine.add.PTCONT.3556911,R PEDREGAIS,380,4480-340,PARADA VCD,-8.640033093810832,41.365198304400685
pt.ine.add.PTCONT.3556912,R CENTRAL,291,4480-404,RIO MAU VCD,-8.686091796417491,41.401479334743065
pt.ine.add.PTCONT.3556913,R TRAS DA LAVANDEIRA,340,4485-727,VILA CHÃ VCD,-8.722339569714068,41.29300795308986
pt.ine.add.PTCONT.3556914,TV BERNARDINO MACHADO,38,4480-845,VILA DO CONDE,-8.731872218022856,41.3549517435791
pt.ine.add.PTCONT.3556915,AL DESCOBRIMENTOS,61,4480-872,VILA DO CONDE,-8.745788257238466,41.351808130145066
pt.ine.add.PTCONT.3556916,AL DESCOBRIMENTOS,61,4480-872,VILA DO CONDE,-8.745788257238466,41.351808130145066
pt.ine.add.PTCONT.3556917,AL DESCOBRIMENTOS,61,4480-872,VILA DO CONDE,-8.745788257238466,41.351808130145066
pt.ine.add.PTCONT.3556918,AL DESCOBRIMENTOS,61,4480-872,VILA DO CONDE,-8.745788257238466,41.351808130145066
pt.ine.add.PTCONT.3556919,AL DESCOBRIMENTOS,61,4480-872,VILA DO CONDE,-8.745788257238466,41.351808130145066
pt.ine.add.PTCONT.3556920,AL DESCOBRIMENTOS,61,4480-872,VILA DO CONDE,-8.745788257238466,41.351808130145066
pt.ine.add.PTCONT.3556921,AL DESCOBRIMENTOS,61,4480-872,VILA DO CONDE,-8.745788257238466,41.351808130145066
pt.ine.add.PTCONT.3556922,AL DESCOBRIMENTOS,61,4480-872,VILA DO CONDE,-8.745788257238466,41.351808130145066
pt.ine.add.PTCONT.3556923,AL DESCOBRIMENTOS,61,4480-872,VILA DO CONDE,-8.745788257238466,41.351808130145066
pt.ine.add.PTCONT.3556924,AL DESCOBRIMENTOS,61,4480-872,VILA DO CONDE,-8.745788257238466,41.351808130145066
pt.ine.add.PTCONT.3556925,AL DESCOBRIMENTOS,61,4480-872,VILA DO CONDE,-8.745788257238466,41.351808130145066
pt.ine.add.PTCONT.3556926,R 5,,4485-204,FAJOZES,-8.71260990943716,41.32810125701356
pt.ine.add.PTCONT.3556927,AV 1 DE MAIO,7,4485-105,FAJOZES,-8.71728018748702,41.32807764807649
pt.ine.add.PTCONT.3556928,R FIAL,30,4480-250,FERREIRÓ,-8.624748215400516,41.35586441391416
pt.ine.add.PTCONT.3556929,R GAIO,144,4485-193,GIÃO VCD,-8.685923910201652,41.303966513161754
pt.ine.add.PTCONT.3556930,R 25 DE ABRIL,328 C,4480-267,JUNQUEIRA VCD,-8.688048548851993,41.379869392281066
pt.ine.add.PTCONT.3556931,R FUNDO DE VILA,33,4485-316,LABRUGE,-8.72667766320624,41.28295507583969
pt.ine.add.PTCONT.3556932,R CASELO,120,4485-906,MOSTEIRÓ VCD,-8.656962839097258,41.27795396107327
pt.ine.add.PTCONT.3556933,R NSA SRA D O,570,4480-511,TOUGUINHA,-8.717054095638751,41.37096497683294
pt.ine.add.PTCONT.3556934,R RIBEIRA,312,4480-568,TOUGUINHÓ,-8.698782230196109,41.38246429874442
pt.ine.add.PTCONT.3556935,R PINHAL,160,4485-524,VILA CHÃ VCD,-8.733632430461345,41.30460990815734
pt.ine.add.PTCONT.3556936,R ALTO DOS VARAIS,33,4485-696,VILA CHÃ VCD,-8.734746800819893,41.29333995758911
pt.ine.add.PTCONT.3556937,R PRAIA,510,4485-708,VILA CHÃ VCD,-8.732857515777516,41.291711067799234
pt.ine.add.PTCONT.3556938,TV VIOLETAS,27,4480-393,VILA DO CONDE,-8.755635323289699,41.37196026165491
pt.ine.add.PTCONT.3556939,R ANTÓNIO LOPES PEREIRA CADECO,240,4480-729,VILA DO CONDE,-8.755040545981336,41.36222115856891
pt.ine.add.PTCONT.3556940,R APARICIO BARROS,140,4480-731,VILA DO CONDE,-8.733258298545403,41.35624110175171
pt.ine.add.PTCONT.3556941,R APARICIO BARROS,140,4480-731,VILA DO CONDE,-8.733258298545403,41.35624110175171
pt.ine.add.PTCONT.3556942,R APARICIO BARROS,140,4480-731,VILA DO CONDE,-8.733258298545403,41.35624110175171
pt.ine.add.PTCONT.3556943,R APARICIO BARROS,140,4480-731,VILA DO CONDE,-8.733258298545403,41.35624110175171
pt.ine.add.PTCONT.3556944,R APARICIO BARROS,140,4480-731,VILA DO CONDE,-8.733258298545403,41.35624110175171
pt.ine.add.PTCONT.3556945,R PESCADORES,20,4480-804,VILA DO CONDE,-8.754988481031575,41.35800756669575
pt.ine.add.PTCONT.3556946,BR PESCADORES,20,4480-683,VILA DO CONDE,-8.754988481031575,41.35800756669575
pt.ine.add.PTCONT.3556947,R NORTE,106,4485-521,MINDELO,-8.732988837463308,41.31386046068598
pt.ine.add.PTCONT.3556948,R NOVA DA LAGE,60,4485-598,MODIVAS,-8.682690693436387,41.29717488788943
pt.ine.add.PTCONT.3556949,R LAGE,332,4485-624,MODIVAS,-8.684228609438046,41.29690641588214
pt.ine.add.PTCONT.3556950,R CAP VALENTE,,4485-937,MOSTEIRÓ VCD,-8.676359854193542,41.27666651216314
pt.ine.add.PTCONT.3556951,R CASAL NOVO,164,4480-437,RIO MAU VCD,-8.683914454555525,41.39712285953618
pt.ine.add.PTCONT.3556952,R DR REIS E SA QTA DO SA,55,4485-681,VAIRÃO,-8.66797571871693,41.3315407850238
pt.ine.add.PTCONT.3556953,R CIMO DE VILA,8,4485-713,VILA CHÃ VCD,-8.724220992297862,41.293790669386354
pt.ine.add.PTCONT.3556954,R BERNARDINO CRAVEIRO,126,4480-735,VILA DO CONDE,-8.752874943414888,41.36448384135601
pt.ine.add.PTCONT.3556955,AV BENTO DE FREITAS,489,4480-656,VILA DO CONDE,-8.750362050305863,41.35226814277908
pt.ine.add.PTCONT.3556956,R FUNDO DE VILA,409,4485-316,LABRUGE,-8.723532427190817,41.28495215798784
pt.ine.add.PTCONT.3556957,R MARES DA PORTELA,77,4485-495,MINDELO,-8.738278706675516,41.31121258311805
pt.ine.add.PTCONT.3556958,R MARES DA PORTELA,77,4485-495,MINDELO,-8.738278706675516,41.31121258311805
pt.ine.add.PTCONT.3556959,R MARES DA PORTELA,77,4485-495,MINDELO,-8.738278706675516,41.31121258311805
pt.ine.add.PTCONT.3556960,R MARES DA PORTELA,77,4485-495,MINDELO,-8.738278706675516,41.31121258311805
pt.ine.add.PTCONT.3556961,R MARES DA PORTELA,77,4485-495,MINDELO,-8.738278706675516,41.31121258311805
pt.ine.add.PTCONT.3556962,R MARES DA PORTELA,77,4485-495,MINDELO,-8.738278706675516,41.31121258311805
pt.ine.add.PTCONT.3556963,R MARES DA PORTELA,77,4485-495,MINDELO,-8.738278706675516,41.31121258311805
pt.ine.add.PTCONT.3556964,R MARES DA PORTELA,77,4485-495,MINDELO,-8.738278706675516,41.31121258311805
pt.ine.add.PTCONT.3556965,LG MONTE,,4485-618,MODIVAS,-8.692155538134983,41.295418529429575
pt.ine.add.PTCONT.3556966,R NOVA,,4485-926,MOSTEIRÓ VCD,-8.673309818307686,41.2787788307011
pt.ine.add.PTCONT.3556967,R S CRISTÓVÃO,805,4480-430,RIO MAU VCD,-8.679534311832642,41.403824678648164
pt.ine.add.PTCONT.3556968,R CAMELIAS,7,4480-765,VILA DO CONDE,-8.75739480603104,41.37096029157185
pt.ine.add.PTCONT.3556969,R CAMELIAS,5,4480-765,VILA DO CONDE,-8.757502461828947,41.370968711473886
pt.ine.add.PTCONT.3556970,R CIDADE DE PORTALEGRE,318,4480-895,VILA DO CONDE,-8.751064192446998,41.34868253927299
pt.ine.add.PTCONT.3556971,R CIDADE DE PORTALEGRE,318,4480-895,VILA DO CONDE,-8.751064192446998,41.34868253927299
pt.ine.add.PTCONT.3556972,R CIDADE DE PORTALEGRE,318,4480-895,VILA DO CONDE,-8.751064192446998,41.34868253927299
pt.ine.add.PTCONT.3556973,R CIDADE DE PORTALEGRE,318,4480-895,VILA DO CONDE,-8.751064192446998,41.34868253927299
pt.ine.add.PTCONT.3556974,R CIDADE DE PORTALEGRE,318,4480-895,VILA DO CONDE,-8.751064192446998,41.34868253927299
pt.ine.add.PTCONT.3556975,R BERNARDINO CRAVEIRO,351,4480-735,VILA DO CONDE,-8.751024350532218,41.36342231726476
pt.ine.add.PTCONT.3556976,AV SACADURA CABRAL,68,4480-675,VILA DO CONDE,-8.749678183290715,41.3512201025541
pt.ine.add.PTCONT.3556977,R CAIS DAS LAVANDEIRAS,47,4480-789,VILA DO CONDE,-8.742697088936353,41.3509241431653
pt.ine.add.PTCONT.3556978,R CAIS DAS LAVANDEIRAS,47,4480-789,VILA DO CONDE,-8.742697088936353,41.3509241431653
pt.ine.add.PTCONT.3556979,R VILA VERDE,107,4485-127,FORNELO,-8.64445610564591,41.327127635606345
pt.ine.add.PTCONT.3556980,R FOJO,248,4485-321,LABRUGE,-8.702328784057043,41.28319509879044
pt.ine.add.PTCONT.3556981,R MADORNO,72,4485-396,MACIEIRA DA MAIA,-8.684884557185121,41.346380676783006
pt.ine.add.PTCONT.3556982,R ESTRADA VELHA,264,4485-566,MINDELO,-8.72145695940312,41.315684782247985
pt.ine.add.PTCONT.3556983,R NOVA,365,4485-544,MINDELO,-8.73151686571225,41.31352596757107
pt.ine.add.PTCONT.3556984,R NSA SRA DA CONCEIÇÃO,360,4485-938,MOSTEIRÓ VCD,-8.674656477107046,41.2770797241723
pt.ine.add.PTCONT.3556985,R CIDADE DE PORTALEGRE,318,4480-895,VILA DO CONDE,-8.751064192446998,41.34868253927299
pt.ine.add.PTCONT.3556986,R CIDADE DE PORTALEGRE,318,4480-895,VILA DO CONDE,-8.751064192446998,41.34868253927299
pt.ine.add.PTCONT.3556987,R BERNARDINO CRAVEIRO,351,4480-735,VILA DO CONDE,-8.751024350532218,41.36342231726476
pt.ine.add.PTCONT.3556988,R S BENTO,37,4480-781,VILA DO CONDE,-8.743240815779814,41.35284812171027
pt.ine.add.PTCONT.3556989,CC PRAZERES,23,4480-691,VILA DO CONDE,-8.74409389135469,41.35079067982119
pt.ine.add.PTCONT.3556990,TV BARREIRO,44,4485-342,LABRUGE,-8.710118890042043,41.274539356200215
pt.ine.add.PTCONT.3556991,R PROF GUIMARÃES,77,4485-547,MINDELO,-8.717032248362626,41.3150230037827
pt.ine.add.PTCONT.3556992,R NOVA,201,4485-544,MINDELO,-8.730905794516591,41.31199844895796
pt.ine.add.PTCONT.3556993,R S JOSE,4,4480-748,VILA DO CONDE,-8.726162905536231,41.36051877424781
pt.ine.add.PTCONT.3556994,R ERGAL,167,4485-130,FORNELO,-8.64420581900712,41.325670086747984
pt.ine.add.PTCONT.3556995,R ISABELANA,185,4485-308,LABRUGE,-8.70470701048542,41.283516467877554
pt.ine.add.PTCONT.3556996,R PONTE D AVE,200,4485-389,MACIEIRA DA MAIA,-8.681072899746573,41.340663312192824
pt.ine.add.PTCONT.3556997,R VENTURA PEREIRA PENA,210,4485-412,MACIEIRA DA MAIA,-8.676218077808716,41.34015508516374
pt.ine.add.PTCONT.3556998,R BARCELONA,8,4485-500,MINDELO,-8.734239193965136,41.30566922399749
pt.ine.add.PTCONT.3556999,R ATENAS,50,4485-499,MINDELO,-8.734493497835603,41.306055071597505
pt.ine.add.PTCONT.3557000,PC URZES,291,4480-685,VILA DO CONDE,-8.747478981521736,41.36895174422235
pt.ine.add.PTCONT.3557001,PC URZES,291,4480-685,VILA DO CONDE,-8.747478981521736,41.36895174422235
pt.ine.add.PTCONT.3557002,PC URZES,291,4480-685,VILA DO CONDE,-8.747478981521736,41.36895174422235
pt.ine.add.PTCONT.3557003,PC URZES,291,4480-685,VILA DO CONDE,-8.747478981521736,41.36895174422235
pt.ine.add.PTCONT.3557004,PC URZES,291,4480-685,VILA DO CONDE,-8.747478981521736,41.36895174422235
pt.ine.add.PTCONT.3557005,PC URZES,291,4480-685,VILA DO CONDE,-8.747478981521736,41.36895174422235
pt.ine.add.PTCONT.3557006,PC URZES,291,4480-685,VILA DO CONDE,-8.747478981521736,41.36895174422235
pt.ine.add.PTCONT.3557007,PC URZES,291,4480-685,VILA DO CONDE,-8.747478981521736,41.36895174422235
pt.ine.add.PTCONT.3557008,PC URZES,291,4480-685,VILA DO CONDE,-8.747478981521736,41.36895174422235
pt.ine.add.PTCONT.3557009,PC URZES,291,4480-685,VILA DO CONDE,-8.747478981521736,41.36895174422235
pt.ine.add.PTCONT.3557010,R ALFREDO BASTOS,227,4480-724,VILA DO CONDE,-8.76073995674045,41.36954647772263
pt.ine.add.PTCONT.3557011,R SENHOR DOS NAVEGANTES,51,4480-802,VILA DO CONDE,-8.757845462316705,41.365591468221545
pt.ine.add.PTCONT.3557012,R CORDOEIRO,50,4480-942,VILA DO CONDE,-8.759065176079652,41.36316276549265
pt.ine.add.PTCONT.3557013,R NSA SRA DA GUIA,76,4480-827,VILA DO CONDE,-8.75344649908908,41.36174354629037
pt.ine.add.PTCONT.3557014,R ESCOURAL,178,4485-131,FORNELO,-8.640892084812553,41.34039739998613
pt.ine.add.PTCONT.3557015,R ESCADINHAS,25,4485-160,FORNELO,-8.64769092833451,41.33139915729478
pt.ine.add.PTCONT.3557016,R 25 DE ABRIL,50,4485-304,LABRUGE,-8.718666615963945,41.27878216809246
pt.ine.add.PTCONT.3557017,R CESTEIROS,95,4485-403,MACIEIRA DA MAIA,-8.663716523620128,41.34250943265175
pt.ine.add.PTCONT.3557018,R ARROTEIA,450,4485-575,MODIVAS,-8.697228091750054,41.29524071318081
pt.ine.add.PTCONT.3557019,R CARVALHEIRADA,344,4480-480,TOUGUES,-8.696438492378851,41.36438677204735
pt.ine.add.PTCONT.3557020,R CARVALHEIRADA,344,4480-480,TOUGUES,-8.696438492378851,41.36438677204735
pt.ine.add.PTCONT.3557269,R GANDARA,254,4485-778,VILAR VCD,-8.67246291636296,41.291892823442055
pt.ine.add.PTCONT.3557270,R GANDARA,254,4485-778,VILAR VCD,-8.67246291636296,41.291892823442055
pt.ine.add.PTCONT.3557276,R ALBERTO MOREIRA,1077,4485-766,VILAR VCD,-8.685631199954242,41.29050676687478
pt.ine.add.PTCONT.3557280,TV VENDA,145,4485-854,VILAR DE PINHEIRO,-8.66262387594087,41.26804149779725
pt.ine.add.PTCONT.3557284,R PADRE JOAQUIM ANTUNES AZEVEDO,85,4485-851,VILAR DE PINHEIRO,-8.66443595804144,41.267808045080024
pt.ine.add.PTCONT.3557309,R SENRA,28,4485-883,VILAR DE PINHEIRO,-8.66472055352439,41.26316958463741
pt.ine.add.PTCONT.3557310,R SENRA,28,4485-883,VILAR DE PINHEIRO,-8.66472055352439,41.26316958463741
pt.ine.add.PTCONT.3557337,R 102,29,4485-822,VILAR DE PINHEIRO,-8.672601098196154,41.26518587754623
pt.ine.add.PTCONT.3557348,R CAMPO DO MARTELO,1,4485-959,VILAR DE PINHEIRO,-8.659835364810279,41.261121077894934
pt.ine.add.PTCONT.3558058,R GANDARA,354,4485-778,VILAR VCD,-8.67246291636296,41.291892823442055
pt.ine.add.PTCONT.3558135,R BERNARDINO CRAVEIRO,351,4480-735,VILA DO CONDE,-8.751024350532218,41.36342231726476
pt.ine.add.PTCONT.3558148,R BERNARDINO JOSE ALVES,780,4485-073,FAJOZES,-8.693741106968107,41.323026376341055
pt.ine.add.PTCONT.3558152,R D AFONSO HENRIQUES,42,4480-897,VILA DO CONDE,-8.750239039122665,41.35746588118728
pt.ine.add.PTCONT.3558197,AV INF D HENRIQUE,242,4480-670,VILA DO CONDE,-8.757079191014572,41.36044533892641
pt.ine.add.PTCONT.3558209,AV D ANTÓNIO BENTO MARTINS JUNIOR,784,4480-664,VILA DO CONDE,-8.758693444594948,41.3642812823967
pt.ine.add.PTCONT.3558225,R S JOÃO,52,4480-218,BAGUNTE,-8.664403936377514,41.36534048334319
pt.ine.add.PTCONT.3558307,R PASSOS,48,4485-585,MODIVAS,-8.69169319412076,41.29440330859803
pt.ine.add.PTCONT.3558327,R RIO ESTE,740,4480-579,TOUGUINHÓ,-8.702928106079273,41.37396208913117
pt.ine.add.PTCONT.3558335,R BARREIRO,345,4480-292,JUNQUEIRA VCD,-8.685108408628572,41.37570568245224
pt.ine.add.PTCONT.3558336,R PRAIA,523,4485-708,VILA CHÃ VCD,-8.733215731337374,41.29171820507011
pt.ine.add.PTCONT.3558366,R CIDADE DE PORTALEGRE,318,4480-895,VILA DO CONDE,-8.751064192446998,41.34868253927299
pt.ine.add.PTCONT.3558374,R CIVIDADE,191,4480-016,ARCOS VCD,-8.66429285191296,41.391353531160696
pt.ine.add.PTCONT.3558378,R JOZ,49,4480-285,JUNQUEIRA VCD,-8.677384472928916,41.38552080369559
pt.ine.add.PTCONT.3558379,R IGREJA,145,4480-754,VILA DO CONDE,-8.743414316458855,41.35479206897795
pt.ine.add.PTCONT.3558413,R BERNARDINO JOSE ALVES,780,4485-073,FAJOZES,-8.693741106968107,41.323026376341055
pt.ine.add.PTCONT.3558426,AV PRINCIPAL,536,4480-330,OUTEIRO MAIOR,-8.647207165845384,41.373171044264744
pt.ine.add.PTCONT.3558435,R S MARTINHO,396,4485-250,GUILHABREU,-8.646167501731199,41.29556064777683
pt.ine.add.PTCONT.3558441,R ALBINO MOREIRA,1130,4485-767,VILAR VCD,-8.671390989585353,41.289295647755004
pt.ine.add.PTCONT.3558457,R APARICIO BARROS,140,4480-731,VILA DO CONDE,-8.733258298545403,41.35624110175171
pt.ine.add.PTCONT.3558665,R 16,21,4480-103,ÁRVORE,-8.727348845770308,41.33191585675855
pt.ine.add.PTCONT.3558615,R LAPA,1076,4480-757,VILA DO CONDE,-8.730824188604553,41.363177852182226
pt.ine.add.PTCONT.3558616,R LAPA,1076,4480-757,VILA DO CONDE,-8.730824188604553,41.363177852182226
pt.ine.add.PTCONT.3558617,R GANDARA,354 C,4485-778,VILAR VCD,-8.67246291636296,41.291892823442055
pt.ine.add.PTCONT.3558668,R NOVA,,4485-410,MACIEIRA DA MAIA,-8.682832001792036,41.33816080169858
pt.ine.add.PTCONT.3558669,R CENTRAL,425,4485-932,MOSTEIRÓ VCD,-8.657736146313647,41.28211035557194
pt.ine.add.PTCONT.3558743,R ESTAÇÃO,420,4485-576,MODIVAS,-8.6933846492563,41.28418441010953
pt.ine.add.PTCONT.3559382,R JOSE REGIO,256,4480-031,ARCOS VCD,-8.66024268966589,41.40505817976834
pt.ine.add.PTCONT.3559039,R COMEND,587,4485-394,MACIEIRA DA MAIA,-8.660782049052647,41.34160451102955
pt.ine.add.PTCONT.3559040,R COMEND,587,4485-394,MACIEIRA DA MAIA,-8.660782049052647,41.34160451102955
pt.ine.add.PTCONT.3559041,R COMEND,587,4485-394,MACIEIRA DA MAIA,-8.660782049052647,41.34160451102955
pt.ine.add.PTCONT.3559042,R COMEND,587,4485-394,MACIEIRA DA MAIA,-8.660782049052647,41.34160451102955
pt.ine.add.PTCONT.3559043,R COMEND,587,4485-394,MACIEIRA DA MAIA,-8.660782049052647,41.34160451102955
pt.ine.add.PTCONT.3559079,R COMEND,587,4485-394,MACIEIRA DA MAIA,-8.660782049052647,41.34160451102955
pt.ine.add.PTCONT.3559467,R LAPA,1076,4480-757,VILA DO CONDE,-8.730824188604553,41.363177852182226
pt.ine.add.PTCONT.3559468,R 10,,4485-298,FAJOZES,-8.71251150154569,41.323734781017016
pt.ine.add.PTCONT.3559472,R DA IGREJA,72,4485-178,GIÃO VCD,-8.678198553512859,41.3108227453049
pt.ine.add.PTCONT.3559473,R DA IGREJA,72,4485-178,GIÃO VCD,-8.678198553512859,41.3108227453049
pt.ine.add.PTCONT.3559474,R DA IGREJA,72,4485-178,GIÃO VCD,-8.678198553512859,41.3108227453049
pt.ine.add.PTCONT.3559475,R DA IGREJA,72,4485-178,GIÃO VCD,-8.678198553512859,41.3108227453049
pt.ine.add.PTCONT.3559476,R DA IGREJA,72,4485-178,GIÃO VCD,-8.678198553512859,41.3108227453049
pt.ine.add.PTCONT.3559477,R DA IGREJA,72,4485-178,GIÃO VCD,-8.678198553512859,41.3108227453049
pt.ine.add.PTCONT.3559500,R BERNARDINO CRAVEIRO,201,4480-735,VILA DO CONDE,-8.751884714986227,41.36466924996802
pt.ine.add.PTCONT.3562453,R 1,107,4480-110,ÁRVORE,-8.70356537769128,41.342913084316265
pt.ine.add.PTCONT.3562455,R 4,45,4480-110,ÁRVORE,-8.703557673631485,41.343399340652994
pt.ine.add.PTCONT.3562458,R CIVIDADE,73,4480-016,ARCOS VCD,-8.664944866671483,41.3921338649558
pt.ine.add.PTCONT.3562459,R 2 (OUTEIRO),326,4480-110,ÁRVORE,-8.707564357932315,41.34387463374233
pt.ine.add.PTCONT.3562460,TV LUIS DE CAMÕES,71,4480-237,BAGUNTE,-8.678427441169044,41.36582413038059
pt.ine.add.PTCONT.3562473,R AMOREIRAS,13,4480-610,ÁRVORE,-8.71015719371683,41.342538069106865
pt.ine.add.PTCONT.3562506,R PROF ANTÓNIO BARBOSA DE SA FARIA,62,4480-175,AZURARA,-8.733040512283393,41.34553645547281
pt.ine.add.PTCONT.3562507,R PROF ANTÓNIO BARBOSA DE SA FARIA,62,4480-175,AZURARA,-8.733040512283393,41.34553645547281
pt.ine.add.PTCONT.3562508,R PROF ANTÓNIO BARBOSA DE SA FARIA,62,4480-175,AZURARA,-8.733040512283393,41.34553645547281
pt.ine.add.PTCONT.3562509,R PROF ANTÓNIO BARBOSA DE SA FARIA,62,4480-175,AZURARA,-8.733040512283393,41.34553645547281
pt.ine.add.PTCONT.3562510,R PROF ANTÓNIO BARBOSA DE SA FARIA,62,4480-175,AZURARA,-8.733040512283393,41.34553645547281
pt.ine.add.PTCONT.3562511,R CORGO,42,4480-162,AZURARA,-8.732868752318662,41.34374554843311
pt.ine.add.PTCONT.3562549,R JOSE REGIO,18,4480-031,ARCOS VCD,-8.657837191399963,41.40484407630564
pt.ine.add.PTCONT.3562550,R CENTRO PAROQUIAL,24,4480-138,ÁRVORE,-8.713775302505862,41.33962057033626
pt.ine.add.PTCONT.3562551,R PADRE SERAFIM DAS NEVES,171,4480-174,AZURARA,-8.73521622167943,41.34436357349616
pt.ine.add.PTCONT.3562552,R FRANCISCO GONÇALVES MONTEIRO,110,4480-168,AZURARA,-8.735178399148518,41.34155451289271
pt.ine.add.PTCONT.3562553,R DR FERNANDO GOMES,402,4480-606,ÁRVORE,-8.735286521176942,41.335134066205256
pt.ine.add.PTCONT.3562571,R 40,,4480-081,ÁRVORE,-8.732114216605085,41.33311570531692
pt.ine.add.PTCONT.3562598,R NSA SRA DE FÁTIMA,748,4480-125,ÁRVORE,-8.729200622924862,41.333247884714
pt.ine.add.PTCONT.3562599,R 15,37,4480-066,ÁRVORE,-8.729736882714688,41.33179545390698
pt.ine.add.PTCONT.3562613,R VENDA VELHA,Z57,4485-026,AVELEDA VCD,-8.694202809428727,41.27239400271705
pt.ine.add.PTCONT.3562618,R 5 DA QUINTA,6,4480-092,ÁRVORE,-8.725713788956433,41.337353728194415
pt.ine.add.PTCONT.3562619,R JUNQUEIRA,27,4480-156,AZURARA,-8.740968177179306,41.34875431465804
pt.ine.add.PTCONT.3562623,URB CARREGAL,29,4485-041,AVELEDA VCD,-8.69531602589322,41.275558032288636
pt.ine.add.PTCONT.3562624,LG IGREJA,49,4480-153,AZURARA,-8.73627407129932,41.345060348720715
pt.ine.add.PTCONT.3562629,R PONTE D AVE,335,4480-232,BAGUNTE,-8.678504096740417,41.35353328104968
pt.ine.add.PTCONT.3563104,R ALFREDO BASTOS,185,4480-724,VILA DO CONDE,-8.76071172645682,41.369096432333244
pt.ine.add.PTCONT.3563105,R ALFREDO BASTOS,185,4480-724,VILA DO CONDE,-8.76071172645682,41.369096432333244
pt.ine.add.PTCONT.3563106,R ALFREDO BASTOS,185,4480-724,VILA DO CONDE,-8.76071172645682,41.369096432333244
pt.ine.add.PTCONT.3563107,R ALFREDO BASTOS,185,4480-724,VILA DO CONDE,-8.76071172645682,41.369096432333244
pt.ine.add.PTCONT.3563108,R FAROL,287,4480-790,VILA DO CONDE,-8.752677310943824,41.3612884859579
pt.ine.add.PTCONT.3563109,R GEN LEMOS,61,4480-820,VILA DO CONDE,-8.74249123442774,41.35703895945783
pt.ine.add.PTCONT.3563110,AV DR JOÃO CANAVARRO,192,4480-668,VILA DO CONDE,-8.745867294972696,41.352591058817296
pt.ine.add.PTCONT.3563111,AV DR JOÃO CANAVARRO,192,4480-668,VILA DO CONDE,-8.745867294972696,41.352591058817296
pt.ine.add.PTCONT.3563112,AV DR JOÃO CANAVARRO,192,4480-668,VILA DO CONDE,-8.745867294972696,41.352591058817296
pt.ine.add.PTCONT.3563113,AV DR JOÃO CANAVARRO,192,4480-668,VILA DO CONDE,-8.745867294972696,41.352591058817296
pt.ine.add.PTCONT.3563114,AV DR JOÃO CANAVARRO,192,4480-668,VILA DO CONDE,-8.745867294972696,41.352591058817296
pt.ine.add.PTCONT.3563115,R AGRA,,4485-239,GUILHABREU,-8.649803886724703,41.293410405414825
pt.ine.add.PTCONT.3563116,AV LIBERDADE,480,4485-301,LABRUGE,-8.724027164428529,41.27627863969483
pt.ine.add.PTCONT.3563117,R BEIRA MAR,40,4485-352,LABRUGE,-8.724505294867205,41.276357221767114
pt.ine.add.PTCONT.3563118,LG SOUTO D AIRES,44,4485-433,MALTA,-8.655037215816439,41.3029221591727
pt.ine.add.PTCONT.3563119,R ESTRADA VELHA,149,4485-487,MINDELO,-8.721103192429336,41.31485821464853
pt.ine.add.PTCONT.3563120,R LONDRES,432,4485-503,MINDELO,-8.735958770548292,41.309568005355665
pt.ine.add.PTCONT.3563121,R GAFA,,4485-491,MINDELO,-8.739422915667152,41.30968487170522
pt.ine.add.PTCONT.3563122,TV ESPINHEIRA,51,4480-480,TOUGUES,-8.697698462023794,41.363588244686646
pt.ine.add.PTCONT.3563123,R ESPINHEIRA,239,4480-480,TOUGUES,-8.697863711456847,41.364730942903556
pt.ine.add.PTCONT.3563124,R CASTELOS,345,4480-583,TOUGUINHÓ,-8.697764895140226,41.37818339932643
pt.ine.add.PTCONT.3563125,R ALEGRIA,73,4480-743,VILA DO CONDE,-8.75990061005674,41.36677782385653
pt.ine.add.PTCONT.3563126,R ALEGRIA,75,4480-743,VILA DO CONDE,-8.75990061005674,41.36677782385653
pt.ine.add.PTCONT.3563127,AV DR JOÃO CANAVARRO,192,4480-668,VILA DO CONDE,-8.745867294972696,41.352591058817296
pt.ine.add.PTCONT.3563128,AV DR JOÃO CANAVARRO,192,4480-668,VILA DO CONDE,-8.745867294972696,41.352591058817296
pt.ine.add.PTCONT.3563129,AV DR JOÃO CANAVARRO,192,4480-668,VILA DO CONDE,-8.745867294972696,41.352591058817296
pt.ine.add.PTCONT.3563130,AV DR JOÃO CANAVARRO,192,4480-668,VILA DO CONDE,-8.745867294972696,41.352591058817296
pt.ine.add.PTCONT.3563131,R COSTA MONTEIRO,81,4485-060,CANIDELO VCD,-8.647414442045877,41.31142933367889
pt.ine.add.PTCONT.3563132,LG PARADA,113,4485-231,GUILHABREU,-8.637159271903844,41.29165663544315
pt.ine.add.PTCONT.3563133,PC NSA SRA D O,,4480-482,TOUGUINHA,-8.716051494344406,41.37246472290596
pt.ine.add.PTCONT.3563134,PC NSA SRA D O,,4480-482,TOUGUINHA,-8.716051494344406,41.37246472290596
pt.ine.add.PTCONT.3563135,PC NSA SRA D O,,4480-482,TOUGUINHA,-8.716051494344406,41.37246472290596
pt.ine.add.PTCONT.3563136,PC NSA SRA D O,,4480-482,TOUGUINHA,-8.716051494344406,41.37246472290596
pt.ine.add.PTCONT.3563137,URB ERMIDA,47,4485-759,VILA CHÃ VCD,-8.717534122221206,41.29499534667187
pt.ine.add.PTCONT.3563138,TV NSA SRA DAS CANDEIAS CARVALHO E MIRANDA,6,4480-959,VILA DO CONDE,-8.753134746362315,41.36037661812209
pt.ine.add.PTCONT.3563139,TV NSA SRA DAS CANDEIAS CARVALHO E MIRANDA,6,4480-959,VILA DO CONDE,-8.753134746362315,41.36037661812209
pt.ine.add.PTCONT.3563140,TV NSA SRA DAS CANDEIAS CARVALHO E MIRANDA,6,4480-959,VILA DO CONDE,-8.753134746362315,41.36037661812209
pt.ine.add.PTCONT.3563141,R BRUXELAS,454,4485-502,MINDELO,-8.735208557256216,41.30979703413728
pt.ine.add.PTCONT.3563142,R CARAVELA,41,4485-701,VILA CHÃ VCD,-8.732809923377081,41.296942703402266
pt.ine.add.PTCONT.3563143,R ALFREDO BASTOS,102,4480-724,VILA DO CONDE,-8.760559408522486,41.36692730155269
pt.ine.add.PTCONT.3563144,R NSA SRA DO LEME,36,4480-830,VILA DO CONDE,-8.751898827077621,41.36111259447627
pt.ine.add.PTCONT.3563145,R SANTO AMARO,222,4480-780,VILA DO CONDE,-8.741087225485568,41.35512853080814
pt.ine.add.PTCONT.3563146,R LABRUGE,1603,4485-317,LABRUGE,-8.715956468357028,41.27870587964456
pt.ine.add.PTCONT.3563147,LG S APOLONIA,224,4485-432,MALTA,-8.663463594531828,41.301010789288334
pt.ine.add.PTCONT.3563148,R FONTE,16,4485-489,MINDELO,-8.715341886162848,41.304901966452334
pt.ine.add.PTCONT.3563149,R ATENAS,226,4485-499,MINDELO,-8.734507810640224,41.30761270435267
pt.ine.add.PTCONT.3563150,R VASCO DA GAMA CONDOMINIO,84,4485-549,MINDELO,-8.738786790999885,41.30933706137053
pt.ine.add.PTCONT.3563151,R VASCO DA GAMA CONDOMINIO,84,4485-549,MINDELO,-8.738786790999885,41.30933706137053
pt.ine.add.PTCONT.3563152,R VASCO DA GAMA CONDOMINIO,84,4485-549,MINDELO,-8.738786790999885,41.30933706137053
pt.ine.add.PTCONT.3563153,R FONTE,790,4485-578,MODIVAS,-8.700385705206067,41.294522874984196
pt.ine.add.PTCONT.3563154,R RIO DA GANDARA,680,4485-721,VILA CHÃ VCD,-8.716498479981338,41.298016976599506
pt.ine.add.PTCONT.3563155,R PADRE ALCEU CARLOS DA SILVA,34,4480-844,VILA DO CONDE,-8.755449353894912,41.36248006448024
pt.ine.add.PTCONT.3563156,R JOÃO DA AFONSECA LAPA,256,4480-909,VILA DO CONDE,-8.749084790826705,41.34277750533244
pt.ine.add.PTCONT.3563157,LG PADRAO,49,4485-155,FORNELO,-8.646745229653266,41.33570732490431
pt.ine.add.PTCONT.3563158,R BOUCINHA,189,4480-272,JUNQUEIRA VCD,-8.686350957353751,41.377041310117214
pt.ine.add.PTCONT.3563159,AV PRINCIPAL,520,4480-330,OUTEIRO MAIOR,-8.647420472773605,41.372935987019616
pt.ine.add.PTCONT.3563160,R CRUZEIRO,105,4480-480,TOUGUES,-8.70343909164996,41.362668540791006
pt.ine.add.PTCONT.3563161,R GIRASSOIS,138,4480-796,VILA DO CONDE,-8.756613102267348,41.36920875223156
pt.ine.add.PTCONT.3563162,R JASMINS,116,4480-798,VILA DO CONDE,-8.758045344825494,41.36899389146384
pt.ine.add.PTCONT.3563163,R D AFONSO HENRIQUES,100,4480-897,VILA DO CONDE,-8.75053034255551,41.357941531094234
pt.ine.add.PTCONT.3563164,TV DA SILVEIRA,8,4485-080,FAJOZES,-8.687737043908639,41.324883291114105
pt.ine.add.PTCONT.3563165,R ARTUR FONSECA CARDOSO,60,4480-250,FERREIRÓ,-8.63180787840307,41.357058587170265
pt.ine.add.PTCONT.3563166,TV PASSOS,37,4485-554,MINDELO,-8.715174677490669,41.31161086038453
pt.ine.add.PTCONT.3563167,R ALEXANDRE HERCULANO,25,4485-569,MINDELO,-8.714656394725287,41.31107323483762
pt.ine.add.PTCONT.3563168,AV DR FERNANDO GOMES,,4480-364,RETORTA,-8.714488375479483,41.34994459873921
pt.ine.add.PTCONT.3563169,R FERNANDO CASTRO PORTO MAIA,261,4480-480,TOUGUES,-8.710938693278045,41.35930864905529
pt.ine.add.PTCONT.3563170,R FERNANDO CASTRO PORTO MAIA,261,4480-480,TOUGUES,-8.710938693278045,41.35930864905529
pt.ine.add.PTCONT.3563171,R MAREANTES,43 A,4480-800,VILA DO CONDE,-8.758357988820777,41.369190280927356
pt.ine.add.PTCONT.3563172,R APARICIO BARROS,297,4480-731,VILA DO CONDE,-8.734894218243081,41.3574030805261
pt.ine.add.PTCONT.3563173,R BENGUIADOS,337,4480-794,VILA DO CONDE,-8.745339559327205,41.35748304633708
pt.ine.add.PTCONT.3563174,R BENGUIADOS,337 C,4480-794,VILA DO CONDE,-8.745339559327205,41.35748304633708
pt.ine.add.PTCONT.3563175,R BENGUIADOS,337 C,4480-794,VILA DO CONDE,-8.745339559327205,41.35748304633708
pt.ine.add.PTCONT.3563176,R BENGUIADOS,337 BC,4480-794,VILA DO CONDE,-8.745339559327205,41.35748304633708
pt.ine.add.PTCONT.3563177,R BENGUIADOS,337 C,4480-794,VILA DO CONDE,-8.745339559327205,41.35748304633708
pt.ine.add.PTCONT.3563178,R BENGUIADOS,337 C,4480-794,VILA DO CONDE,-8.745339559327205,41.35748304633708
pt.ine.add.PTCONT.3563179,R BENGUIADOS,337,4480-794,VILA DO CONDE,-8.745339559327205,41.35748304633708
pt.ine.add.PTCONT.3563180,R BENGUIADOS,337,4480-794,VILA DO CONDE,-8.745339559327205,41.35748304633708
pt.ine.add.PTCONT.3563181,R BENGUIADOS,337 ENTC,4480-794,VILA DO CONDE,-8.745339559327205,41.35748304633708
pt.ine.add.PTCONT.3563182,R BENGUIADOS,337 C,4480-794,VILA DO CONDE,-8.745339559327205,41.35748304633708
pt.ine.add.PTCONT.3563183,R D AFONSO HENRIQUES,100,4480-897,VILA DO CONDE,-8.75053034255551,41.357941531094234
pt.ine.add.PTCONT.3563184,R ESTEVAO SOARES,53,4480-814,VILA DO CONDE,-8.750981206107209,41.35001557982888
pt.ine.add.PTCONT.3563185,R ESTEVAO SOARES,53,4480-814,VILA DO CONDE,-8.750981206107209,41.35001557982888
pt.ine.add.PTCONT.3563186,R ESTEVAO SOARES,93,4480-814,VILA DO CONDE,-8.750981206107209,41.35001557982888
pt.ine.add.PTCONT.3563187,R ESTEVAO SOARES,93,4480-814,VILA DO CONDE,-8.750981206107209,41.35001557982888
pt.ine.add.PTCONT.3563188,R ESTEVAO SOARES,93,4480-814,VILA DO CONDE,-8.750981206107209,41.35001557982888
pt.ine.add.PTCONT.3563189,R ESTEVAO SOARES,93,4480-814,VILA DO CONDE,-8.750981206107209,41.35001557982888
pt.ine.add.PTCONT.3563190,R MONTE GRANDE,59,4485-255,GUILHABREU,-8.622382800073051,41.296879754247904
pt.ine.add.PTCONT.3563191,TV MOINHOS,91,4485-417,MACIEIRA DA MAIA,-8.66785142565563,41.342634359899584
pt.ine.add.PTCONT.3563192,AV DR FERNANDO GOMES,,4480-364,RETORTA,-8.714488375479483,41.34994459873921
pt.ine.add.PTCONT.3563193,AV DR FERNANDO GOMES,,4480-364,RETORTA,-8.714488375479483,41.34994459873921
pt.ine.add.PTCONT.3563194,AV DR FERNANDO GOMES,,4480-364,RETORTA,-8.714488375479483,41.34994459873921
pt.ine.add.PTCONT.3563195,R DR JOÃO CARNEIRO DE MORAIS,21,4480-684,VILA DO CONDE,-8.751442252569548,41.365905175593
pt.ine.add.PTCONT.3563196,AV CIDADE GUIMARAES,211 A,4480-660,VILA DO CONDE,-8.753590310163212,41.36052723080603
pt.ine.add.PTCONT.3563197,R BARROS,435,4480-279,JUNQUEIRA VCD,-8.674301707900549,41.38717406785362
pt.ine.add.PTCONT.3563198,R CUNHA,495,4480-340,PARADA VCD,-8.645539382879385,41.36170737017203
pt.ine.add.PTCONT.3563199,R FAROL,10,4485-878,VILA CHÃ VCD,-8.733259741811073,41.29391497891532
pt.ine.add.PTCONT.3563200,R APARICIO BARROS,270,4480-731,VILA DO CONDE,-8.734305697266972,41.357082012069704
pt.ine.add.PTCONT.3563201,R FR JOÃO DE VILA DO CONDE,,4480-817,VILA DO CONDE,-8.75240236762885,41.35749928004068
pt.ine.add.PTCONT.3563202,R FR JOÃO DE VILA DO CONDE,,4480-817,VILA DO CONDE,-8.75240236762885,41.35749928004068
pt.ine.add.PTCONT.3563203,R FR JOAO DE VILA DO CONDE,68,4480-817,VILA DO CONDE,-8.75240236762885,41.35749928004068
pt.ine.add.PTCONT.3563204,R FR JOÃO DE VILA DO CONDE,,4480-817,VILA DO CONDE,-8.75240236762885,41.35749928004068
pt.ine.add.PTCONT.3563205,R FR JOÃO DE VILA DO CONDE,,4480-817,VILA DO CONDE,-8.75240236762885,41.35749928004068
pt.ine.add.PTCONT.3563206,TV S MARTINHO,71,4485-276,GUILHABREU,-8.651395235889051,41.29988621977417
pt.ine.add.PTCONT.3563207,R MECA,1205,4485-244,GUILHABREU,-8.640803559389232,41.28897539723624
pt.ine.add.PTCONT.3563208,R JOAQUIM CERQUEIRA COSTA,331,4480-309,JUNQUEIRA VCD,-8.694595204172158,41.372409342521664
pt.ine.add.PTCONT.3563209,R D MANUEL I,28,4485-528,MINDELO,-8.736869320249292,41.31248055574671
pt.ine.add.PTCONT.3563210,R D MANUEL I,124,4485-528,MINDELO,-8.73703303642798,41.31339811302853
pt.ine.add.PTCONT.3563211,R PRAIA,548,4485-495,MINDELO,-8.727372837475219,41.310891232488835
pt.ine.add.PTCONT.3563212,TV LONGA,50,4485-595,MODIVAS,-8.690391870565275,41.297209895880684
pt.ine.add.PTCONT.3563213,R JOIA,391,4480-564,TOUGUINHÓ,-8.703449184981151,41.38708731314018
pt.ine.add.PTCONT.3563214,BR RIO AVE,43,4480-681,VILA DO CONDE,-8.72696767153246,41.3596502393602
pt.ine.add.PTCONT.3563215,BR RIO AVE,44,4480-681,VILA DO CONDE,-8.72696767153246,41.3596502393602
pt.ine.add.PTCONT.3563216,R ANTÓNIO FERREIRA VILA COVA,393,4480-728,VILA DO CONDE,-8.757483814927763,41.36401773186842
pt.ine.add.PTCONT.3563217,R BENEMERITO ANTÓNIO AZEVEDO SANTOS,732,4485-072,FAJOZES,-8.69505703848767,41.31770755376108
pt.ine.add.PTCONT.3563218,R SAGRADO CORACAO DE JESUS,714,4480-250,FERREIRÓ,-8.625476747776197,41.354222564781196
pt.ine.add.PTCONT.3563219,R COSTA PADRAO,95,4485-908,MOSTEIRÓ VCD,-8.652624271098256,41.278720965796296
pt.ine.add.PTCONT.3563220,TV MOINHOS,158,4485-682,VAIRÃO,-8.665298679640804,41.332858783716716
pt.ine.add.PTCONT.3563221,TV VIOLETAS,28,4480-393,VILA DO CONDE,-8.755539532626901,41.371942771848744
pt.ine.add.PTCONT.3563222,R ROSAS,219,4480-773,VILA DO CONDE,-8.757268208392894,41.36771954267548
pt.ine.add.PTCONT.3563223,R MIRANTE,365,4485-928,MOSTEIRÓ VCD,-8.6716193788683,41.27641865949641
pt.ine.add.PTCONT.3563224,R OUTEIRO FIGUEIRA,230,4480-451,RIO MAU VCD,-8.675274283781608,41.403502680627575
pt.ine.add.PTCONT.3563225,R VILA AMOR,327,4480-590,TOUGUINHÓ,-8.699736001219701,41.38078486574486
pt.ine.add.PTCONT.3563226,R PRAIA,525,4485-708,VILA CHÃ VCD,-8.733299543293516,41.291744780463105
pt.ine.add.PTCONT.3563227,AV INF D HENRIQUE,310,4480-670,VILA DO CONDE,-8.76142312805814,41.37222593703776
pt.ine.add.PTCONT.3563228,AV INF D HENRIQUE,310,4480-670,VILA DO CONDE,-8.76142312805814,41.37222593703776
pt.ine.add.PTCONT.3563229,AV INF D HENRIQUE,310,4480-670,VILA DO CONDE,-8.76142312805814,41.37222593703776
pt.ine.add.PTCONT.3563230,AV INF D HENRIQUE,310,4480-670,VILA DO CONDE,-8.76142312805814,41.37222593703776
pt.ine.add.PTCONT.3563231,R VIOLETAS,583,4480-775,VILA DO CONDE,-8.756642505773328,41.371036402225926
pt.ine.add.PTCONT.3563232,TV ROSAS,3,4480-852,VILA DO CONDE,-8.756606053429763,41.368470463345346
