id,street,house,postcode,city,lon,lat
pt.ine.add.PTCONT.5427036,R CRUZ DAS ALMAS,29,3650-032,PENDILHE,-7.835047692592272,40.90599274777978
pt.ine.add.PTCONT.5427037,R SEIXINHO,,3650-051,QUEIRIGA,-7.746721186071331,40.80788415908037
pt.ine.add.PTCONT.5427038,R CANSADAS,SUL,3650-051,QUEIRIGA,-7.745594537563911,40.79783089649477
pt.ine.add.PTCONT.5427126,R CANSADAS,,3650-051,QUEIRIGA,-7.746343704470543,40.79737415898357
pt.ine.add.PTCONT.5427127,R SILVEIRA,20,3650-051,QUEIRIGA,-7.753352516676374,40.81090480865889
pt.ine.add.PTCONT.5427128,ESTR NACIONAL,22,3650-051,QUEIRIGA,-7.746853114612119,40.80557033936065
pt.ine.add.PTCONT.5427129,R PORTELA,,3650-051,QUEIRIGA,-7.756382945712929,40.805259660987026
pt.ine.add.PTCONT.5427130,R CELA,32,3650-048,QUEIRIGA,-7.7528225797232775,40.80200621247335
pt.ine.add.PTCONT.5427131,R CELA,,3650-051,QUEIRIGA,-7.753094732013024,40.79999901234193
pt.ine.add.PTCONT.5427233,R S FRANCISCO,13,3650-081,TOURO,-7.749269448969545,40.8962031112446
pt.ine.add.PTCONT.5427234,R ENCOSTA,,3650-081,TOURO,-7.74860313720013,40.89650705388656
pt.ine.add.PTCONT.5427235,R OUTAO,4,3650-075,TOURO,-7.733455452418605,40.89936409679395
pt.ine.add.PTCONT.5427320,R D MANUEL I,56,3650-120,VILA COVA À COELHEIRA VNP,-7.802098467306394,40.87534964701066
pt.ine.add.PTCONT.5427321,R OUTEIRO,1,3650-120,VILA COVA À COELHEIRA VNP,-7.806614390092843,40.88099052164983
pt.ine.add.PTCONT.5427322,R DR AVANTINO LOUREIRO BELEZA,122,3650-120,VILA COVA À COELHEIRA VNP,-7.812831843494115,40.87348893933527
pt.ine.add.PTCONT.5427408,R ANJO DA GUARDA DE PORTUGAL,359,3650-105,VILA COVA À COELHEIRA VNP,-7.8294417313097675,40.86271907012991
pt.ine.add.PTCONT.5427409,AV CARLOS TRINDADE E SA,22,3650-202,VILA NOVA DE PAIVA,-7.734948289501095,40.850275089000085
pt.ine.add.PTCONT.5427410,LG ENG ENGRÁCIA CARRILHO,27,3650-244,VILA NOVA DE PAIVA,-7.730239137387174,40.85047485521611
pt.ine.add.PTCONT.5427411,R REGUINHO,3,3650-228,VILA NOVA DE PAIVA,-7.730926880658534,40.85048625984666
pt.ine.add.PTCONT.5427500,R AUGUSTO MOREIRA,30,3650-211,VILA NOVA DE PAIVA,-7.7301709861091865,40.84997935110444
pt.ine.add.PTCONT.5428431,R CABO,1,3650-010,ALHAIS,-7.7145253642318385,40.86944609189945
pt.ine.add.PTCONT.5428432,TV IGREJA,5,3650-010,ALHAIS,-7.708847164284936,40.86327506171304
pt.ine.add.PTCONT.5428433,R OUTEIRO,32,3650-010,ALHAIS,-7.704041606041835,40.861717463330784
pt.ine.add.PTCONT.5428434,R NOVA DO SUSAO,,3650-010,ALHAIS,-7.717367810461632,40.85688564930146
pt.ine.add.PTCONT.5428518,R PADRE APARICIO,,3650-020,FRÁGUAS VNP,-7.77115333693731,40.84153359687665
pt.ine.add.PTCONT.5428519,BR NSA SRA DA PENHA,29,3650-020,FRÁGUAS VNP,-7.766341116385379,40.84120322800865
pt.ine.add.PTCONT.5428520,R D MARIA II,,3650-020,FRÁGUAS VNP,-7.76964217510499,40.83816102796575
pt.ine.add.PTCONT.5428521,R D MANUEL I,4,3650-020,FRÁGUAS VNP,-7.77074462803641,40.838200515513364
pt.ine.add.PTCONT.5428571,R D JOÃO DE CASTRO,2,3650-120,VILA COVA À COELHEIRA VNP,-7.800525742208632,40.879073112684985
pt.ine.add.PTCONT.5428594,R PORTO FERREIRA,,3650-051,QUEIRIGA,-7.742755959295499,40.80097305031944
pt.ine.add.PTCONT.5428758,R SANTO ANTÓNIO,9,3650-215,VILA NOVA DE PAIVA,-7.7290851015701625,40.84718405258542
pt.ine.add.PTCONT.5428759,TV SANTO ANTÓNIO,12,3650-225,VILA NOVA DE PAIVA,-7.728657721131058,40.84726359855951
pt.ine.add.PTCONT.5428774,AV SANTO ANTÓNIO,40,3650-010,ALHAIS,-7.705838161805697,40.86085066472349
pt.ine.add.PTCONT.5429758,R BARREIRO,,3650-051,QUEIRIGA,-7.745219462563297,40.80730280636801
pt.ine.add.PTCONT.5429759,R LAJA,45,3650-051,QUEIRIGA,-7.745153548994629,40.802340878783475
pt.ine.add.PTCONT.5429760,R SILVEIRA,,3650-051,QUEIRIGA,-7.74927675213464,40.80863109106933
pt.ine.add.PTCONT.5429761,BR COVAL,28,3650-203,VILA NOVA DE PAIVA,-7.733980506323723,40.85147839283264
pt.ine.add.PTCONT.5429778,ESTR PRINCIPAL,,3650-051,QUEIRIGA,-7.746322137610956,40.805172344597175
pt.ine.add.PTCONT.5429779,BR ADOMINGUEIROS,,3650-071,TOURO,-7.766459905422531,40.91426855747998
pt.ine.add.PTCONT.5429780,R CRUZ,9,3650-077,TOURO,-7.709841100422029,40.89903671962889
pt.ine.add.PTCONT.5429781,AV NSA SRA DA PAZ,374,3650-102,VILA COVA À COELHEIRA VNP,-7.799774150106154,40.91300094152881
pt.ine.add.PTCONT.5429782,R S PELAGIO,33,3650-120,VILA COVA À COELHEIRA VNP,-7.79872786843705,40.88270585385756
pt.ine.add.PTCONT.5429794,AV PRAÇA,19,3650-010,ALHAIS,-7.706523077374126,40.863167437274626
pt.ine.add.PTCONT.5429795,R SERRAGEM,,3650-049,QUEIRIGA,-7.727141001285953,40.773183965899655
pt.ine.add.PTCONT.5429796,BR POUPINHO,,3650-081,TOURO,-7.745317780232385,40.89416381856696
pt.ine.add.PTCONT.5429797,R OUTEIRO DO FACHO,6,3650-216,VILA NOVA DE PAIVA,-7.727151374557262,40.85509251470061
pt.ine.add.PTCONT.5429811,AV PADRE MANUEL RAMOS PINTO,121,3650-010,ALHAIS,-7.7096258614352084,40.86206227312436
pt.ine.add.PTCONT.5429812,IMP SOUTO,1,3650-051,QUEIRIGA,-7.751695742821267,40.80426272675237
pt.ine.add.PTCONT.5429813,ESTR NACIONAL,,3650-051,QUEIRIGA,-7.747424879848792,40.807112091414076
pt.ine.add.PTCONT.5429814,BC PARDAL,4,3650-120,VILA COVA À COELHEIRA VNP,-7.800278316847547,40.87873021644764
pt.ine.add.PTCONT.5429815,AV D AFONSO HENRIQUES,185,3650-120,VILA COVA À COELHEIRA VNP,-7.811589822303437,40.87274708920234
pt.ine.add.PTCONT.5429832,R CELA,,3650-051,QUEIRIGA,-7.75191677686252,40.8008415892483
pt.ine.add.PTCONT.5429833,R MO,14,3650-081,TOURO,-7.7566621958534165,40.89627250220376
pt.ine.add.PTCONT.5429834,EN 323,,3650-201,VILA NOVA DE PAIVA,-7.732578769549682,40.84005539065693
pt.ine.add.PTCONT.5429857,R CHOUZAL,5,3650-032,PENDILHE,-7.8400945472377375,40.90808578148694
pt.ine.add.PTCONT.5429858,R DR JOSE MONTEIRO FRIAS,9,3650-199,VILA NOVA DE PAIVA,-7.723430541402901,40.85073903101291
pt.ine.add.PTCONT.5429868,AV PADRE MANUEL RAMOS PINTO,32,3650-010,ALHAIS,-7.716700453032408,40.85739651719953
pt.ine.add.PTCONT.5429869,R CENTRAL,73,3650-081,TOURO,-7.741321852923448,40.89564510539947
pt.ine.add.PTCONT.5429896,BC CAMPO DA RESTAURACAO,,3650-219,VILA NOVA DE PAIVA,-7.730135758162232,40.85187924860962
pt.ine.add.PTCONT.5429907,R NSA SRA DA GRAÇA,143,3650-105,VILA COVA À COELHEIRA VNP,-7.831345522852114,40.86139135083034
pt.ine.add.PTCONT.5429930,R CAMPO,39,3650-020,FRÁGUAS VNP,-7.7671157825390225,40.8404852996006
pt.ine.add.PTCONT.5429943,R CARREIRA DE PEVA,7,3650-010,ALHAIS,-7.713111062350397,40.86987318147162
pt.ine.add.PTCONT.5429944,R JOSE SA PINTO,,3650-197,VILA NOVA DE PAIVA,-7.728050893659257,40.849548698875736
pt.ine.add.PTCONT.5429956,AV NSA SRA GRAFA,16,3650-010,ALHAIS,-7.713237076916866,40.86870301554602
pt.ine.add.PTCONT.5429957,TV BUXEIRO,6,3650-020,FRÁGUAS VNP,-7.769104546908157,40.83890673642915
pt.ine.add.PTCONT.5429958,TV SENHORIO,6,3650-032,PENDILHE,-7.835541732997377,40.90433714645626
pt.ine.add.PTCONT.5429986,LG RESTAURACAO,,3650-020,FRÁGUAS VNP,-7.770013719607793,40.83960297582001
pt.ine.add.PTCONT.5429987,VLA SEIXINHO,6,3650-051,QUEIRIGA,-7.745932424307363,40.809016133105274
pt.ine.add.PTCONT.5430519,R CIMO DO LUGAR,22,3650-051,QUEIRIGA,-7.748054658166597,40.80477291828874
pt.ine.add.PTCONT.5430522,ESTR NOVA,3,3650-032,PENDILHE,-7.835409562710524,40.90734439713999
pt.ine.add.PTCONT.5430573,R ANJO,6,3650-032,PENDILHE,-7.8342832364493455,40.90707134127013
pt.ine.add.PTCONT.5431521,R OUTEIRO,51,3650-020,FRÁGUAS VNP,-7.770055529288822,40.838459489995614
pt.ine.add.PTCONT.5431522,R D MARIA II,13,3650-020,FRÁGUAS VNP,-7.769523709101226,40.838142644943034
pt.ine.add.PTCONT.5431523,ESTR PRINCIPAL,,3650-051,QUEIRIGA,-7.74673857322382,40.8069296971355
pt.ine.add.PTCONT.5431524,BR MORGADOS,,3650-051,QUEIRIGA,-7.7461976181129595,40.80620749175157
pt.ine.add.PTCONT.5431525,R LAJA,43,3650-051,QUEIRIGA,-7.744974644491778,40.80253838524673
pt.ine.add.PTCONT.5431526,R CALVÁRIO,,3650-041,QUEIRIGA,-7.735010416652366,40.776435155272964
pt.ine.add.PTCONT.5431527,R CALVÁRIO,,3650-041,QUEIRIGA,-7.733206384390316,40.77504215480121
pt.ine.add.PTCONT.5431528,AV CIMO DO SOUTO,2,3650-051,QUEIRIGA,-7.748497435454689,40.80813322611535
pt.ine.add.PTCONT.5431529,R CELA,,3650-051,QUEIRIGA,-7.7537588237223165,40.79991114834241
pt.ine.add.PTCONT.5431539,AV PADRE MANUEL RAMOS PINTO,124,3650-010,ALHAIS,-7.701406627574085,40.863832767976575
pt.ine.add.PTCONT.5431540,R CEDRO,19,3650-020,FRÁGUAS VNP,-7.770045343228775,40.838153292610976
pt.ine.add.PTCONT.5431541,R IGREJA,16,3650-020,FRÁGUAS VNP,-7.770721748793049,40.838047360976034
pt.ine.add.PTCONT.5431542,R CADOUCO,1,3650-020,FRÁGUAS VNP,-7.770546257438159,40.83761457614168
pt.ine.add.PTCONT.5431543,R MANGA,,3650-051,QUEIRIGA,-7.7522827249933846,40.80937945390612
pt.ine.add.PTCONT.5431544,R CURTINHAIS,15,3650-051,QUEIRIGA,-7.747596241597595,40.80412303390976
pt.ine.add.PTCONT.5431545,R OUTAO,,3650-075,TOURO,-7.737100328144002,40.90109657917608
pt.ine.add.PTCONT.5431546,R AVANTINO BELEZA,155,3650-120,VILA COVA À COELHEIRA VNP,-7.81360145329845,40.873797237386285
pt.ine.add.PTCONT.5431547,BC PAZ,3,3650-120,VILA COVA À COELHEIRA VNP,-7.802325315850122,40.87982568627404
pt.ine.add.PTCONT.5431554,R EGAS MONIZ,44,3650-219,VILA NOVA DE PAIVA,-7.73398531100263,40.85463010138568
pt.ine.add.PTCONT.5431555,AV CARLOS TRINDADE E SA,44,3650-202,VILA NOVA DE PAIVA,-7.737666361085253,40.84987021586718
pt.ine.add.PTCONT.5431556,AV CARLOS TRINDADE E SA,,3650-202,VILA NOVA DE PAIVA,-7.737666361085253,40.84987021586718
pt.ine.add.PTCONT.5431557,AV CARLOS TRINDADE E SA,44,3650-202,VILA NOVA DE PAIVA,-7.737666361085253,40.84987021586718
pt.ine.add.PTCONT.5431558,AV CARLOS TRINDADE E SA,,3650-202,VILA NOVA DE PAIVA,-7.737666361085253,40.84987021586718
pt.ine.add.PTCONT.5431559,,,3650-223,VILA NOVA DE PAIVA,-7.73258724528108,40.85046502206627
pt.ine.add.PTCONT.5431571,R OUTEIRO DO FACHO,8,3650-216,VILA NOVA DE PAIVA,-7.727258164106193,40.8550838856354
pt.ine.add.PTCONT.5431584,,,3650-081,TOURO,-7.749060815773496,40.8871346070192
pt.ine.add.PTCONT.5431596,R FUNDO DO LUGAR,,3650-048,QUEIRIGA,-7.749253557334307,40.802372601028
pt.ine.add.PTCONT.5431597,R D AFONSO HENRIQUES,1158,3650-120,VILA COVA À COELHEIRA VNP,-7.802137488558326,40.877042662880754
pt.ine.add.PTCONT.5431598,R MONTE CALVÁRIO,137,3650-120,VILA COVA À COELHEIRA VNP,-7.801238792069045,40.87645476816074
pt.ine.add.PTCONT.5431612,R CENTRAL,1,3650-081,TOURO,-7.7487466856986815,40.89630942746221
pt.ine.add.PTCONT.5431613,R CENTRAL,1,3650-081,TOURO,-7.7487466856986815,40.89630942746221
pt.ine.add.PTCONT.5431614,R CENTRAL,,3650-081,TOURO,-7.7487466856986815,40.89630942746221
pt.ine.add.PTCONT.5431632,R ESPERANÇA,12,3650-077,TOURO,-7.710769045878687,40.90054391601002
pt.ine.add.PTCONT.5431633,R BARREIRO,,3650-081,TOURO,-7.739376278468063,40.891541308653515
pt.ine.add.PTCONT.5431634,R JOÃO REIS INÁCIO,131,3650-120,VILA COVA À COELHEIRA VNP,-7.7969714876485305,40.87340779046962
pt.ine.add.PTCONT.5431645,AV AQUILINO RIBEIRO,4,3650-010,ALHAIS,-7.721977116007821,40.85565049841222
pt.ine.add.PTCONT.5431646,R PADRE JOSE SA MARQUES,49,3650-223,VILA NOVA DE PAIVA,-7.731590580881473,40.85055160572024
pt.ine.add.PTCONT.5431668,R CAMPO,71,3650-020,FRÁGUAS VNP,-7.767536494409007,40.841603235935935
pt.ine.add.PTCONT.5431669,LG ENG ENGRÁCIA CARRILHO,2,3650-244,VILA NOVA DE PAIVA,-7.7294898065390205,40.85084143417447
pt.ine.add.PTCONT.5431689,R OUTEIRO,,3650-032,PENDILHE,-7.835373561491837,40.90213954856951
pt.ine.add.PTCONT.5431705,LG CAPELA,12,3650-010,ALHAIS,-7.770230233932666,40.83903635082324
pt.ine.add.PTCONT.5431706,ESTR PRINCIPAL,,3650-051,QUEIRIGA,-7.7476873949694465,40.80885091556632
pt.ine.add.PTCONT.5431720,R OUTAO,,3650-020,FRÁGUAS VNP,-7.77058887532827,40.838497186652056
pt.ine.add.PTCONT.5432132,R AIRES PINTO MENDONÇA COUTINHO,27,3650-120,VILA COVA À COELHEIRA VNP,-7.804462663184433,40.8818578763131
pt.ine.add.PTCONT.5432169,R PADRE JOSE SA MARQUES,,3650-223,VILA NOVA DE PAIVA,-7.73258724528108,40.85046502206627
pt.ine.add.PTCONT.5432176,AV STO ANTONIO,,3650-215,VILA NOVA DE PAIVA,-7.70510654889429,40.85842565613206
pt.ine.add.PTCONT.5432214,R MÁRTIRES DA PÁTRIA,175,3650-120,VILA COVA À COELHEIRA VNP,-7.80319361704812,40.87937793303519
pt.ine.add.PTCONT.5432336,TV GUARITA,10,3650-032,PENDILHE,-7.834857147284829,40.906136331406515
pt.ine.add.PTCONT.5433386,R PRACA,N 2,3650-010,ALHAIS,-7.705280416013921,40.862739608739155
pt.ine.add.PTCONT.5433387,BR MORGADOS,,3650-051,QUEIRIGA,-7.746106421757477,40.805585847153615
pt.ine.add.PTCONT.5433388,R CENTRAL,,3650-077,TOURO,-7.711600799147072,40.90038487331278
pt.ine.add.PTCONT.5433403,R VILAZEDA,,3650-051,QUEIRIGA,-7.745465788585218,40.80163053986425
pt.ine.add.PTCONT.5433404,R ESCOLA,,3650-050,QUEIRIGA,-7.731602544187047,40.77385693657937
pt.ine.add.PTCONT.5433405,R CENTRAL,57,3650-081,TOURO,-7.74529681689985,40.895721573385615
pt.ine.add.PTCONT.5433406,R NOSSA SENHORA DO DESTERRO,8,3650-075,TOURO,-7.735698698229841,40.89931781994534
pt.ine.add.PTCONT.5433407,BR MARTIRES S SEBASTIAO,19,3650-204,VILA NOVA DE PAIVA,-7.725283719116594,40.85408639076096
pt.ine.add.PTCONT.5433408,R CRUZ DA CAMPA,,3650-214,VILA NOVA DE PAIVA,-7.733533520447892,40.85481763878775
pt.ine.add.PTCONT.5433421,BR LAGE GORDA,,3650-076,TOURO,-7.777237737287692,40.90326249240359
pt.ine.add.PTCONT.5433422,AV CARLOS TRINDADE E SA,10,3650-202,VILA NOVA DE PAIVA,-7.733430178632684,40.85030585856291
pt.ine.add.PTCONT.5433438,R CRISTO REI,,3650-032,PENDILHE,-7.840265391866343,40.90971607728487
pt.ine.add.PTCONT.5433439,R POUSADO,2,3650-075,TOURO,-7.73089805887958,40.89837368719969
pt.ine.add.PTCONT.5433440,R MOSTEIRO,63,3650-120,VILA COVA À COELHEIRA VNP,-7.800826389260504,40.87826354684248
pt.ine.add.PTCONT.5433441,CAM FONTE DO SOUTO,308,3650-120,VILA COVA À COELHEIRA VNP,-7.80028016606732,40.87836102481817
pt.ine.add.PTCONT.5433456,R CELA,,3650-051,QUEIRIGA,-7.751864741047841,40.799580728632705
pt.ine.add.PTCONT.5433457,R CELA,31,3650-051,QUEIRIGA,-7.752282318539503,40.801157968410195
pt.ine.add.PTCONT.5433458,R SENHORA DOS REMÉDIOS,2,3650-120,VILA COVA À COELHEIRA VNP,-7.8025361335280525,40.88037558359381
pt.ine.add.PTCONT.5433472,TV CODESSOS,,3650-047,QUEIRIGA,-7.7519211053683,40.80215632146949
pt.ine.add.PTCONT.5433473,R PRINCIPAL,,3650-082,TOURO,-7.725341683073693,40.925818634745944
pt.ine.add.PTCONT.5433474,R ALMOINHA,,3650-081,TOURO,-7.746585799036461,40.89853538789012
pt.ine.add.PTCONT.5433484,R S ANA,,3650-081,TOURO,-7.741244453234873,40.89870646303696
pt.ine.add.PTCONT.5433501,R BOA UNIAO,,3650-077,TOURO,-7.709190612538529,40.90054712966679
pt.ine.add.PTCONT.5433502,,,3650-103,VILA COVA À COELHEIRA VNP,-7.789726051774926,40.934816939632654
pt.ine.add.PTCONT.5433512,R ALEGRIA,61,3650-120,VILA COVA À COELHEIRA VNP,-7.8033708368249615,40.88191779373389
pt.ine.add.PTCONT.5433513,CAM ORCA,25,3650-106,VILA COVA À COELHEIRA VNP,-7.821259122259657,40.8725124968458
pt.ine.add.PTCONT.5433526,LG CRUZEIRO,5,3650-106,VILA COVA À COELHEIRA VNP,-7.8226761167374965,40.871372707350055
pt.ine.add.PTCONT.5433542,R MINAS DO ARRECAIO,40,3650-105,VILA COVA À COELHEIRA VNP,-7.832569287085052,40.86092629429083
pt.ine.add.PTCONT.5433566,,,3650-010,ALHAIS,-7.714444493939133,40.87098561990703
pt.ine.add.PTCONT.5433602,VALE PEGUINHAS,,3650-051,QUEIRIGA,-7.747349147386608,40.80995738840941
pt.ine.add.PTCONT.5433603,R LAJA,,3650-051,QUEIRIGA,-7.744146234654258,40.8064077075745
pt.ine.add.PTCONT.5434130,R CURTINHAS,15,3650-051,QUEIRIGA,-7.752364009961796,40.80552562151595
pt.ine.add.PTCONT.5434152,AV SANTO ANTÓNIO,21,3650-010,ALHAIS,-7.705292931327251,40.860794614955516
pt.ine.add.PTCONT.5434180,R AREAL,9,3650-032,PENDILHE,-7.832704643127164,40.90707624488637
pt.ine.add.PTCONT.5435164,R POÇO,,3650-043,QUEIRIGA,-7.7556397274447555,40.80466290778216
pt.ine.add.PTCONT.5435165,R CELA,52,3650-051,QUEIRIGA,-7.7522831934684655,40.8010048876922
pt.ine.add.PTCONT.5435166,R PINHAL,1,3650-077,TOURO,-7.708127850576055,40.896004819620494
pt.ine.add.PTCONT.5435180,BR ADOMINGUEIROS,,3650-071,TOURO,-7.767927752687832,40.91716373698395
pt.ine.add.PTCONT.5435195,R PAUL,,3650-081,TOURO,-7.753608733672235,40.89067953522355
pt.ine.add.PTCONT.5435211,R EIDO,2,3650-032,PENDILHE,-7.837798020756797,40.909385614142884
pt.ine.add.PTCONT.5435212,R CELA,,3650-051,QUEIRIGA,-7.751858815301456,40.80268740570509
pt.ine.add.PTCONT.5435213,BR AVESSEIRA,,3650-072,TOURO,-7.753352438228253,40.87116530376725
pt.ine.add.PTCONT.5435214,R CENTRAL,,3650-081,TOURO,-7.745591802401056,40.896010717531674
pt.ine.add.PTCONT.5435215,R MOSTEIRO,62,3650-120,VILA COVA À COELHEIRA VNP,-7.800506251481045,40.878226604915646
pt.ine.add.PTCONT.5435223,R PEDRALVA,,3650-010,ALHAIS,-7.7209673577689175,40.85783506791519
pt.ine.add.PTCONT.5435224,R NOGUEIRINHA,270,3650-120,VILA COVA À COELHEIRA VNP,-7.803408104349358,40.87918944547042
pt.ine.add.PTCONT.5435238,R VALEZINHOS,16,3650-010,ALHAIS,-7.71783522580559,40.85800393119349
pt.ine.add.PTCONT.5435239,R LISTAL,,3650-032,PENDILHE,-7.837676276298954,40.90740425466897
pt.ine.add.PTCONT.5435240,R OUTEIRO,8,3650-077,TOURO,-7.710790718986678,40.90086816659274
pt.ine.add.PTCONT.5435255,R PAZ,,3650-032,PENDILHE,-7.835186963978757,40.90669547931143
pt.ine.add.PTCONT.5435278,R BAIRRINHO,60,3650-120,VILA COVA À COELHEIRA VNP,-7.802191180266991,40.88055469045329
pt.ine.add.PTCONT.5435298,R CRUZ DAS ALMAS,6,3650-033,PENDILHE,-7.835690978631904,40.90546312735595
pt.ine.add.PTCONT.5435299,BR COVAL,,3650-203,VILA NOVA DE PAIVA,-7.733944173459957,40.8516043348276
pt.ine.add.PTCONT.5435311,R QUARENTA FIDALGOS,,3650-010,ALHAIS,-7.7110223188157985,40.87002764352233
pt.ine.add.PTCONT.5435742,ESTR NOVA,16,3650-032,PENDILHE,-7.834119897249045,40.90907897988599
pt.ine.add.PTCONT.5435747,R DIREITA,21,3650-120,VILA COVA À COELHEIRA VNP,-7.804026359897313,40.87892106696335
pt.ine.add.PTCONT.5435767,R LAJA,,3650-051,QUEIRIGA,-7.745503926773518,40.80525964801812
pt.ine.add.PTCONT.5435774,AV D AFONSO HENRIQUES,977,3650-120,VILA COVA À COELHEIRA VNP,-7.803685178705534,40.875948506980784
pt.ine.add.PTCONT.5435806,TV ESPERANÇA,3,3650-077,TOURO,-7.710330579491562,40.90044325717283
pt.ine.add.PTCONT.5437077,ESTR PRINCIPAL,,3650-051,QUEIRIGA,-7.746586602055599,40.806568991815844
pt.ine.add.PTCONT.5437078,R FUNDO DO LUGAR,,3650-051,QUEIRIGA,-7.7481544568477,40.80390877971218
pt.ine.add.PTCONT.5437090,R SEPARADORA,,3650-055,QUEIRIGA,-7.736492325087689,40.77623314396799
pt.ine.add.PTCONT.5437091,R CIMO DO LUGAR,7,3650-051,QUEIRIGA,-7.747248722124272,40.804788235768534
pt.ine.add.PTCONT.5437092,R CALDEIRAS,,3650-075,TOURO,-7.733779606466409,40.8987438910306
pt.ine.add.PTCONT.5437108,BR LAGE GORDA,,3650-076,TOURO,-7.780112007257603,40.905090287586546
pt.ine.add.PTCONT.5437109,R AREAL,5,3650-075,TOURO,-7.732359366379214,40.900071669433814
pt.ine.add.PTCONT.5437110,R LUGAR DE CIMA,191,3650-120,VILA COVA À COELHEIRA VNP,-7.808279946250178,40.8800587248926
pt.ine.add.PTCONT.5437118,ESTR NACIONAL,52B,3650-051,QUEIRIGA,-7.747157916136854,40.80000632213224
pt.ine.add.PTCONT.5437132,LG RAMALHAL,69 C,3650-195,VILA NOVA DE PAIVA,-7.728539718795788,40.853017276101546
pt.ine.add.PTCONT.5437148,R ENCOSTA,5,3650-081,TOURO,-7.749139278960726,40.89613964456329
pt.ine.add.PTCONT.5437149,R PRINCIPAL,,3650-081,TOURO,-7.726182264125386,40.93200784300091
pt.ine.add.PTCONT.5437150,R BICA,37,3650-120,VILA COVA À COELHEIRA VNP,-7.800872470081451,40.87616555974133
pt.ine.add.PTCONT.5437151,R LUIS DE CAMÕES,31,3650-120,VILA COVA À COELHEIRA VNP,-7.8088322803551975,40.87870955849711
pt.ine.add.PTCONT.5437152,R ROCHA LIMA,1,3650-224,VILA NOVA DE PAIVA,-7.729638784955334,40.85365146374049
pt.ine.add.PTCONT.5437165,R ESPÍRITO SANTO,,3650-032,PENDILHE,-7.8378423605243235,40.90742268953696
pt.ine.add.PTCONT.5437180,R IGREJA,,3650-032,PENDILHE,-7.837607909040862,40.90676474125785
pt.ine.add.PTCONT.5437191,R PADRE ANTÓNIO FONSECA,258,3650-120,VILA COVA À COELHEIRA VNP,-7.806781328146281,40.88081990285623
pt.ine.add.PTCONT.5437192,R ADRAO,41,3650-120,VILA COVA À COELHEIRA VNP,-7.807088601683111,40.881063901430245
pt.ine.add.PTCONT.5437215,BR PENHA,107,3650-020,FRÁGUAS VNP,-7.763744348242043,40.84334710349363
pt.ine.add.PTCONT.5437743,R AUGUSTO MOREIRA,30,3650-211,VILA NOVA DE PAIVA,-7.730207270651842,40.84986241493967
pt.ine.add.PTCONT.5437777,ALGODRES,,3650-032,PENDILHE,-7.826128735207001,40.92001676745465
pt.ine.add.PTCONT.5437852,R DOMINGOS RODRIGUES,33,3650-120,VILA COVA À COELHEIRA VNP,-7.799856117885988,40.88248399929859
pt.ine.add.PTCONT.5437887,R CRUZ DAS ALMAS,2,3650-032,PENDILHE,-7.836083445964911,40.905284043491406
pt.ine.add.PTCONT.5437899,R SENHORIO,1,3650-032,PENDILHE,-7.835712125063739,40.903392085234564
pt.ine.add.PTCONT.5448856,SIT SEIXINHO,,3650-051,QUEIRIGA,-7.743972870284087,40.80971192345329
pt.ine.add.PTCONT.5439014,R BARREIRO,,3650-051,QUEIRIGA,-7.746783365591036,40.80738009250083
pt.ine.add.PTCONT.5438938,AV RESTAURACAO,64,3650-020,FRÁGUAS VNP,-7.766049560146752,40.84031982460995
pt.ine.add.PTCONT.5438939,R VINHA DA FONTE,,3650-020,FRÁGUAS VNP,-7.772674205503846,40.83876486170942
pt.ine.add.PTCONT.5438940,R CADOUCO,30,3650-020,FRÁGUAS VNP,-7.770299679839031,40.83717256261139
pt.ine.add.PTCONT.5438941,R SOEIRO VIEGAS,50,3650-120,VILA COVA À COELHEIRA VNP,-7.800455010348775,40.87898286067816
pt.ine.add.PTCONT.5438942,R FONTE DE AVELEIRA,112,3650-120,VILA COVA À COELHEIRA VNP,-7.807452241319927,40.88191137995028
pt.ine.add.PTCONT.5438943,R AUGUSTO MOREIRA,,3650-211,VILA NOVA DE PAIVA,-7.7301229863226855,40.84811518161513
pt.ine.add.PTCONT.5439013,ESTR NOVA,,3650-032,PENDILHE,-7.834313411607518,40.90827805767222
pt.ine.add.PTCONT.5439015,,,3650-051,QUEIRIGA,-7.746147913806678,40.80660354105279
pt.ine.add.PTCONT.5439016,R OUTEIRINHO,,3650-081,TOURO,-7.7486063697486784,40.89594876898157
pt.ine.add.PTCONT.5439017,R CENTRAL,12,3650-077,TOURO,-7.715506045105921,40.90026400884877
pt.ine.add.PTCONT.5439018,R VIDEIRA,26,3650-081,TOURO,-7.7463027572646705,40.896193199540406
pt.ine.add.PTCONT.5439019,R CAP LUIS BARBOSA DA COSTA,8,3650-120,VILA COVA À COELHEIRA VNP,-7.810365925425197,40.875607201443074
pt.ine.add.PTCONT.5439020,R VASCO DA GAMA,48,3650-120,VILA COVA À COELHEIRA VNP,-7.79962897251448,40.87337048020614
pt.ine.add.PTCONT.5439021,R ENG ADELINO AMARO DA COSTA,22,3650-224,VILA NOVA DE PAIVA,-7.730083539188809,40.85462554029219
pt.ine.add.PTCONT.5439022,R CÓNEGO MANUEL FONSECA DA GAMA,8,3650-213,VILA NOVA DE PAIVA,-7.731252499604445,40.853513019278786
pt.ine.add.PTCONT.5439099,R PADRE JOSE SA MARQUES,8,3650-223,VILA NOVA DE PAIVA,-7.729855459192518,40.85116688707917
pt.ine.add.PTCONT.5439100,R CAMPO,,3650-217,VILA NOVA DE PAIVA,-7.728300599148707,40.8513865621863
pt.ine.add.PTCONT.5439101,R CAMPO,,3650-217,VILA NOVA DE PAIVA,-7.728300599148707,40.8513865621863
pt.ine.add.PTCONT.5439102,R COVAL,1,3650-203,VILA NOVA DE PAIVA,-7.734766690244743,40.85089579588831
pt.ine.add.PTCONT.5439103,R PADRE JOSE SA MARQUES,54,3650-223,VILA NOVA DE PAIVA,-7.731494352847491,40.85077639168019
pt.ine.add.PTCONT.5439104,R DR JOSÉ MONTEIRO FRIAS,,3650-241,VILA NOVA DE PAIVA,-7.72463716495176,40.8492935310791
pt.ine.add.PTCONT.5439678,R VALE DE CUTES,20,3650-044,,-7.753460731584838,40.80439461635296
pt.ine.add.PTCONT.5439717,TV IGREJA,2,3650-032,PENDILHE,-7.837263353646294,40.90684490077004
pt.ine.add.PTCONT.5440745,ESTRADA MUNICIPAL,21,3650-051,QUEIRIGA,-7.746113767689639,40.80228106887889
pt.ine.add.PTCONT.5440746,R CANSADAS,,3650-051,QUEIRIGA,-7.74597465454999,40.79767008383636
pt.ine.add.PTCONT.5440747,R CALVÁRIO,,3650-041,QUEIRIGA,-7.73405341696852,40.77601762205862
pt.ine.add.PTCONT.5440748,R FUNDO DO LUGAR,60,3650-051,QUEIRIGA,-7.748202638447361,40.803773866753275
pt.ine.add.PTCONT.5440749,R PRINCIPAL,28,3650-077,TOURO,-7.720840737162144,40.899283673943955
pt.ine.add.PTCONT.5440750,BR MÁRTIR S SEBASTIÃO,4,3650-204,VILA NOVA DE PAIVA,-7.72520539900046,40.85332070315316
pt.ine.add.PTCONT.5440751,R AUGUSTO MOREIRA,65,3650-211,VILA NOVA DE PAIVA,-7.7303541522487285,40.849106521366586
pt.ine.add.PTCONT.5440778,EN 574,,3650-049,QUEIRIGA,-7.736858333560275,40.774442415133784
pt.ine.add.PTCONT.5440779,R CARDOSO,,3650-049,QUEIRIGA,-7.739901193468214,40.776686052199935
pt.ine.add.PTCONT.5440780,BR ADOMINGUEIROS,,3650-071,TOURO,-7.767501377806537,40.91267802413151
pt.ine.add.PTCONT.5440781,BR POUPINHO,2,3650-081,TOURO,-7.744924031083273,40.89453168959527
pt.ine.add.PTCONT.5440782,R LUGAR DE CIMA,147,3650-120,VILA COVA À COELHEIRA VNP,-7.808364270259241,40.87979782305303
pt.ine.add.PTCONT.5440783,R PADRE JOSE SA MARQUES,62,3650-223,VILA NOVA DE PAIVA,-7.7318862853518455,40.850678702307654
pt.ine.add.PTCONT.5440806,ESTRADA NACIONAL,10,3650-032,PENDILHE,-7.834732237078621,40.910161136976186
pt.ine.add.PTCONT.5440807,R PADRE JOSE SA MARQUES,45,3650-223,VILA NOVA DE PAIVA,-7.73129541302125,40.85066310872193
pt.ine.add.PTCONT.5440829,BC EIDO,6,3650-032,PENDILHE,-7.839271400538773,40.909029187149564
pt.ine.add.PTCONT.5440830,R CENTRAL,,3650-081,TOURO,-7.747110744068109,40.89601581120218
pt.ine.add.PTCONT.5440831,LG FEIRA,5,3650-120,VILA COVA À COELHEIRA VNP,-7.802510568557378,40.880744707169406
pt.ine.add.PTCONT.5440832,R NOGUEIRINHA,209,3650-120,VILA COVA À COELHEIRA VNP,-7.803647702025958,40.8787218803034
pt.ine.add.PTCONT.5440841,R CARVALHA,,3650-010,ALHAIS,-7.715290021140921,40.85913835277787
pt.ine.add.PTCONT.5440842,R CENTRAL,,3650-082,TOURO,-7.721790474670108,40.92795814992691
pt.ine.add.PTCONT.5440851,R LAMEIRA,,3650-081,TOURO,-7.74822178096668,40.896784929665245
pt.ine.add.PTCONT.5440852,R EGAS MONIZ,84,3650-120,VILA COVA À COELHEIRA VNP,-7.802843033965926,40.88307790259804
pt.ine.add.PTCONT.5440853,R CALVÁRIO,,3650-232,VILA NOVA DE PAIVA,-7.725863603332168,40.8523505067377
pt.ine.add.PTCONT.5440884,R CÓNEGO MANUEL FONSECA DA GAMA,3,3650-213,VILA NOVA DE PAIVA,-7.730249055891214,40.85275311329334
pt.ine.add.PTCONT.5440885,AV AQUILINO RIBEIRO,83,3650-209,VILA NOVA DE PAIVA,-7.72527942476581,40.852852713591254
pt.ine.add.PTCONT.5440894,PC D AFONSO HENRIQUES,24,3650-194,VILA NOVA DE PAIVA,-7.729688290405429,40.851355404147256
pt.ine.add.PTCONT.5440901,R MOITA DA GALINHA,,3650-010,ALHAIS,-7.70994877789794,40.8690962152644
pt.ine.add.PTCONT.5440914,PC D AFONSO HENRIQUES,8,3650-194,VILA NOVA DE PAIVA,-7.729297772143064,40.851218965246076
pt.ine.add.PTCONT.5440925,R MOITA DA GALINHA,,3650-010,ALHAIS,-7.70932488508513,40.8664825307231
pt.ine.add.PTCONT.5440949,TV CRUZ DAS ALMAS,,3650-032,PENDILHE,-7.8359071519125845,40.90489638432835
pt.ine.add.PTCONT.5440950,R JUIZ DE BARRELAS,45,3650-221,VILA NOVA DE PAIVA,-7.728790220338433,40.84887592956785
pt.ine.add.PTCONT.5440973,VLA SEIXINHO,,3650-051,QUEIRIGA,-7.745004723977599,40.809580325326124
pt.ine.add.PTCONT.5441364,R JOÃO REIS INÁCIO,98,3650-120,VILA COVA À COELHEIRA VNP,-7.797395908885114,40.873931305585295
pt.ine.add.PTCONT.5441501,R SANTO ANTÓNIO,1,3650-215,VILA NOVA DE PAIVA,-7.730242495019761,40.847962516733304
pt.ine.add.PTCONT.5441502,AV SANTO ANTÓNIO,10,3650-010,ALHAIS,-7.705450636529805,40.862091893289524
pt.ine.add.PTCONT.5441508,R SANTO ANTÓNIO,5,3650-215,VILA NOVA DE PAIVA,-7.730114946814647,40.84748481461488
pt.ine.add.PTCONT.5441643,AV IGREJA,,3650-051,QUEIRIGA,-7.748590372578959,40.80640459358183
pt.ine.add.PTCONT.5441644,R CORGA,14,3650-051,QUEIRIGA,-7.747188468732783,40.80291501238122
pt.ine.add.PTCONT.5441645,R CELA,,3650-051,QUEIRIGA,-7.751726041578017,40.80311019793308
pt.ine.add.PTCONT.5441646,BR POUPINHO,,3650-081,TOURO,-7.74463965730813,40.894458693934475
pt.ine.add.PTCONT.5441757,R CENTRAL,,3650-082,TOURO,-7.721916326518225,40.92872399952367
pt.ine.add.PTCONT.5441758,R CENTRAL,6,3650-077,TOURO,-7.711294647754603,40.900005554184524
pt.ine.add.PTCONT.5441759,R OUTEIRO,9,3650-075,TOURO,-7.732941793399228,40.89992061086303
pt.ine.add.PTCONT.5441760,R CENTRAL,48,3650-081,TOURO,-7.746457497057245,40.896112675492155
pt.ine.add.PTCONT.5441761,AV NSA SRA DA PAZ,461,3650-102,VILA COVA À COELHEIRA VNP,-7.800233099360344,40.91379468515306
pt.ine.add.PTCONT.5441762,R CASA DA CAMARA,4,3650-120,VILA COVA À COELHEIRA VNP,-7.800668062477445,40.87908252777438
pt.ine.add.PTCONT.5441873,R D MANUEL I,51,3650-120,VILA COVA À COELHEIRA VNP,-7.802477773355001,40.875413768571256
pt.ine.add.PTCONT.5441874,R ALEGRIA,56,3650-120,VILA COVA À COELHEIRA VNP,-7.803252149241802,40.88192645916472
pt.ine.add.PTCONT.5441875,AV D AFONSO HENRIQUES,555,3650-120,VILA COVA À COELHEIRA VNP,-7.807358242480919,40.87446414034098
pt.ine.add.PTCONT.5441876,R JOÃO REIS INÁCIO,426,3650-120,VILA COVA À COELHEIRA VNP,-7.799299541961023,40.87518849903802
pt.ine.add.PTCONT.5441964,TV ROCHA LIMA,31,3650-226,VILA NOVA DE PAIVA,-7.7290589997678385,40.85343331843795
pt.ine.add.PTCONT.5441965,TV COVAL,1,3650-203,VILA NOVA DE PAIVA,-7.735397366191796,40.852518842512325
pt.ine.add.PTCONT.5441966,R MALHADINHAS,26,3650-198,VILA NOVA DE PAIVA,-7.7292430167007105,40.85047137210894
pt.ine.add.PTCONT.5442046,BR NOSSA SENHORA DE FÁTIMA,2,3650-205,VILA NOVA DE PAIVA,-7.733753530527925,40.84780363282567
pt.ine.add.PTCONT.5442047,R PADRE MANUEL BARBOSA DA ROCHA,46,3650-240,VILA NOVA DE PAIVA,-7.730149996680024,40.849529035857365
pt.ine.add.PTCONT.5442048,,,3650-201,VILA NOVA DE PAIVA,-7.7352616545562265,40.84546758433952
pt.ine.add.PTCONT.5442049,TV PONTE VELHA,,3650-215,VILA NOVA DE PAIVA,-7.726910892256323,40.843979697530905
pt.ine.add.PTCONT.5442050,R PORTO CARRO,17,3650-212,VILA NOVA DE PAIVA,-7.730389829150229,40.841254420405235
pt.ine.add.PTCONT.5442911,R CARREIRA DE PEVA,1,3650-010,ALHAIS,-7.713496160832477,40.86900111694125
pt.ine.add.PTCONT.5442912,R BICA,4,3650-010,ALHAIS,-7.713682655098713,40.86952407394436
pt.ine.add.PTCONT.5442913,AV PADRE MANUEL RAMOS PINTO,158,3650-010,ALHAIS,-7.697400824150344,40.865141413583316
pt.ine.add.PTCONT.5442914,R COSTA,2,3650-010,ALHAIS,-7.708030436584343,40.86301091525994
pt.ine.add.PTCONT.5442915,R PINHEIRA,5,3650-010,ALHAIS,-7.708789849234584,40.86110469031146
pt.ine.add.PTCONT.5442916,AV PADRE MANUEL RAMOS PINTO,59,3650-010,ALHAIS,-7.716447899225373,40.857953904331595
pt.ine.add.PTCONT.5442917,R VALEZINHOS,7,3650-010,ALHAIS,-7.718164943174235,40.85838332029742
pt.ine.add.PTCONT.5443004,R VINHA DA FONTE,24,3650-020,FRÁGUAS VNP,-7.772090352050933,40.83929432294101
pt.ine.add.PTCONT.5443005,R CHAFARIZ,,3650-032,PENDILHE,-7.83902934936572,40.91008212714401
pt.ine.add.PTCONT.5443006,BC EIDO,8,3650-032,PENDILHE,-7.8396030206863045,40.909192117310226
pt.ine.add.PTCONT.5443007,R CRISTO REI,1,3650-032,PENDILHE,-7.839654518270895,40.90828276742084
pt.ine.add.PTCONT.5443100,R EIRAS,3,3650-032,PENDILHE,-7.83835464767834,40.90431735568433
pt.ine.add.PTCONT.5443101,TV ALTO DA LAMEIRA,,3650-032,PENDILHE,-7.835453608004615,40.9054625149555
pt.ine.add.PTCONT.5443102,ALTO DA LAMEIRA,,3650-032,PENDILHE,-7.835348325996989,40.90512006204507
pt.ine.add.PTCONT.5443103,R OUTEIRO,17,3650-032,PENDILHE,-7.83661418580573,40.90337639830657
pt.ine.add.PTCONT.5443104,BR MORGADOS,,3650-051,QUEIRIGA,-7.74617485809448,40.80604532706399
pt.ine.add.PTCONT.5443105,R PORTO FERREIRA,4,3650-051,QUEIRIGA,-7.745049153899874,40.801953316380676
pt.ine.add.PTCONT.5443106,ESTR PRINCIPAL,49 A,3650-051,QUEIRIGA,-7.746978601765371,40.79823175293354
pt.ine.add.PTCONT.5443107,ESTR MUNICIPAL,,3650-055,QUEIRIGA,-7.737420592317301,40.77550692921446
pt.ine.add.PTCONT.5443108,QTA LOPES,,3650-051,QUEIRIGA,-7.735848642092405,40.778896395720636
pt.ine.add.PTCONT.5443109,R NAVEGANTES,,3650-051,QUEIRIGA,-7.752445025205615,40.80793920448654
pt.ine.add.PTCONT.5443156,BR COVAL,22,3650-203,VILA NOVA DE PAIVA,-7.734337780924466,40.85122749299708
pt.ine.add.PTCONT.5443332,R SANTO ANTÓNIO,1,3650-010,ALHAIS,-7.705274233836583,40.86185711394772
pt.ine.add.PTCONT.5444566,R CENTRAL,,3650-081,TOURO,-7.747382057533747,40.89629586676683
pt.ine.add.PTCONT.5444480,ESTR PRINCIPAL,23,3650-051,QUEIRIGA,-7.7462575364324655,40.80201140351803
pt.ine.add.PTCONT.5444481,R CALVÁRIO,,3650-041,QUEIRIGA,-7.733536376472722,40.77532245147289
pt.ine.add.PTCONT.5444482,R CELA,46,3650-051,QUEIRIGA,-7.752566765904145,40.801149901945266
pt.ine.add.PTCONT.5444483,R JUIZ DE BARRELAS,5,3650-221,VILA NOVA DE PAIVA,-7.730096487684547,40.848574335924454
pt.ine.add.PTCONT.5444490,BR ADOMINGUEIROS,,3650-071,TOURO,-7.766380099351361,40.913673990613844
pt.ine.add.PTCONT.5444491,R CAP BARBOSA DE BARROS,63,3650-120,VILA COVA À COELHEIRA VNP,-7.798134480388538,40.88509040282389
pt.ine.add.PTCONT.5444492,AV AQUILINO RIBEIRO,46,3650-209,VILA NOVA DE PAIVA,-7.725609821549133,40.85312402618502
pt.ine.add.PTCONT.5444493,AV AQUILINO RIBEIRO,46,3650-209,VILA NOVA DE PAIVA,-7.725609821549133,40.85312402618502
pt.ine.add.PTCONT.5444519,R CURTINHAS,,3650-051,QUEIRIGA,-7.751758907382282,40.80564969195669
pt.ine.add.PTCONT.5444520,R POÇO,8,3650-051,QUEIRIGA,-7.755036836012045,40.804399791425865
pt.ine.add.PTCONT.5444521,R FELICIDADE,2,3650-075,TOURO,-7.733290557116556,40.899156415737934
pt.ine.add.PTCONT.5444522,R D JOÃO DE CASTRO,22,3650-120,VILA COVA À COELHEIRA VNP,-7.800500707513498,40.879334179784024
pt.ine.add.PTCONT.5444523,R LISBOA,13,3650-228,VILA NOVA DE PAIVA,-7.730391608825318,40.85075453755611
pt.ine.add.PTCONT.5444536,R CRISTO REI,,3650-032,PENDILHE,-7.839464253127109,40.911046744538524
pt.ine.add.PTCONT.5444537,R NAVEGANTES,,3650-043,QUEIRIGA,-7.752981526073379,40.805302534767364
pt.ine.add.PTCONT.5444538,R DR AVANTINO LOUREIRO BELEZA,420,3650-120,VILA COVA À COELHEIRA VNP,-7.810771544368834,40.87514008554968
pt.ine.add.PTCONT.5444539,R REGUINHO,,3650-228,VILA NOVA DE PAIVA,-7.730949944496846,40.85059439830409
pt.ine.add.PTCONT.5444551,R MARINHAL,1,3650-010,ALHAIS,-7.702943469042676,40.860956968852
pt.ine.add.PTCONT.5444552,TV CERDEIRINHAS,1,3650-044,,-7.754830266175011,40.80529960563812
pt.ine.add.PTCONT.5444553,BR SEIXAL,,3650-081,TOURO,-7.750718795109829,40.89799086982482
pt.ine.add.PTCONT.5444554,EN 323,,3650-201,VILA NOVA DE PAIVA,-7.732600260766547,40.84042466427722
pt.ine.add.PTCONT.5444577,AV PADRE MANUEL RAMOS PINTO,51,3650-010,ALHAIS,-7.716995201151438,40.857676730371935
pt.ine.add.PTCONT.5444578,ESTR NOVA,,3650-032,PENDILHE,-7.834374539866784,40.90788200649569
pt.ine.add.PTCONT.5444579,R OUTEIRINHO,,3650-081,TOURO,-7.748404426796102,40.89598411462914
pt.ine.add.PTCONT.5444606,R EGAS MONIZ,103,3650-219,VILA NOVA DE PAIVA,-7.732339764852712,40.85217508148847
pt.ine.add.PTCONT.5444621,R CAP SALGUEIRO MAIA,,3650-202,VILA NOVA DE PAIVA,-7.733546275933599,40.8507204832922
pt.ine.add.PTCONT.5444631,R S BARBARA,,3650-020,FRÁGUAS VNP,-7.772611020002295,40.839485053217764
pt.ine.add.PTCONT.5445069,R LUGAR DE CIMA,218,3650-120,VILA COVA À COELHEIRA VNP,-7.80890012360615,40.879394114346454
pt.ine.add.PTCONT.5445186,LG RAMALHAL,,3650-195,VILA NOVA DE PAIVA,-7.7284099269638515,40.852908762831674
pt.ine.add.PTCONT.5446287,R VILAZEDA,79,3650-051,QUEIRIGA,-7.746351305876305,40.80014770002821
pt.ine.add.PTCONT.5446288,ESTR PRINCIPAL,49,3650-051,QUEIRIGA,-7.747001465571215,40.798375908185655
pt.ine.add.PTCONT.5446289,R CANSADAS,,3650-051,QUEIRIGA,-7.745854307977234,40.79594973959039
pt.ine.add.PTCONT.5446290,R CURTINHAIS,,3650-051,QUEIRIGA,-7.747750087827736,40.80415956747451
pt.ine.add.PTCONT.5446291,R POMBAL,81,3650-120,VILA COVA À COELHEIRA VNP,-7.8024899768593485,40.88011431204898
pt.ine.add.PTCONT.5446301,R GARCIA,,3650-020,FRÁGUAS VNP,-7.770502266748331,40.836984097385155
pt.ine.add.PTCONT.5446302,R CANHURDO,,3650-032,PENDILHE,-7.832702534232632,40.91016487246879
pt.ine.add.PTCONT.5446303,R CORGA,,3650-051,QUEIRIGA,-7.747661328107405,40.803114701062704
pt.ine.add.PTCONT.5446314,AV S PEDRO,,3650-049,QUEIRIGA,-7.729186872963586,40.771777366286734
pt.ine.add.PTCONT.5446315,R MO,,3650-081,TOURO,-7.753005111708275,40.8966297029221
pt.ine.add.PTCONT.5446316,R OUTEIRO DO FACHO,32,3650-216,VILA NOVA DE PAIVA,-7.729204199508652,40.85491061930598
pt.ine.add.PTCONT.5446340,R CELA,36,3650-051,QUEIRIGA,-7.752683104868627,40.80152849211124
pt.ine.add.PTCONT.5446341,R EGAS MONIZ,87,3650-219,VILA NOVA DE PAIVA,-7.7327615355592005,40.8530320053078
pt.ine.add.PTCONT.5446342,R EGAS MONIZ,85,3650-219,VILA NOVA DE PAIVA,-7.7327615355592005,40.8530320053078
pt.ine.add.PTCONT.5446343,R EGAS MONIZ,85,3650-219,VILA NOVA DE PAIVA,-7.7327615355592005,40.8530320053078
pt.ine.add.PTCONT.5446352,R OUTEIRO,,3650-077,TOURO,-7.711160444144634,40.900581367689995
pt.ine.add.PTCONT.5446359,R COVAL,8,3650-203,VILA NOVA DE PAIVA,-7.735133397978029,40.853031207712384
pt.ine.add.PTCONT.5446360,R COVAL,8,3650-203,VILA NOVA DE PAIVA,-7.735133397978029,40.853031207712384
pt.ine.add.PTCONT.5446361,R COVAL,8,3650-203,VILA NOVA DE PAIVA,-7.735133397978029,40.853031207712384
pt.ine.add.PTCONT.5446387,R MALHADINHAS,11,3650-198,VILA NOVA DE PAIVA,-7.72965812158443,40.850463819802506
pt.ine.add.PTCONT.5446401,R MALHADINHAS,13,3650-198,VILA NOVA DE PAIVA,-7.727730936047489,40.849511555608075
pt.ine.add.PTCONT.5446434,TV CONDE ALEIXO,,3650-020,FRÁGUAS VNP,-7.76975769101824,40.838719693315895
pt.ine.add.PTCONT.5446435,R VALE,,3650-051,QUEIRIGA,-7.744504488663535,40.80594065945188
pt.ine.add.PTCONT.5446868,R EGAS MONIZ,2 ESQ,3650-219,VILA NOVA DE PAIVA,-7.7327615355592005,40.8530320053078
pt.ine.add.PTCONT.5447027,R CURTINHAS,,3650-051,QUEIRIGA,-7.751897765669779,40.80623546998001
pt.ine.add.PTCONT.5447178,R NOGUEIRINHA,170,3650-120,VILA COVA À COELHEIRA VNP,-7.803079451143807,40.878477126045595
pt.ine.add.PTCONT.5447179,BC 1 DE MAIO,45,3650-120,VILA COVA À COELHEIRA VNP,-7.802934178752452,40.87906202254811
pt.ine.add.PTCONT.5447180,R JOÃO REIS INÁCIO,448,3650-120,VILA COVA À COELHEIRA VNP,-7.799606038962045,40.87557659242423
pt.ine.add.PTCONT.5447181,BR MÁRTIR S SEBASTIÃO,8,3650-204,VILA NOVA DE PAIVA,-7.725026407762295,40.853500166735316
pt.ine.add.PTCONT.5447182,BR MÁRTIR S SEBASTIÃO,8,3650-204,VILA NOVA DE PAIVA,-7.725026407762295,40.853500166735316
pt.ine.add.PTCONT.5447364,CASA DA CORGA,,3650-201,VILA NOVA DE PAIVA,-7.736200653558238,40.8470826861253
pt.ine.add.PTCONT.5448260,R BICA,7,3650-010,ALHAIS,-7.713632422772177,40.8699651267094
pt.ine.add.PTCONT.5448261,R PEDRALVA,,3650-010,ALHAIS,-7.720416202466923,40.856824556972995
pt.ine.add.PTCONT.5448262,AV AQUILINO RIBEIRO,70,3650-010,ALHAIS,-7.72249407953608,40.85451773128734
pt.ine.add.PTCONT.5448344,R CAMPO,41,3650-020,FRÁGUAS VNP,-7.768845305593677,40.8407789290542
pt.ine.add.PTCONT.5448345,R CADOUCO,24,3650-020,FRÁGUAS VNP,-7.770643413449067,40.83719165282323
pt.ine.add.PTCONT.5448346,ESTR NACIONAL,,3650-032,PENDILHE,-7.836426659283735,40.91081385109322
pt.ine.add.PTCONT.5448347,R POMBAL,,3650-032,PENDILHE,-7.840946103508188,40.908772303881165
pt.ine.add.PTCONT.5448348,ESTR NOVA,,3650-032,PENDILHE,-7.835052202871868,40.90763162653135
pt.ine.add.PTCONT.5448349,R EIRAS,9,3650-032,PENDILHE,-7.838659709671127,40.90511055453659
pt.ine.add.PTCONT.5448350,R CARREIRO NOVO,2,3650-032,PENDILHE,-7.837058028346896,40.904980387327505
pt.ine.add.PTCONT.5448465,R VALE,,3650-051,QUEIRIGA,-7.744367405441025,40.80709282594108
pt.ine.add.PTCONT.5448466,R LAJA,,3650-051,QUEIRIGA,-7.74577669885486,40.8052245443672
pt.ine.add.PTCONT.5448467,R LAJA,,3650-051,QUEIRIGA,-7.744232109349258,40.803877617211356
pt.ine.add.PTCONT.5448468,R REGADA CIMEIRA,,3650-049,QUEIRIGA,-7.7356955724376455,40.77675269019986
pt.ine.add.PTCONT.5448469,R TAPADO,,3650-048,QUEIRIGA,-7.7492280932705855,40.80267868343199
pt.ine.add.PTCONT.5448470,TV POMBAL,20,3650-051,QUEIRIGA,-7.7520909767486135,40.80353463455596
pt.ine.add.PTCONT.5448588,BR ADOMINGUEIROS,,3650-071,TOURO,-7.766256571978142,40.91454705787416
pt.ine.add.PTCONT.5448589,POUPINHO,,3650-081,TOURO,-7.745900703870391,40.89391364347791
pt.ine.add.PTCONT.5448590,R CENTRAL,63,3650-077,TOURO,-7.709001921253042,40.89850235596674
pt.ine.add.PTCONT.5448693,R POÇOS,,3650-081,TOURO,-7.745124212442367,40.896828579381626
pt.ine.add.PTCONT.5448694,R S ANA,,3650-081,TOURO,-7.7433281917989705,40.897524895235456
pt.ine.add.PTCONT.5448695,R ROMA,2,3650-120,VILA COVA À COELHEIRA VNP,-7.806626835212881,40.88328678068955
pt.ine.add.PTCONT.5448696,R SENHORA DOS REMEDIOS,20,3650-120,VILA COVA À COELHEIRA VNP,-7.8024875573158035,40.880600564394555
pt.ine.add.PTCONT.5448697,TV FONTINHA,5,3650-120,VILA COVA À COELHEIRA VNP,-7.807784481503894,40.87948102108248
pt.ine.add.PTCONT.5448769,AV D AFONSO HENRIQUES,781,3650-120,VILA COVA À COELHEIRA VNP,-7.805339718402418,40.874827619303936
pt.ine.add.PTCONT.5448785,R PEDRALVA,16,3650-209,VILA NOVA DE PAIVA,-7.723544898249238,40.855277872640386
pt.ine.add.PTCONT.5448801,R IGREJA,41,3650-020,FRÁGUAS VNP,-7.770670546594904,40.83874057454476
pt.ine.add.PTCONT.5448831,LG CARVALHAS,,3650-075,TOURO,-7.732567087939716,40.89908186729561
pt.ine.add.PTCONT.5449967,AV RESTAURACAO,129,3650-020,FRÁGUAS VNP,-7.763020498522799,40.843443837001224
pt.ine.add.PTCONT.5449968,R PADRE SILVIO AMARAL,7,3650-020,FRÁGUAS VNP,-7.7656037456241505,40.8416060999433
pt.ine.add.PTCONT.5449969,R IGREJA,19,3650-020,FRÁGUAS VNP,-7.771016395394184,40.83837246121332
pt.ine.add.PTCONT.5449970,LG OUTEIRO,,3650-049,QUEIRIGA,-7.72641385477621,40.77393782198307
pt.ine.add.PTCONT.5449971,R EIRA VELHA,19,3650-051,QUEIRIGA,-7.747411448652535,40.805338079404834
pt.ine.add.PTCONT.5449972,ESTR NACIONAL,,3650-051,QUEIRIGA,-7.746620497998697,40.80276903270477
pt.ine.add.PTCONT.5449973,R VASCO DA GAMA,7,3650-120,VILA COVA À COELHEIRA VNP,-7.7988939796984305,40.87326929995961
pt.ine.add.PTCONT.5449974,R MINAS DO ARRECAIO,116,3650-105,VILA COVA À COELHEIRA VNP,-7.83319676029528,40.86118006279766
pt.ine.add.PTCONT.5449975,R OUTEIRO,102,3650-218,VILA NOVA DE PAIVA,-7.7257173757782045,40.84524517214657
pt.ine.add.PTCONT.5450052,R CARREIRA DE PEVA,20,3650-010,ALHAIS,-7.712532159653699,40.86950187513482
pt.ine.add.PTCONT.5450053,R COSTA,1,3650-010,ALHAIS,-7.70788902865009,40.86286631703942
pt.ine.add.PTCONT.5450054,R CHOUZAL,8,3650-032,PENDILHE,-7.839975022120668,40.90827457775783
pt.ine.add.PTCONT.5450055,R CHOUZAL,12,3650-032,PENDILHE,-7.840165204919758,40.908212027667794
pt.ine.add.PTCONT.5450056,R CRUZ DAS ALMAS,,3650-032,PENDILHE,-7.836618332807158,40.90510532451219
pt.ine.add.PTCONT.5450057,R PRESA,,3650-032,PENDILHE,-7.8369619158600745,40.905241278809534
pt.ine.add.PTCONT.5450058,R CARREIRO NOVO,13,3650-032,PENDILHE,-7.835747164901259,40.903518242360484
pt.ine.add.PTCONT.5450059,TV PRESA,,3650-032,PENDILHE,-7.836668621314158,40.90447512005336
pt.ine.add.PTCONT.5450060,R CENTRAL,56,3650-081,TOURO,-7.746386820943166,40.89602239083807
pt.ine.add.PTCONT.5450061,R SENHOR DA POBREZA,87,3650-102,VILA COVA À COELHEIRA VNP,-7.797379638469449,40.91705513620896
pt.ine.add.PTCONT.5450062,EN 225,1401,3650-120,VILA COVA À COELHEIRA VNP,-7.793436685142984,40.87798088228348
pt.ine.add.PTCONT.5450063,R PADRE ANTÓNIO FONSECA,292,3650-120,VILA COVA À COELHEIRA VNP,-7.807053451151842,40.880973754058395
pt.ine.add.PTCONT.5450064,R COVAL,5,3650-203,VILA NOVA DE PAIVA,-7.733811726620107,40.85193705538585
pt.ine.add.PTCONT.5450814,CADARRINHO,,3650-010,ALHAIS,-7.709621707021496,40.86643859680491
pt.ine.add.PTCONT.5450908,R SANTO ANTÓNIO,7,3650-215,VILA NOVA DE PAIVA,-7.72979352386,40.84769080267926
pt.ine.add.PTCONT.5450938,TV FONTAÍNHAS,10,3650-106,VILA COVA À COELHEIRA VNP,-7.8229370481305445,40.87138241411936
pt.ine.add.PTCONT.5451949,R CEDRO,8,3650-020,FRÁGUAS VNP,-7.770093309346538,40.83805439006212
pt.ine.add.PTCONT.5451950,R CARDOSO,,3650-049,QUEIRIGA,-7.73906234710124,40.77631398780137
pt.ine.add.PTCONT.5451951,R NSA SRA DA ALEGRIA,205,3650-101,VILA COVA À COELHEIRA VNP,-7.792315389084645,40.84909009164836
pt.ine.add.PTCONT.5451968,BC OUTEIRO,27,3650-020,FRÁGUAS VNP,-7.770222404129285,40.83829792750458
pt.ine.add.PTCONT.5451969,R STO ANTÓNIO,,3650-081,TOURO,-7.745880804450403,40.89529130665842
pt.ine.add.PTCONT.5451979,AV PADRE MANUEL RAMOS PINTO,127,3650-010,ALHAIS,-7.706121891805058,40.862841779616836
pt.ine.add.PTCONT.5451980,R CIMO DO SOUTO,,3650-051,QUEIRIGA,-7.750364572062584,40.807004816507266
pt.ine.add.PTCONT.5451981,AV CARLOS TRINDADE E SA,56,3650-202,VILA NOVA DE PAIVA,-7.738958669145178,40.84991966280437
pt.ine.add.PTCONT.5451987,R ENG ADELINO AMARO DA COSTA,18,3650-224,VILA NOVA DE PAIVA,-7.730035556148825,40.85471542094956
pt.ine.add.PTCONT.5451996,R ALMOINHA,10,3650-081,TOURO,-7.7479967281680455,40.89671214024797
pt.ine.add.PTCONT.5451997,LG FEIRA,2,3650-120,VILA COVA À COELHEIRA VNP,-7.802665249395214,40.880655102412675
pt.ine.add.PTCONT.5451998,R REGUINHO,5,3650-228,VILA NOVA DE PAIVA,-7.731057760515604,40.85041467736957
pt.ine.add.PTCONT.5452013,R SEARA,,3650-010,ALHAIS,-7.703631314631065,40.86096853671454
pt.ine.add.PTCONT.5452014,R SENHOR DOS PASSOS,64,3650-120,VILA COVA À COELHEIRA VNP,-7.80170874403842,40.8773746096561
pt.ine.add.PTCONT.5452026,R JOÃO PAULO II,21,3650-077,TOURO,-7.712351414975671,40.90179235613175
pt.ine.add.PTCONT.5452027,R JOÃO PAULO II,5,3650-077,TOURO,-7.7121080168967815,40.9008729828366
pt.ine.add.PTCONT.5452035,R IGREJA,,3650-032,PENDILHE,-7.837725875475678,40.90692712922413
pt.ine.add.PTCONT.5452036,R VASCO DA GAMA,2,3650-120,VILA COVA À COELHEIRA VNP,-7.799070879835914,40.8734769230702
pt.ine.add.PTCONT.5452070,R NSA SRA DA SAÚDE,63,3650-106,VILA COVA À COELHEIRA VNP,-7.822461456707688,40.87161525951775
pt.ine.add.PTCONT.5452071,R NOSSO SENHOR DA AFLICAO,5,3650-106,VILA COVA À COELHEIRA VNP,-7.82258588697988,40.87037292958255
pt.ine.add.PTCONT.5452082,LG ENG ENGRÁCIA CARRILHO,4,3650-244,VILA NOVA DE PAIVA,-7.729668723958612,40.85067096813969
pt.ine.add.PTCONT.5452096,R PADRE SILVIO AMARAL,5,3650-020,FRÁGUAS VNP,-7.76541308734348,40.84177658469354
pt.ine.add.PTCONT.5452097,PC MUNICIPIO,,3650-193,VILA NOVA DE PAIVA,-7.729049340927545,40.85111904213969
pt.ine.add.PTCONT.5452098,PC MUNICIPIO,,3650-193,VILA NOVA DE PAIVA,-7.729049340927545,40.85111904213969
pt.ine.add.PTCONT.5452099,PC MUNICIPIO,,3650-193,VILA NOVA DE PAIVA,-7.729049340927545,40.85111904213969
pt.ine.add.PTCONT.5452100,PC MUNICIPIO,,3650-193,VILA NOVA DE PAIVA,-7.729049340927545,40.85111904213969
pt.ine.add.PTCONT.5452101,PC MUNICIPIO,,3650-193,VILA NOVA DE PAIVA,-7.729049340927545,40.85111904213969
pt.ine.add.PTCONT.5452102,PC MUNICIPIO,,3650-193,VILA NOVA DE PAIVA,-7.729049340927545,40.85111904213969
pt.ine.add.PTCONT.5452119,TV BUXEIRO,1,3650-020,FRÁGUAS VNP,-7.769139427070583,40.83903291453968
pt.ine.add.PTCONT.5452120,BR RIBEIRINHO,,3650-032,PENDILHE,-7.832743211290653,40.90379861047119
pt.ine.add.PTCONT.5452562,AV CAP CORREIA DE CAMPOS,,3650-212,VILA NOVA DE PAIVA,-7.733966032377887,40.84598538985438
pt.ine.add.PTCONT.5452568,R CANSADAS,,3650-051,QUEIRIGA,-7.746063404270803,40.79667083509813
pt.ine.add.PTCONT.5452580,PC MUNICIPIO,,3650-193,VILA NOVA DE PAIVA,-7.729049340927545,40.85111904213969
pt.ine.add.PTCONT.5452604,R ARNALDO MONTEIRO FRIAS,50,3650-210,VILA NOVA DE PAIVA,-7.729992196934482,40.852085858229
pt.ine.add.PTCONT.5452654,R VIDEIRA,,3650-081,TOURO,-7.746183932229013,40.89621981526314
pt.ine.add.PTCONT.5452736,R PRESA,8,3650-032,PENDILHE,-7.837368693894003,40.904512936478014
pt.ine.add.PTCONT.5453715,R BARREIRO,,3650-051,QUEIRIGA,-7.745409234403676,40.807276429458376
pt.ine.add.PTCONT.5453716,R VINHA VELHA,,3650-051,QUEIRIGA,-7.744041118504744,40.80208499553207
pt.ine.add.PTCONT.5453717,R CARDOSO,,3650-049,QUEIRIGA,-7.738769832911796,40.77570065167884
pt.ine.add.PTCONT.5453718,R CELA,56,3650-051,QUEIRIGA,-7.752143673042682,40.800536171370474
pt.ine.add.PTCONT.5453719,R CENTRAL,54,3650-077,TOURO,-7.7086670414144685,40.89705135761875
pt.ine.add.PTCONT.5453720,AV NSA SRA DA PAZ,910,3650-102,VILA COVA À COELHEIRA VNP,-7.798611135705867,40.917662032655464
pt.ine.add.PTCONT.5453721,R OUTEIRO,19,3650-240,VILA NOVA DE PAIVA,-7.729252256436182,40.84894958674503
pt.ine.add.PTCONT.5453730,R MANGA,2,3650-051,QUEIRIGA,-7.7516017966630955,40.80825159121073
pt.ine.add.PTCONT.5453731,R CIMO DO SOUTO,4,3650-051,QUEIRIGA,-7.750563916720381,40.80737467883011
pt.ine.add.PTCONT.5453745,R EGAS MONIZ,,3650-219,VILA NOVA DE PAIVA,-7.734126650532921,40.854792677294235
pt.ine.add.PTCONT.5453761,R LAIGINHA,14,3650-010,ALHAIS,-7.704597949082305,40.86189062289687
pt.ine.add.PTCONT.5453762,AV S MARIA,90,3650-120,VILA COVA À COELHEIRA VNP,-7.80185596667702,40.87877978213476
pt.ine.add.PTCONT.5453763,R VALADO,17,3650-218,VILA NOVA DE PAIVA,-7.7283672975507205,40.846272047239594
pt.ine.add.PTCONT.5453764,R VALADO,5,3650-218,VILA NOVA DE PAIVA,-7.728271612943656,40.846406784144094
pt.ine.add.PTCONT.5453772,R OUTEIRO,12,3650-010,ALHAIS,-7.705339214215815,40.86097488294299
pt.ine.add.PTCONT.5453773,R CELA,27,3650-051,QUEIRIGA,-7.752351873801914,40.80142834548248
pt.ine.add.PTCONT.5453774,AV CALVÁRIO,27,3650-081,TOURO,-7.750248816121454,40.88893951311431
pt.ine.add.PTCONT.5453775,R CENTRAL,,3650-081,TOURO,-7.747644328948151,40.8960896339492
pt.ine.add.PTCONT.5453776,R SENHOR DOS PASSOS,1,3650-120,VILA COVA À COELHEIRA VNP,-7.801104381692168,40.87723779954386
pt.ine.add.PTCONT.5453777,R PRAÇA,15,3650-120,VILA COVA À COELHEIRA VNP,-7.803703538734583,40.87942441446681
pt.ine.add.PTCONT.5453778,AV CARLOS TRINDADE E SÁ,E 5,3650-202,VILA NOVA DE PAIVA,-7.737278407047622,40.84930158040387
pt.ine.add.PTCONT.5453799,R PEDRALVA,6,3650-010,ALHAIS,-7.720599757379067,40.85782474911956
pt.ine.add.PTCONT.5453800,R URGUEIRA,,3650-032,PENDILHE,-7.83962807293619,40.90889502394303
pt.ine.add.PTCONT.5453819,R PAZ,,3650-032,PENDILHE,-7.834926053693381,40.90664978118694
pt.ine.add.PTCONT.5453826,AV PADRE MANUEL RAMOS PINTO,,3650-010,ALHAIS,-7.714131362359266,40.85855784158066
pt.ine.add.PTCONT.5453827,R CENTRAL,,3650-081,TOURO,-7.739695534087266,40.89573862172043
pt.ine.add.PTCONT.5453828,R CENTRAL,,3650-077,TOURO,-7.709197248383267,40.901366586796314
pt.ine.add.PTCONT.5453891,R CARREIRO NOVO,5,3650-032,PENDILHE,-7.836631327274685,40.90485322443378
pt.ine.add.PTCONT.5453858,R CRUZ DAS ALMAS,,3650-032,PENDILHE,-7.835309004333361,40.9059483990131
pt.ine.add.PTCONT.5453859,R PADRE JOSE SA MARQUES,,3650-223,VILA NOVA DE PAIVA,-7.7304140176736045,40.85097073187023
pt.ine.add.PTCONT.5453870,R FEITAL,,3650-020,FRÁGUAS VNP,-7.769808665036927,40.84024167531692
pt.ine.add.PTCONT.5453892,R CARREIRO NOVO,12,3650-032,PENDILHE,-7.836786058904633,40.90475456966162
pt.ine.add.PTCONT.5453930,R SEIXINHO,,3650-051,QUEIRIGA,-7.745603785559723,40.808465730647754
pt.ine.add.PTCONT.5454310,R ALDEIA,6,3650-010,ALHAIS,-7.713996119040045,40.86872378563132
pt.ine.add.PTCONT.5455516,R PORTELA,,3650-051,QUEIRIGA,-7.756524847097365,40.80531415367676
pt.ine.add.PTCONT.5455530,AV PRAÇA,12,3650-010,ALHAIS,-7.705823926294818,40.86306579661641
pt.ine.add.PTCONT.5455531,R IGREJA,13,3650-020,FRÁGUAS VNP,-7.77093403716545,40.83825513947328
pt.ine.add.PTCONT.5455532,PC PELOURINHO,5,3650-020,FRÁGUAS VNP,-7.7704848657136925,40.838001592315905
pt.ine.add.PTCONT.5455533,R VINHA VELHA,,3650-051,QUEIRIGA,-7.743328644522254,40.802334728564595
pt.ine.add.PTCONT.5455534,BC PAZ,17,3650-120,VILA COVA À COELHEIRA VNP,-7.802633195378624,40.879943631248516
pt.ine.add.PTCONT.5455545,QTA ESCALEIRA,,3650-031,PENDILHE,-7.813941047553001,40.92409884487337
pt.ine.add.PTCONT.5455546,ESTR MUNICIPAL,,3650-049,QUEIRIGA,-7.739655996248929,40.7780899891256
pt.ine.add.PTCONT.5455547,BR LAGE GORDA,,3650-076,TOURO,-7.778022041264311,40.903075809874075
pt.ine.add.PTCONT.5455548,BR TAPADINHOS,,3650-075,TOURO,-7.729282431595546,40.89864718907129
pt.ine.add.PTCONT.5455549,AV CAP CORREIA DE CAMPOS,107,3650-212,VILA NOVA DE PAIVA,-7.730538173568884,40.84417250944793
pt.ine.add.PTCONT.5455562,R PRADOS,,3650-051,QUEIRIGA,-7.748865206332982,40.80190305281869
pt.ine.add.PTCONT.5455563,R NSA SRA DA CONCEIÇÃO,36,3650-120,VILA COVA À COELHEIRA VNP,-7.800765674961806,40.87854252085262
pt.ine.add.PTCONT.5455564,R PEDRALVA,19,3650-209,VILA NOVA DE PAIVA,-7.72288365871227,40.854807271915604
pt.ine.add.PTCONT.5455565,TV PEDRALVA,19,3650-209,VILA NOVA DE PAIVA,-7.72288365871227,40.854807271915604
pt.ine.add.PTCONT.5455585,R BARROCA,117,3650-048,QUEIRIGA,-7.749998038932963,40.80273527191925
pt.ine.add.PTCONT.5455602,R AUGUSTO HILARIO COSTA ALVES,77,3650-120,VILA COVA À COELHEIRA VNP,-7.801504278212467,40.87555505090452
pt.ine.add.PTCONT.5455620,R EMIGRANTES,549,3650-120,VILA COVA À COELHEIRA VNP,-7.806287186337656,40.88479862454341
pt.ine.add.PTCONT.5455621,R ROMA,110,3650-120,VILA COVA À COELHEIRA VNP,-7.8055796930328105,40.88390514286169
pt.ine.add.PTCONT.5455622,R JOÃO REIS INÁCIO,257,3650-120,VILA COVA À COELHEIRA VNP,-7.7986895945372074,40.873808996267236
pt.ine.add.PTCONT.5455623,R COMENDA DE MALTA,43,3650-120,VILA COVA À COELHEIRA VNP,-7.802738806115287,40.873019236762346
pt.ine.add.PTCONT.5455649,R PADRE SILVIO AMARAL,4,3650-020,FRÁGUAS VNP,-7.765459520520124,40.84195682980798
pt.ine.add.PTCONT.5455650,BR SRA DA PENHA,6,3650-020,FRÁGUAS VNP,-7.76628996518069,40.84187842965113
pt.ine.add.PTCONT.5455651,R PADRE JOSE SA MARQUES,,3650-223,VILA NOVA DE PAIVA,-7.727775467172076,40.85193401316134
pt.ine.add.PTCONT.5455652,R EMIGRANTE,26,3650-215,VILA NOVA DE PAIVA,-7.73073733876656,40.84653247383075
pt.ine.add.PTCONT.5455662,LG SENHOR DOS AFLITOS,,3650-032,PENDILHE,-7.8344555576778525,40.90570306339105
pt.ine.add.PTCONT.5455663,R SENHORIO,32,3650-032,PENDILHE,-7.834385278194261,40.90549577175278
pt.ine.add.PTCONT.5455671,AV CARLOS TRINDADE E SA,,3650-202,VILA NOVA DE PAIVA,-7.739732560037618,40.849400023667556
pt.ine.add.PTCONT.5455703,R VINHA DA FONTE,,3650-020,FRÁGUAS VNP,-7.771961981592334,40.83891571696146
pt.ine.add.PTCONT.5455720,R LAJA,19,3650-051,QUEIRIGA,-7.744500254328791,40.80463493321117
pt.ine.add.PTCONT.5456205,R CERDEIRINHAS,11,3650-043,QUEIRIGA,-7.754157242274482,40.8048651614337
pt.ine.add.PTCONT.5456224,AV SANTO ANTÓNIO,20,3650-010,ALHAIS,-7.705747672830556,40.862011950818896
pt.ine.add.PTCONT.5456225,AV SANTO ANTÓNIO,44,3650-010,ALHAIS,-7.705306355995495,40.86055153467293
pt.ine.add.PTCONT.5457284,R EIRA VELHA,,3650-051,QUEIRIGA,-7.748351387901199,40.80469286393335
pt.ine.add.PTCONT.5457285,R FRAGA DO MARQUES,338,3650-102,VILA COVA À COELHEIRA VNP,-7.801900924741523,40.914970104522645
pt.ine.add.PTCONT.5457286,R FONTE DA POCA,27,3650-120,VILA COVA À COELHEIRA VNP,-7.803769053541431,40.8805682114361
pt.ine.add.PTCONT.5457287,BR MÁRTIR S SEBASTIÃO,9,3650-204,VILA NOVA DE PAIVA,-7.724954424163972,40.85363498454124
pt.ine.add.PTCONT.5457291,R GARCIA,3,3650-020,FRÁGUAS VNP,-7.770396345947988,40.83683968657912
pt.ine.add.PTCONT.5457292,AV CIMO DO SOUTO,8,3650-051,QUEIRIGA,-7.7496241162349975,40.807992897748456
pt.ine.add.PTCONT.5457303,R POÇO,,3650-051,QUEIRIGA,-7.755236403282995,40.804733626942
pt.ine.add.PTCONT.5457304,R FUNDO DO LUGAR,,3650-051,QUEIRIGA,-7.748001183520723,40.80377319455413
pt.ine.add.PTCONT.5457305,BR POUPINHO,5,3650-081,TOURO,-7.743897242604231,40.89357372327149
pt.ine.add.PTCONT.5457306,R CENTRAL,,3650-075,TOURO,-7.7338405126665535,40.89848296377322
pt.ine.add.PTCONT.5457307,R LUGAR DE CIMA,29,3650-120,VILA COVA À COELHEIRA VNP,-7.807802963070108,40.8805526447335
pt.ine.add.PTCONT.5457313,BC SOUTO,28,3650-051,QUEIRIGA,-7.7516801805545175,40.804911029003215
pt.ine.add.PTCONT.5457314,R PEDRALVA,15,3650-209,VILA NOVA DE PAIVA,-7.723166229197656,40.855141455130706
pt.ine.add.PTCONT.5457315,R REGUINHO,8,3650-228,VILA NOVA DE PAIVA,-7.730795401403747,40.8506568932948
pt.ine.add.PTCONT.5457327,R S JOÃO BATISTA,22,3650-120,VILA COVA À COELHEIRA VNP,-7.800006587719594,40.87613604797487
pt.ine.add.PTCONT.5457328,LG RAMALHAL,79,3650-195,VILA NOVA DE PAIVA,-7.728136292421268,40.85305187985969
pt.ine.add.PTCONT.5457337,R CAP CORREIA DE CAMPOS,1,3650-212,VILA NOVA DE PAIVA,-7.732981016106786,40.85006117084363
pt.ine.add.PTCONT.5457353,ESTR PRINCIPAL,109,3650-103,VILA COVA À COELHEIRA VNP,-7.78754419738016,40.93653032185159
pt.ine.add.PTCONT.5457403,AV RESTAURACAO,83,3650-020,FRÁGUAS VNP,-7.765331730333942,40.84147916508389
pt.ine.add.PTCONT.5457412,R EIRAS,6,3650-032,PENDILHE,-7.839206018174216,40.90503090514726
pt.ine.add.PTCONT.5457422,R FANDANGA,4,3650-010,ALHAIS,-7.71381046686788,40.86994776445068
pt.ine.add.PTCONT.5457439,R CARREIRA DE PEVA,24,3650-010,ALHAIS,-7.712117219613735,40.86946434221431
pt.ine.add.PTCONT.5457440,R CUARCA,9,3650-020,FRÁGUAS VNP,-7.7711356459556695,40.83824676736107
pt.ine.add.PTCONT.5457467,R PELOURINHO,3 A,3650-010,ALHAIS,-7.706260809907561,40.86337357777571
pt.ine.add.PTCONT.5457886,R NSA SRA DA PAZ,33,3650-102,VILA COVA À COELHEIRA VNP,-7.801497309310946,40.91022344082082
pt.ine.add.PTCONT.5459058,R DR AVANTINO LOUREIRO BELEZA,21,3650-120,VILA COVA À COELHEIRA VNP,-7.81377289826591,40.872681115217965
pt.ine.add.PTCONT.5459069,R CERDEIRINHAS,,3650-044,,-7.753992411467976,40.80467551680654
pt.ine.add.PTCONT.5459070,AV S MARIA,526,3650-120,VILA COVA À COELHEIRA VNP,-7.799952071493549,40.88227716614409
pt.ine.add.PTCONT.5459071,R EGAS MONIZ,72,3650-219,VILA NOVA DE PAIVA,-7.731326700130857,40.851045952989026
pt.ine.add.PTCONT.5459085,BC VALDONAS,,3650-051,QUEIRIGA,-7.748628109959659,40.81013275050613
pt.ine.add.PTCONT.5459086,ESTR NACIONAL,,3650-051,QUEIRIGA,-7.7469279720452695,40.80083400524887
pt.ine.add.PTCONT.5459087,PORTO CARRO,,3650-201,VILA NOVA DE PAIVA,-7.730829080276807,40.84116590442495
pt.ine.add.PTCONT.5459098,R CELA,,3650-051,QUEIRIGA,-7.751889264415191,40.79943673093038
pt.ine.add.PTCONT.5459099,R ENG ADELINO AMARO DA COSTA,,3650-224,VILA NOVA DE PAIVA,-7.729318697360326,40.853632334088736
pt.ine.add.PTCONT.5459100,AV CARLOS TRINDADE E SA,,3650-202,VILA NOVA DE PAIVA,-7.736612566426732,40.84959645350017
pt.ine.add.PTCONT.5459117,R AREAL,,3650-032,PENDILHE,-7.834096174624428,40.90644052292026
pt.ine.add.PTCONT.5459118,R BICA,73,3650-120,VILA COVA À COELHEIRA VNP,-7.801098051937336,40.87613019005659
pt.ine.add.PTCONT.5459119,LG NOSSA SENHORA DOS CAMINHOS,15,3650-120,VILA COVA À COELHEIRA VNP,-7.808866685151188,40.87895278494607
pt.ine.add.PTCONT.5459134,R CENTRAL,,3650-081,TOURO,-7.7445760578684855,40.89518786611959
pt.ine.add.PTCONT.5459135,R JOÃO REIS INÁCIO,446,3650-120,VILA COVA À COELHEIRA VNP,-7.79935695801446,40.87556686715959
pt.ine.add.PTCONT.5459146,R EMIGRANTES,348,3650-120,VILA COVA À COELHEIRA VNP,-7.804725883702804,40.88381266717274
pt.ine.add.PTCONT.5459157,R CORGUINHA,317,3650-102,VILA COVA À COELHEIRA VNP,-7.798272588314684,40.9212359319121
pt.ine.add.PTCONT.5459158,R ADRAO,56,3650-120,VILA COVA À COELHEIRA VNP,-7.807301317251738,40.88123559370893
pt.ine.add.PTCONT.5459169,R NSA SRA DOS NAVEGANTES,69,3650-105,VILA COVA À COELHEIRA VNP,-7.832816285055811,40.8613861841559
pt.ine.add.PTCONT.5459230,R PRAIA,18,3650-020,FRÁGUAS VNP,-7.769264787671994,40.837790638976585
pt.ine.add.PTCONT.5459231,ESTR PRINCIPAL,,3650-051,QUEIRIGA,-7.74691315157623,40.80747958095837
pt.ine.add.PTCONT.5459232,R SEIXINHO,1,3650-051,QUEIRIGA,-7.747315301557614,40.80761599989561
pt.ine.add.PTCONT.5459756,R JULIO FONSECA E SOUSA,,3650-211,VILA NOVA DE PAIVA,-7.7305166809445245,40.849683398404466
pt.ine.add.PTCONT.5459874,R EIRA,65,3650-081,TOURO,-7.752296457131855,40.89604205518235
pt.ine.add.PTCONT.5460825,R NOVA DO PEREIRO,,3650-020,FRÁGUAS VNP,-7.7629784440258796,40.84034603162751
pt.ine.add.PTCONT.5460826,R CAMPO,,3650-020,FRÁGUAS VNP,-7.769464522237073,40.840294620197106
pt.ine.add.PTCONT.5460827,AV RESTAURACAO,98,3650-020,FRÁGUAS VNP,-7.764605259951575,40.842053157622715
pt.ine.add.PTCONT.5460828,R FEITAL,,3650-020,FRÁGUAS VNP,-7.770698416419513,40.84015442526419
pt.ine.add.PTCONT.5460829,TV CONDE ALEIXO,15,3650-020,FRÁGUAS VNP,-7.769947788819505,40.83864825299246
pt.ine.add.PTCONT.5460830,R LADEIRAS,15,3650-020,FRÁGUAS VNP,-7.767964835960575,40.83701211352871
pt.ine.add.PTCONT.5460831,QTA ESCALEIRA,,3650-031,PENDILHE,-7.813656556981893,40.92400800977533
pt.ine.add.PTCONT.5460832,R LAJA,,3650-051,QUEIRIGA,-7.744552435149879,40.80381566196183
pt.ine.add.PTCONT.5460833,ESTR PRINCIPAL,51,3650-051,QUEIRIGA,-7.747039465537175,40.79795280401348
pt.ine.add.PTCONT.5460834,R SILVEIRA,,3650-051,QUEIRIGA,-7.749380663284961,40.80910869668108
pt.ine.add.PTCONT.5460835,R FUNDO DO LUGAR,,3650-048,QUEIRIGA,-7.747928676166408,40.80401608517987
pt.ine.add.PTCONT.5460836,R FUNDO DO LUGAR,115,3650-048,QUEIRIGA,-7.749832448229683,40.80268069250399
pt.ine.add.PTCONT.5460837,R CAP LUIS BARBOSA DA COSTA,155,3650-120,VILA COVA À COELHEIRA VNP,-7.811252872047221,40.87618598760489
pt.ine.add.PTCONT.5460838,R CAPELA,155,3650-120,VILA COVA À COELHEIRA VNP,-7.803280482035758,40.88099904580128
pt.ine.add.PTCONT.5460839,R DR AVANTINO LOUREIRO BELEZA,720,3650-120,VILA COVA À COELHEIRA VNP,-7.808887248297759,40.87716989117735
pt.ine.add.PTCONT.5460840,R VASCO DA GAMA,256,3650-120,VILA COVA À COELHEIRA VNP,-7.801850315577789,40.87277355858999
pt.ine.add.PTCONT.5460841,R JOÃO REIS INÁCIO,113,3650-120,VILA COVA À COELHEIRA VNP,-7.797005618701489,40.87369604389353
pt.ine.add.PTCONT.5460842,R NSA SRA DA ALEGRIA,183,3650-101,VILA COVA À COELHEIRA VNP,-7.791851755897043,40.84931384226938
pt.ine.add.PTCONT.5460843,CPO RESTAURACAO,75,3650-207,VILA NOVA DE PAIVA,-7.728399054243017,40.85274663768327
pt.ine.add.PTCONT.5460844,R JULIO FONSECA E SOUSA,18,3650-211,VILA NOVA DE PAIVA,-7.730576627060176,40.84957554953047
pt.ine.add.PTCONT.5460845,R CRUZ PEDRA,,3650-236,VILA NOVA DE PAIVA,-7.738370772003509,40.84707212256853
pt.ine.add.PTCONT.5460846,R JUIZ DE BARRELAS,38,3650-221,VILA NOVA DE PAIVA,-7.728435402826711,40.848721603149976
pt.ine.add.PTCONT.5460898,R MURADAIS,,3650-010,ALHAIS,-7.711521006509931,40.8606014298812
pt.ine.add.PTCONT.5460899,R VALEZINHOS,1,3650-010,ALHAIS,-7.718762486695178,40.8576560774809
pt.ine.add.PTCONT.5460900,LG LATADA,,3650-032,PENDILHE,-7.836389169382466,40.90592416888402
pt.ine.add.PTCONT.5460901,LG SENHOR DOS AFLITOS,2,3650-032,PENDILHE,-7.834644280789846,40.90596469016418
pt.ine.add.PTCONT.5460902,LG SENHOR DOS AFLITOS,,3650-032,PENDILHE,-7.834599033316415,40.905469310930094
pt.ine.add.PTCONT.5460903,TV PRESA,2,3650-032,PENDILHE,-7.837143475999325,40.904449325344714
pt.ine.add.PTCONT.5460904,BR POUPINHO,,3650-081,TOURO,-7.745935463008438,40.89405783652416
pt.ine.add.PTCONT.5460905,EN 225,1700,3650-120,VILA COVA À COELHEIRA VNP,-7.794303157286837,40.88022562649197
pt.ine.add.PTCONT.5460906,TV JERONIMO HENRIQUES DE CASTRO,53,3650-120,VILA COVA À COELHEIRA VNP,-7.804629274850219,40.88415457432937
pt.ine.add.PTCONT.5460907,R LUGAR DO OUTEIRO,3,3650-214,VILA NOVA DE PAIVA,-7.7316774170711255,40.85384767755921
pt.ine.add.PTCONT.5460908,R PADRE JOAQUIM RODRIGUES DA CUNHA,10,3650-235,VILA NOVA DE PAIVA,-7.735125957350417,40.85229278558225
pt.ine.add.PTCONT.5460909,R EGAS MONIZ,3,3650-219,VILA NOVA DE PAIVA,-7.732023701832834,40.85148961548657
pt.ine.add.PTCONT.5460910,R EGAS MONIZ,3,3650-219,VILA NOVA DE PAIVA,-7.732023701832834,40.85148961548657
pt.ine.add.PTCONT.5460911,R EGAS MONIZ,3,3650-219,VILA NOVA DE PAIVA,-7.732023701832834,40.85148961548657
pt.ine.add.PTCONT.5460912,R EGAS MONIZ,3,3650-219,VILA NOVA DE PAIVA,-7.732023701832834,40.85148961548657
pt.ine.add.PTCONT.5460913,R EGAS MONIZ,3,3650-219,VILA NOVA DE PAIVA,-7.732023701832834,40.85148961548657
pt.ine.add.PTCONT.5461443,BR MÁRTIR S SEBASTIÃO,12,3650-204,VILA NOVA DE PAIVA,-7.725250129473958,40.85376209807683
pt.ine.add.PTCONT.5461717,LG RIBEIRA,15,3650-120,VILA COVA À COELHEIRA VNP,-7.7983362042230135,40.8733127065062
pt.ine.add.PTCONT.5461718,PC MUNICIPIO,20,3650-193,VILA NOVA DE PAIVA,-7.7290297264024135,40.85044361067266
pt.ine.add.PTCONT.5461719,PC MUNICIPIO,20,3650-193,VILA NOVA DE PAIVA,-7.7290297264024135,40.85044361067266
pt.ine.add.PTCONT.5461720,PC MUNICIPIO,20,3650-193,VILA NOVA DE PAIVA,-7.7290297264024135,40.85044361067266
pt.ine.add.PTCONT.5461721,PC MUNICIPIO,20,3650-193,VILA NOVA DE PAIVA,-7.7290297264024135,40.85044361067266
pt.ine.add.PTCONT.5461899,AV CAP CORREIA DE CAMPOS,50,3650-212,VILA NOVA DE PAIVA,-7.733732301162209,40.84738933657377
pt.ine.add.PTCONT.5462719,AV NSA SRA GRACA,7,3650-010,ALHAIS,-7.712453162822852,40.86698924595175
pt.ine.add.PTCONT.5462720,AV NSA SRA DA GRAÇA,1,3650-010,ALHAIS,-7.710008266276256,40.86161343557691
pt.ine.add.PTCONT.5462721,BR VILA FLOR,3,3650-010,ALHAIS,-7.712072911557514,40.8652229158213
pt.ine.add.PTCONT.5462722,R BOUCA,59,3650-010,ALHAIS,-7.700937847023596,40.86478552255851
pt.ine.add.PTCONT.5462723,AV PADRE MANUEL RAMOS PINTO,,3650-010,ALHAIS,-7.717211663216578,40.85720025531253
pt.ine.add.PTCONT.5462815,R ANJO,,3650-032,PENDILHE,-7.8342058198971785,40.90844886933719
pt.ine.add.PTCONT.5462900,TV VALDONAS,,3650-051,QUEIRIGA,-7.748275324604999,40.80965431449948
pt.ine.add.PTCONT.5462982,ESTR NACIONAL,30,3650-051,QUEIRIGA,-7.7466224829011985,40.80242685259348
pt.ine.add.PTCONT.5462983,R CENTRAL,,3650-081,TOURO,-7.74342573928086,40.895057918394755
pt.ine.add.PTCONT.5462984,R CENTRAL,51,3650-077,TOURO,-7.71084408766473,40.899940872089694
pt.ine.add.PTCONT.5462985,R PRINCIPAL,,3650-075,TOURO,-7.733077705656122,40.89902961097121
pt.ine.add.PTCONT.5462986,R CENTRAL,1,3650-075,TOURO,-7.731276608282367,40.8985731115402
pt.ine.add.PTCONT.5463090,R OUTEIRO,91,3650-102,VILA COVA À COELHEIRA VNP,-7.798650312589743,40.919310013973664
pt.ine.add.PTCONT.5463091,R BICA,81,3650-120,VILA COVA À COELHEIRA VNP,-7.801240995554,40.876013538919736
pt.ine.add.PTCONT.5463092,R EMIGRANTES,400,3650-120,VILA COVA À COELHEIRA VNP,-7.8049365113066935,40.88440758319294
pt.ine.add.PTCONT.5463291,R SANTO ANTÓNIO,,3650-081,TOURO,-7.744770207213502,40.896485206757205
pt.ine.add.PTCONT.5463320,TV 25 DE ABRIL,2,3650-020,FRÁGUAS VNP,-7.769799561558711,40.83973737449118
pt.ine.add.PTCONT.5463321,R NSA SRA DE FÁTIMA,142,3650-102,VILA COVA À COELHEIRA VNP,-7.800140419110867,40.91807167177886
pt.ine.add.PTCONT.5464319,R CENTRAL,,3650-081,TOURO,-7.748107549748159,40.896019143052186
pt.ine.add.PTCONT.5464320,R ENCOSTA,8,3650-081,TOURO,-7.749033155171796,40.896022229198955
pt.ine.add.PTCONT.5464321,CAM ANTA,60,3650-120,VILA COVA À COELHEIRA VNP,-7.814506491166621,40.8706030311965
pt.ine.add.PTCONT.5464328,R CURTINHAIS,,3650-051,QUEIRIGA,-7.746918631532338,40.80448996934651
pt.ine.add.PTCONT.5464329,BC TORGAL,,3650-077,TOURO,-7.709950315547428,40.89865892053535
pt.ine.add.PTCONT.5464330,R CALDEIRAS,,3650-075,TOURO,-7.733680443847131,40.899445919095534
pt.ine.add.PTCONT.5464337,EN 574,,3650-049,QUEIRIGA,-7.739422962744544,40.77743183284972
pt.ine.add.PTCONT.5464338,AV CAP CORREIA DE CAMPOS,105,3650-212,VILA NOVA DE PAIVA,-7.730644836215475,40.84418188646158
pt.ine.add.PTCONT.5464353,R ESPERAO,4,3650-075,TOURO,-7.735166994804707,40.896947733611896
pt.ine.add.PTCONT.5464354,R PE ANTÓNIO FONSECA,331,3650-120,VILA COVA À COELHEIRA VNP,-7.807446247169777,40.880713724538275
pt.ine.add.PTCONT.5464355,R PEDRALVA,5,3650-209,VILA NOVA DE PAIVA,-7.7229652302363485,40.85504168753489
pt.ine.add.PTCONT.5464356,R PADRE JOSE SA MARQUES,43,3650-223,VILA NOVA DE PAIVA,-7.7311814228079605,40.85069359820689
pt.ine.add.PTCONT.5464367,R EIRA VELHA,19,3650-051,QUEIRIGA,-7.747175793585761,40.80510316375325
pt.ine.add.PTCONT.5464368,R PRAÇA,31,3650-120,VILA COVA À COELHEIRA VNP,-7.803786005457653,40.879541712394115
pt.ine.add.PTCONT.5464369,BC SERRADINHO,16,3650-120,VILA COVA À COELHEIRA VNP,-7.8028383286358585,40.879250849002254
pt.ine.add.PTCONT.5464385,R ANJO,4,3650-032,PENDILHE,-7.834331481771394,40.906900375755896
pt.ine.add.PTCONT.5464386,BR SEIXAL,5,3650-081,TOURO,-7.750081244473475,40.897421453882295
pt.ine.add.PTCONT.5464387,R 1 DE MAIO,,3650-203,VILA NOVA DE PAIVA,-7.730621949783456,40.853843999763285
pt.ine.add.PTCONT.5464388,AV AQUILINO RIBEIRO,,3650-209,VILA NOVA DE PAIVA,-7.72388804389992,40.853478124382676
pt.ine.add.PTCONT.5464416,R SUSAO,,3650-010,ALHAIS,-7.709308247797888,40.85792789463375
pt.ine.add.PTCONT.5464417,R PRAÇA,3,3650-032,PENDILHE,-7.838177969906848,40.90668515763242
pt.ine.add.PTCONT.5464418,ESTR PRINCIPAL,104,3650-103,VILA COVA À COELHEIRA VNP,-7.787926135117491,40.93615326791869
pt.ine.add.PTCONT.5464438,R CORGAS,,3650-032,PENDILHE,-7.831931392143496,40.90485005110626
pt.ine.add.PTCONT.5464439,R JULIO FONSECA E SOUSA,47,3650-211,VILA NOVA DE PAIVA,-7.731460353823928,40.850515133022824
pt.ine.add.PTCONT.5464461,AV RESTAURACAO,85,3650-020,FRÁGUAS VNP,-7.765224320062996,40.84160489060637
pt.ine.add.PTCONT.5464462,LG ENG ENGRACIA CARRILHO,15,3650-244,VILA NOVA DE PAIVA,-7.7298836529208055,40.850428589003315
pt.ine.add.PTCONT.5464463,LG ENG ENGRACIA CARRILHO,15,3650-244,VILA NOVA DE PAIVA,-7.7298836529208055,40.850428589003315
pt.ine.add.PTCONT.5464482,AV CARLOS TRINDADE E SA,,3650-202,VILA NOVA DE PAIVA,-7.738558471464449,40.84941402368736
pt.ine.add.PTCONT.5464511,R NOVA DO PEREIRO,,3650-020,FRÁGUAS VNP,-7.76319341869922,40.840067570529335
pt.ine.add.PTCONT.5464526,AV NSA SRA DA GRAÇA,10,3650-010,ALHAIS,-7.712232985476175,40.868042005323
pt.ine.add.PTCONT.5464537,TV TRAS DAS CASAS,2,3650-020,FRÁGUAS VNP,-7.770876519503324,40.837930783818855
pt.ine.add.PTCONT.5464995,AV 20 DE MAIO,54,3650-120,VILA COVA À COELHEIRA VNP,-7.798659571009778,40.88448860543201
pt.ine.add.PTCONT.5465019,R ESPERAO,3,3650-075,TOURO,-7.734866866589724,40.897523002633434
pt.ine.add.PTCONT.5465101,AV SANTO ANTÓNIO,32,3650-010,ALHAIS,-7.705941260737371,40.861418350025076
pt.ine.add.PTCONT.5465102,R SANTO ANTÓNIO,13,3650-081,TOURO,-7.744663353216674,40.89649385168221
pt.ine.add.PTCONT.5465103,R SANTO ANTÓNIO,31,3650-215,VILA NOVA DE PAIVA,-7.728899367884482,40.84652604840713
pt.ine.add.PTCONT.5465120,R URGUEIRA,6 A,3650-032,PENDILHE,-7.8397348554825745,40.90890430039626
pt.ine.add.PTCONT.5465257,R ENG ADELINO AMARO COSTA,31,3650-224,VILA NOVA DE PAIVA,-7.7300301913662,40.85364382723242
pt.ine.add.PTCONT.5465258,R MALHADINHAS,9,3650-198,VILA NOVA DE PAIVA,-7.729562706644268,40.85055353443307
pt.ine.add.PTCONT.5465259,AV CARLOS TRINDADE E SA,,3650-202,VILA NOVA DE PAIVA,-7.733773806435035,40.85035207280577
pt.ine.add.PTCONT.5465260,R ENG ENGRACIA CARRILHO,24,3650-211,VILA NOVA DE PAIVA,-7.729919610720115,40.85036568082287
pt.ine.add.PTCONT.5465261,R FERREIRA SOUTO,,3650-211,VILA NOVA DE PAIVA,-7.730153051468566,40.84902477552429
pt.ine.add.PTCONT.5466117,R CRUZEIRO,25,3650-010,ALHAIS,-7.714038740809662,40.869489348982256
pt.ine.add.PTCONT.5466118,R ALDEIA,9,3650-010,ALHAIS,-7.71384265384614,40.8686061654304
pt.ine.add.PTCONT.5466119,LG CRUZEIRO,1,3650-010,ALHAIS,-7.708468710445334,40.86310257765807
pt.ine.add.PTCONT.5466120,AV PADRE MANUEL RAMOS PINTO,84,3650-010,ALHAIS,-7.7096186465542935,40.86133285649227
pt.ine.add.PTCONT.5466222,TV 25 DE ABRIL,5,3650-020,FRÁGUAS VNP,-7.769905927993105,40.839800743437515
pt.ine.add.PTCONT.5466223,BC PAULINHA,11,3650-020,FRÁGUAS VNP,-7.769566707282596,40.83895321804272
pt.ine.add.PTCONT.5466224,ESTR NACIONAL,2,3650-032,PENDILHE,-7.832895906015635,40.909399971470854
pt.ine.add.PTCONT.5466225,R CURRAL DO CAP,,3650-032,PENDILHE,-7.837242804151917,40.9114552856147
pt.ine.add.PTCONT.5466331,R REGADA CIMEIRA,,3650-049,QUEIRIGA,-7.7380548514505385,40.77841770214433
pt.ine.add.PTCONT.5466332,LG OUTEIRO,,3650-055,QUEIRIGA,-7.727196553597276,40.77378749342666
pt.ine.add.PTCONT.5466333,BC VALDONAS,,3650-051,QUEIRIGA,-7.748976901679762,40.811304549563864
pt.ine.add.PTCONT.5466334,R SILVEIRA,,3650-051,QUEIRIGA,-7.7514468399592635,40.81047529026781
pt.ine.add.PTCONT.5466431,TV POMBAL,,3650-051,QUEIRIGA,-7.75179461736125,40.8035516653817
pt.ine.add.PTCONT.5466432,TV CERDEIRINHAS,11,3650-044,,-7.754353632458227,40.80575729252146
pt.ine.add.PTCONT.5466433,R CERCA,,3650-051,QUEIRIGA,-7.748687257122316,40.80604472003603
pt.ine.add.PTCONT.5466434,R CURTINHAIS,29,3650-051,QUEIRIGA,-7.747100300720301,40.80381520881969
pt.ine.add.PTCONT.5466435,R CELA,48,3650-051,QUEIRIGA,-7.75250808255395,40.8010506542959
pt.ine.add.PTCONT.5466436,ESTR NACIONAL,,3650-051,QUEIRIGA,-7.747496042119529,40.79686473506123
pt.ine.add.PTCONT.5466437,R PORTO,,3650-081,TOURO,-7.747090465207009,40.895421428534796
pt.ine.add.PTCONT.5466527,R PRINCIPAL,,3650-081,TOURO,-7.726096286166135,40.93053977168193
pt.ine.add.PTCONT.5466528,R OUTEIRO,9,3650-077,TOURO,-7.711016316878201,40.90085098296946
pt.ine.add.PTCONT.5466529,R CANCELA,,3650-075,TOURO,-7.7378745205232935,40.896641877124175
pt.ine.add.PTCONT.5466616,R OUTEIRO,46,3650-102,VILA COVA À COELHEIRA VNP,-7.799673206693742,40.91891676753686
pt.ine.add.PTCONT.5466617,R S PELAGIO,93,3650-120,VILA COVA À COELHEIRA VNP,-7.798111417903884,40.88260501229164
pt.ine.add.PTCONT.5466618,R MOSTEIRO,50,3650-120,VILA COVA À COELHEIRA VNP,-7.800732155817843,40.878128203263245
pt.ine.add.PTCONT.5466701,LG RESTAURACAO,7,3650-120,VILA COVA À COELHEIRA VNP,-7.804294725698007,40.87983131745625
pt.ine.add.PTCONT.5466702,BC FLORES,15,3650-120,VILA COVA À COELHEIRA VNP,-7.803896572421169,40.87877661972886
pt.ine.add.PTCONT.5466703,R JOÃO REIS INÁCIO,306,3650-120,VILA COVA À COELHEIRA VNP,-7.79882936690517,40.87432267564203
pt.ine.add.PTCONT.5466704,R MINAS DO ARRECAIO,130,3650-105,VILA COVA À COELHEIRA VNP,-7.833315204098118,40.861216390027714
pt.ine.add.PTCONT.5466705,LG RESTAURACAO,47,3650-207,VILA NOVA DE PAIVA,-7.728874125064059,40.85263124057782
pt.ine.add.PTCONT.5466739,R CENTRAL,,3650-081,TOURO,-7.7401684427634825,40.8960373912624
pt.ine.add.PTCONT.5466779,R FUNDO DO LUGAR,,3650-048,QUEIRIGA,-7.748893849979709,40.803100801927116
pt.ine.add.PTCONT.5466792,R SEIXINHO,15,3650-051,QUEIRIGA,-7.74599393062531,40.808629128568334
pt.ine.add.PTCONT.5466841,LG CRUZEIRO,10,3650-106,VILA COVA À COELHEIRA VNP,-7.822450983140141,40.8713180723181
pt.ine.add.PTCONT.5466847,TV POMBAL,,3650-020,FRÁGUAS VNP,-7.768792331922473,40.839626139764526
pt.ine.add.PTCONT.5466887,R CORGUINHA,170,3650-102,VILA COVA À COELHEIRA VNP,-7.797402175662676,40.91963956263406
pt.ine.add.PTCONT.5467190,TV COVAL,6,3650-203,VILA NOVA DE PAIVA,-7.735253604397261,40.8527614773223
pt.ine.add.PTCONT.5467191,TV COVAL,8,3650-203,VILA NOVA DE PAIVA,-7.735253604397261,40.8527614773223
pt.ine.add.PTCONT.5467192,R JULIO FONSECA E SOUSA,20,3650-211,VILA NOVA DE PAIVA,-7.730892611747783,40.850270024260546
pt.ine.add.PTCONT.5467193,AV AQUILINO RIBEIRO,53,3650-209,VILA NOVA DE PAIVA,-7.72428028008048,40.85333543784853
pt.ine.add.PTCONT.5467740,R PEDRALVA,11,3650-010,ALHAIS,-7.7229515937034625,40.85532979357653
pt.ine.add.PTCONT.5467741,R PADRE SILVIO AMARAL,16,3650-020,FRÁGUAS VNP,-7.765864053989414,40.84170598232258
pt.ine.add.PTCONT.5467742,AV RESTAURACAO,,3650-020,FRÁGUAS VNP,-7.7683509191000155,40.84012001224804
pt.ine.add.PTCONT.5468210,PC PELOURINHO,9,3650-020,FRÁGUAS VNP,-7.770306774044357,40.838046056703575
pt.ine.add.PTCONT.5468211,R CRISTO REI,,3650-032,PENDILHE,-7.840540370218693,40.909266537171675
pt.ine.add.PTCONT.5468212,R CHAFARIZ,,3650-032,PENDILHE,-7.838733693620388,40.90983824432466
pt.ine.add.PTCONT.5468213,R CRISTO REI,10,3650-032,PENDILHE,-7.839983312358999,40.90908502740219
pt.ine.add.PTCONT.5468214,BR OUTEIRO DA MA,,3650-032,PENDILHE,-7.832722297999642,40.905797614304205
pt.ine.add.PTCONT.5468215,R ALTO DA LAMEIRA,,3650-032,PENDILHE,-7.835333912920463,40.90568732512045
pt.ine.add.PTCONT.5468216,R CARDOSO,,3650-049,QUEIRIGA,-7.739106164219284,40.7769174693305
pt.ine.add.PTCONT.5468217,R CALÇADA,,3650-049,QUEIRIGA,-7.727837110073436,40.773636660462216
pt.ine.add.PTCONT.5468218,BC VALDONAS,,3650-051,QUEIRIGA,-7.749327032592083,40.81018910680716
pt.ine.add.PTCONT.5468219,R CURTINHAIS,,3650-051,QUEIRIGA,-7.747928103502657,40.804115137307306
pt.ine.add.PTCONT.5468220,R CORGA,17,3650-051,QUEIRIGA,-7.747115385523226,40.803256954656
pt.ine.add.PTCONT.5468221,R CURTINHAIS,,3650-051,QUEIRIGA,-7.747799364059963,40.80383555517722
pt.ine.add.PTCONT.5468222,ESTR NACIONAL,3B,3650-051,QUEIRIGA,-7.746650779201152,40.80163451479451
pt.ine.add.PTCONT.5468223,R POÇOS,,3650-081,TOURO,-7.7448927931645395,40.89784533927927
pt.ine.add.PTCONT.5468224,AV NSA SRA DA PAZ,10,3650-102,VILA COVA À COELHEIRA VNP,-7.799777291217225,40.91473886713066
pt.ine.add.PTCONT.5468225,R CASA DA CAMARA,36,3650-120,VILA COVA À COELHEIRA VNP,-7.801058352221089,40.87932678169901
pt.ine.add.PTCONT.5468226,R MONTE CALVARIO,172,3650-120,VILA COVA À COELHEIRA VNP,-7.801665242474042,40.87658206167359
pt.ine.add.PTCONT.5468227,R 5 DE OUTUBRO,51,3650-120,VILA COVA À COELHEIRA VNP,-7.802886280739494,40.881538205878634
pt.ine.add.PTCONT.5468228,R LUGAR DE CIMA,168,3650-120,VILA COVA À COELHEIRA VNP,-7.808614379939801,40.87960042129325
pt.ine.add.PTCONT.5468229,LG RAMALHAL,54,3650-195,VILA NOVA DE PAIVA,-7.727324391875394,40.852004465996906
pt.ine.add.PTCONT.5468230,LG RAMALHAL,54,3650-195,VILA NOVA DE PAIVA,-7.727324391875394,40.852004465996906
pt.ine.add.PTCONT.5468231,R JOSE SA PINTO,5,3650-197,VILA NOVA DE PAIVA,-7.7282773543803245,40.8493603922126
pt.ine.add.PTCONT.5468232,TV S FRANCISCO,8,3650-238,VILA NOVA DE PAIVA,-7.729785279701841,40.849050504802555
pt.ine.add.PTCONT.5468258,R PRESA,4 B,3650-032,PENDILHE,-7.837438741056235,40.90477425435168
pt.ine.add.PTCONT.5468259,R OUTEIRO,,3650-032,PENDILHE,-7.835348735244299,40.90238261330291
pt.ine.add.PTCONT.5468260,R SENHORIO,7,3650-032,PENDILHE,-7.835412836881207,40.903967618301785
pt.ine.add.PTCONT.5468261,R SEIXINHO,,3650-051,QUEIRIGA,-7.7473258488193695,40.80784115783211
pt.ine.add.PTCONT.5468262,R PAUL,,3650-081,TOURO,-7.755038881597498,40.889585649037905
pt.ine.add.PTCONT.5468263,BR POUSADOS,4,3650-081,TOURO,-7.748506006848341,40.89278775938595
pt.ine.add.PTCONT.5468264,BR CALVÁRIO,,3650-081,TOURO,-7.74941293306931,40.89190831217159
pt.ine.add.PTCONT.5468265,BR AVESSEIRA,,3650-072,TOURO,-7.75184478943017,40.87135843603292
pt.ine.add.PTCONT.5468266,R JOÃO PAULO II,,3650-077,TOURO,-7.710748940076344,40.90370451096568
pt.ine.add.PTCONT.5468267,R CAPELA,1,3650-075,TOURO,-7.735248280121825,40.899226219366696
pt.ine.add.PTCONT.5468268,R NSA SRA DO DESTERRO,15,3650-075,TOURO,-7.736715685075475,40.89992463890213
pt.ine.add.PTCONT.5468269,R CAP LUIS BARBOSA DA COSTA,51,3650-120,VILA COVA À COELHEIRA VNP,-7.8107203789579005,40.87590535141363
pt.ine.add.PTCONT.5468270,AV D AFONSO HENRIQUES,421,3650-120,VILA COVA À COELHEIRA VNP,-7.8087165099293046,40.87326132342758
pt.ine.add.PTCONT.5468271,R NOGUEIRINHA,245,3650-120,VILA COVA À COELHEIRA VNP,-7.803539454738075,40.879018729587834
pt.ine.add.PTCONT.5468272,R JOÃO REIS INÁCIO,155,3650-120,VILA COVA À COELHEIRA VNP,-7.7976842986019115,40.87320275485919
pt.ine.add.PTCONT.5468273,R JOSE MARTINS,48,3650-220,VILA NOVA DE PAIVA,-7.726972567258963,40.85329992389998
pt.ine.add.PTCONT.5468621,R CALVARIO,,3650-081,TOURO,-7.750496889246867,40.89119153107251
pt.ine.add.PTCONT.5468748,AV AQUILINO RIBEIRO,53,3650-209,VILA NOVA DE PAIVA,-7.72428028008048,40.85333543784853
pt.ine.add.PTCONT.5468773,R IGREJA,2 A,3650-010,ALHAIS,-7.708788952056342,40.86310375612324
pt.ine.add.PTCONT.5468838,AV SANTO ANTÓNIO,9,3650-010,ALHAIS,-7.705657071970634,40.86134525873749
pt.ine.add.PTCONT.5468839,R SANTO ANTÓNIO,5,3650-081,TOURO,-7.7452341700696765,40.89628866315445
pt.ine.add.PTCONT.5468874,R COSTA DO CARRO,2,3650-032,PENDILHE,-7.830195562880272,40.90551185763165
pt.ine.add.PTCONT.5469899,TV EIRAS,12,3650-120,VILA COVA À COELHEIRA VNP,-7.80456626005761,40.88010223529483
pt.ine.add.PTCONT.5469900,R AUGUSTO MOREIRA,85 87,3650-211,VILA NOVA DE PAIVA,-7.730107854936555,40.84865541919945
pt.ine.add.PTCONT.5469901,R OUTEIRO,14,3650-240,VILA NOVA DE PAIVA,-7.729394884034666,40.848896056940674
pt.ine.add.PTCONT.5469919,R CURTINHAIS,10,3650-051,QUEIRIGA,-7.7474313792327285,40.8039423847161
pt.ine.add.PTCONT.5469929,BC VALDONAS,,3650-051,QUEIRIGA,-7.748488232700527,40.80972706365098
pt.ine.add.PTCONT.5469930,R REGUINHO,,3650-228,VILA NOVA DE PAIVA,-7.731139790984842,40.85057705031467
pt.ine.add.PTCONT.5469942,BR SEIXAL,,3650-081,TOURO,-7.750220429219507,40.897980211601606
pt.ine.add.PTCONT.5469943,TV ROCHA LIMA,10,3650-226,VILA NOVA DE PAIVA,-7.728773560055102,40.853567390781514
pt.ine.add.PTCONT.5469950,R CELA,3,3650-051,QUEIRIGA,-7.7521063801131245,40.80291334631094
pt.ine.add.PTCONT.5469961,R NOVA DO SUSAO,8,3650-010,ALHAIS,-7.71069093435947,40.858707380950065
pt.ine.add.PTCONT.5469962,R CENTRAL,7,3650-077,TOURO,-7.714971499681186,40.900343114854785
pt.ine.add.PTCONT.5469963,R S ANA,,3650-081,TOURO,-7.744455442197819,40.895520636207095
pt.ine.add.PTCONT.5469964,R CRUZ CAMPA,24,3650-214,VILA NOVA DE PAIVA,-7.731702983283353,40.85354160221294
pt.ine.add.PTCONT.5469990,R NOSSO SENHOR DA AFLICAO,497,3650-106,VILA COVA À COELHEIRA VNP,-7.8184247644010805,40.87233370753001
pt.ine.add.PTCONT.5469991,R NOSSO SENHOR DA AFLICAO,291,3650-106,VILA COVA À COELHEIRA VNP,-7.82084490329591,40.87230426544273
pt.ine.add.PTCONT.5470002,AV RESTAURACAO,93,3650-020,FRÁGUAS VNP,-7.765006359722434,40.842423637244096
pt.ine.add.PTCONT.5470003,R S ISABEL,11,3650-032,PENDILHE,-7.835045832773742,40.9064069621729
pt.ine.add.PTCONT.5470004,LG SENHOR DOS AFLITOS,6,3650-032,PENDILHE,-7.8350482181861425,40.90587568718499
pt.ine.add.PTCONT.5470014,R CAMPO,67,3650-020,FRÁGUAS VNP,-7.7674782977864405,40.84140494464348
pt.ine.add.PTCONT.5470109,R IGREJA,42,3650-020,FRÁGUAS VNP,-7.7706478635425285,40.8385514011743
pt.ine.add.PTCONT.5470108,AV PRAÇA,22,3650-010,ALHAIS,-7.706344529437675,40.863265829783984
pt.ine.add.PTCONT.5470110,R BARREIRO,3,3650-051,QUEIRIGA,-7.746639012561749,40.80774881027288
pt.ine.add.PTCONT.5470111,R SEIXINHO,,3650-051,QUEIRIGA,-7.747062308586889,40.80832654131745
pt.ine.add.PTCONT.5470592,BR PORTINHO,,3650-071,TOURO,-7.768487399953416,40.91685034196097
pt.ine.add.PTCONT.5470623,R ALMOINHA,,3650-081,TOURO,-7.745586012866023,40.899036299649616
pt.ine.add.PTCONT.5470803,R EIDO,,3650-032,PENDILHE,-7.83917325712658,40.909749317905124
pt.ine.add.PTCONT.5470804,R EIDO,,3650-032,PENDILHE,-7.838320587050483,40.9093149130003
pt.ine.add.PTCONT.5470695,AV SANTO ANTÓNIO,18,3650-010,ALHAIS,-7.705593021813339,40.86208341627413
pt.ine.add.PTCONT.5470699,R SANTO ANTÓNIO,10,3650-215,VILA NOVA DE PAIVA,-7.7300210100229485,40.84733140410169
pt.ine.add.PTCONT.5470802,R CHAFARIZ,9,3650-032,PENDILHE,-7.8390893742647725,40.90992919927716
pt.ine.add.PTCONT.5470805,R CORGAS,1,3650-032,PENDILHE,-7.832071894027166,40.905273641972826
pt.ine.add.PTCONT.5470806,,,3650-051,QUEIRIGA,-7.746335696641623,40.80691934245513
pt.ine.add.PTCONT.5470807,ESTR MUNICIPAL,,3650-055,QUEIRIGA,-7.7398163634195924,40.77700994146072
pt.ine.add.PTCONT.5470909,R POÇO,,3650-051,QUEIRIGA,-7.7551328653893,40.80418398811656
pt.ine.add.PTCONT.5470910,ESTR NACIONAL,24,3650-051,QUEIRIGA,-7.746757373204648,40.8036879922977
pt.ine.add.PTCONT.5470911,R FUNDO DO LUGAR,,3650-051,QUEIRIGA,-7.74821734986439,40.803278645583035
pt.ine.add.PTCONT.5470912,R CORGA,5,3650-051,QUEIRIGA,-7.74793263267447,40.8033317249798
pt.ine.add.PTCONT.5471006,AV CALVÁRIO,,3650-081,TOURO,-7.750404903827305,40.892740047352085
pt.ine.add.PTCONT.5471007,BR POUSADOS,3,3650-081,TOURO,-7.749134288561493,40.89289791009717
pt.ine.add.PTCONT.5471119,R S JOÃO BATISTA,231,3650-120,VILA COVA À COELHEIRA VNP,-7.80138784586695,40.87749074969073
pt.ine.add.PTCONT.5471120,R D AFONSO HENRIQUES,1034,3650-120,VILA COVA À COELHEIRA VNP,-7.802854395181532,40.876018169723736
pt.ine.add.PTCONT.5471121,R PADRE ANTÓNIO FONSECA,296,3650-120,VILA COVA À COELHEIRA VNP,-7.807148275790208,40.88099203168001
pt.ine.add.PTCONT.5471122,LG FEIRA,9,3650-120,VILA COVA À COELHEIRA VNP,-7.802402536936133,40.88099653189041
pt.ine.add.PTCONT.5471123,LG NOSSA SENHORA DOS CAMINHOS,9,3650-120,VILA COVA À COELHEIRA VNP,-7.809258145519306,40.87896288953453
pt.ine.add.PTCONT.5471124,R LUGAR DE CIMA,205,3650-120,VILA COVA À COELHEIRA VNP,-7.80871074172398,40.87930353382765
pt.ine.add.PTCONT.5471219,R D AFONSO HENRIQUES,416,3650-120,VILA COVA À COELHEIRA VNP,-7.808789839543982,40.872820293759766
pt.ine.add.PTCONT.5471220,R TORGAL,34,3650-105,VILA COVA À COELHEIRA VNP,-7.833373289427078,40.86148668602546
pt.ine.add.PTCONT.5471221,BR MÁRTIR S SEBASTIÃO,10,3650-204,VILA NOVA DE PAIVA,-7.724812003967672,40.853652490202265
pt.ine.add.PTCONT.5471326,R PADRE JOAQUIM RODRIGUES DA CUNHA,14,3650-235,VILA NOVA DE PAIVA,-7.7356240316694045,40.85229450287414
pt.ine.add.PTCONT.5471327,R DR JOSE MONTEIRO FRIAS,28,3650-199,VILA NOVA DE PAIVA,-7.725273762212873,40.84990811243525
pt.ine.add.PTCONT.5471328,R AUGUSTO MOREIRA,,3650-211,VILA NOVA DE PAIVA,-7.730515886480145,40.84818372958715
pt.ine.add.PTCONT.5471329,R FERREIRA SOUTO,13,3650-211,VILA NOVA DE PAIVA,-7.7300596580569225,40.84878131857842
pt.ine.add.PTCONT.5472287,R RAMALHAL,,3650-010,ALHAIS,-7.712898185722558,40.866018348577256
pt.ine.add.PTCONT.5472288,AV PADRE MANUEL RAMOS PINTO,81,3650-010,ALHAIS,-7.715387560655707,40.8587154794064
pt.ine.add.PTCONT.5472289,R VALEZINHOS,9,3650-010,ALHAIS,-7.717973890631428,40.85858974382037
pt.ine.add.PTCONT.5472290,AV PADRE MANUEL RAMOS PINTO,40,3650-010,ALHAIS,-7.714930739065078,40.857804337128606
pt.ine.add.PTCONT.5472291,R PEDRALVA,14,3650-010,ALHAIS,-7.723401697519368,40.85542144138201
pt.ine.add.PTCONT.5472292,R NOVA DO PEREIRO,40,3650-020,FRÁGUAS VNP,-7.765495722299849,40.83969672581391
pt.ine.add.PTCONT.5472363,R AUGUSTO MOREIRA,18,3650-211,VILA NOVA DE PAIVA,-7.730170331525284,40.85008740687614
pt.ine.add.PTCONT.5472423,R CASA DA CAMARA,42,3650-120,VILA COVA À COELHEIRA VNP,-7.801118571140434,40.87914685898251
pt.ine.add.PTCONT.5472450,ESTR MUNICIPAL,,3650-049,QUEIRIGA,-7.738074325306125,40.77713006066484
pt.ine.add.PTCONT.5472524,R SANTO ANTÓNIO,3,3650-081,TOURO,-7.745282163072285,40.89619877686562
pt.ine.add.PTCONT.5472761,R PE ANTÓNIO FONSECA,265,3650-120,VILA COVA À COELHEIRA VNP,-7.80706854088075,40.88031644619371
pt.ine.add.PTCONT.5472762,AV D AFONSO HENRIQUES,529,3650-120,VILA COVA À COELHEIRA VNP,-7.8077071182372135,40.873474595753926
pt.ine.add.PTCONT.5472763,R OUTEIRO DO FACHO,44,3650-216,VILA NOVA DE PAIVA,-7.729570528646004,40.85512801731776
pt.ine.add.PTCONT.5472851,BR NOSSA SENHORA DE FÁTIMA,5,3650-205,VILA NOVA DE PAIVA,-7.734036990720451,40.84799371545644
pt.ine.add.PTCONT.5472852,R AUGUSTO MOREIRA,84,3650-211,VILA NOVA DE PAIVA,-7.730287691860308,40.84833187305106
pt.ine.add.PTCONT.5472853,R JUIZ BARRELAS,2,3650-221,VILA NOVA DE PAIVA,-7.727224376363315,40.848960479228666
pt.ine.add.PTCONT.5473733,R BOUCA,,3650-010,ALHAIS,-7.702674172012601,40.86408063478418
pt.ine.add.PTCONT.5473734,AV PADRE MANUEL RAMOS PINTO,41,3650-010,ALHAIS,-7.717851246863944,40.8573376318738
pt.ine.add.PTCONT.5473735,AV RESTAURACAO,94,3650-020,FRÁGUAS VNP,-7.764700765152899,40.84193639952673
pt.ine.add.PTCONT.5473828,R NOVA DO PEREIRO,,3650-020,FRÁGUAS VNP,-7.765433851392088,40.840164781331424
pt.ine.add.PTCONT.5473829,R CADOUCO,52,3650-020,FRÁGUAS VNP,-7.769977988279103,40.83745970613961
pt.ine.add.PTCONT.5473830,ESTR NACIONAL,,3650-032,PENDILHE,-7.834263381435565,40.908845228009106
pt.ine.add.PTCONT.5473831,ESTR NOVA,6,3650-032,PENDILHE,-7.836042279754319,40.906526595139766
pt.ine.add.PTCONT.5473910,R ESCOLA,,3650-041,QUEIRIGA,-7.730798282683562,40.77365602653692
pt.ine.add.PTCONT.5473911,ESTR NACIONAL,16,3650-051,QUEIRIGA,-7.74711920913482,40.806687838579194
pt.ine.add.PTCONT.5473912,R CIMO DO LUGAR,16,3650-051,QUEIRIGA,-7.747949149252082,40.80457445808408
pt.ine.add.PTCONT.5473981,R CELA,,3650-051,QUEIRIGA,-7.75243338244181,40.8016807521033
pt.ine.add.PTCONT.5473982,TV CODESSOS,,3650-047,QUEIRIGA,-7.752050991954284,40.802237794734864
pt.ine.add.PTCONT.5473983,R TAPADO,4,3650-048,QUEIRIGA,-7.749097430810002,40.80273227814113
pt.ine.add.PTCONT.5473984,R CANO,,3650-081,TOURO,-7.7474563435497315,40.89576483380998
pt.ine.add.PTCONT.5473985,AV CALVÁRIO,20,3650-081,TOURO,-7.750622176468609,40.89210142906151
pt.ine.add.PTCONT.5474070,R PRINCIPAL,,3650-081,TOURO,-7.724807141919925,40.931651798394405
pt.ine.add.PTCONT.5474071,R PRINCIPAL,,3650-077,TOURO,-7.711473459189488,40.89988014144259
pt.ine.add.PTCONT.5474072,LG CARVALHAS,3,3650-075,TOURO,-7.732546449686975,40.89856852415392
pt.ine.add.PTCONT.5474073,R CANCELA,11,3650-075,TOURO,-7.735327898986416,40.89782175091186
pt.ine.add.PTCONT.5474074,R MONTE CALVÁRIO,210,3650-120,VILA COVA À COELHEIRA VNP,-7.801525982687691,40.875960329686094
pt.ine.add.PTCONT.5474075,R FONTE DE AVELEIRA,111,3650-120,VILA COVA À COELHEIRA VNP,-7.8074273209674026,40.882154439173824
pt.ine.add.PTCONT.5474160,BR VILA FLOR,,3650-010,ALHAIS,-7.7133085218357715,40.86490324607922
pt.ine.add.PTCONT.5474174,R NSA SRA DA PAZ,225,3650-102,VILA COVA À COELHEIRA VNP,-7.800788902793792,40.91184225725214
pt.ine.add.PTCONT.5475326,R BOUÇA,63,3650-010,ALHAIS,-7.700486656894405,40.864855869713075
pt.ine.add.PTCONT.5475327,R LAJA,49,3650-051,QUEIRIGA,-7.744987858383028,40.802304301911434
pt.ine.add.PTCONT.5475328,R CANSADAS,3,3650-051,QUEIRIGA,-7.746383001135534,40.798770053564404
pt.ine.add.PTCONT.5475329,ESTR NACIONAL,52A,3650-051,QUEIRIGA,-7.747125027503636,40.799546961240715
pt.ine.add.PTCONT.5475330,R CENTRAL,55,3650-081,TOURO,-7.745604825102642,40.89581265636735
pt.ine.add.PTCONT.5475345,R BOUCA,9,3650-010,ALHAIS,-7.705561020098207,40.863370986108826
pt.ine.add.PTCONT.5475346,R CADOUCO,22,3650-020,FRÁGUAS VNP,-7.770702204400023,40.837281886166295
pt.ine.add.PTCONT.5475347,R SEPARADORA,,3650-055,QUEIRIGA,-7.7358673628624715,40.77575373177854
pt.ine.add.PTCONT.5475348,R CIMO DO LUGAR,,3650-051,QUEIRIGA,-7.747390354276299,40.80488776334344
pt.ine.add.PTCONT.5475349,R OUTEIRO,3,3650-075,TOURO,-7.7335157643960555,40.8992022200628
pt.ine.add.PTCONT.5475350,R VALADO,,3650-218,VILA NOVA DE PAIVA,-7.727571670324447,40.84645835474446
pt.ine.add.PTCONT.5475357,R BARROCA,106,3650-048,QUEIRIGA,-7.7502102023850306,40.80293408429273
pt.ine.add.PTCONT.5475373,ESTR NACIONAL,,3650-032,PENDILHE,-7.8345775707618746,40.910241779537955
pt.ine.add.PTCONT.5475374,R FOJO,,3650-032,PENDILHE,-7.841440768891389,40.90964701783651
pt.ine.add.PTCONT.5475375,BR SEIXAL,,3650-081,TOURO,-7.752842282889319,40.898123957638376
pt.ine.add.PTCONT.5475376,BR POUSADOS,,3650-081,TOURO,-7.7489124253556545,40.89227584178485
pt.ine.add.PTCONT.5475377,R DR AVANTINO LOUREIRO BELEZA,282,3650-120,VILA COVA À COELHEIRA VNP,-7.811927050929972,40.87415277962223
pt.ine.add.PTCONT.5475387,R OUTEIRO,1,3650-010,ALHAIS,-7.7055746276091925,40.86125490503227
pt.ine.add.PTCONT.5475388,R PRINCIPAL,,3650-081,TOURO,-7.727088006680325,40.93339776091358
pt.ine.add.PTCONT.5475401,AV PADRE MANUEL RAMOS PINTO,,3650-010,ALHAIS,-7.71003519601366,40.86110926458783
pt.ine.add.PTCONT.5475402,R VIDEIRA,,3650-081,TOURO,-7.7463500669896295,40.89622037250703
pt.ine.add.PTCONT.5475413,R 1 DE MAIO,51,3650-120,VILA COVA À COELHEIRA VNP,-7.8105157317552205,40.87651710625215
pt.ine.add.PTCONT.5475414,R JOSE MARTINS,2,3650-220,VILA NOVA DE PAIVA,-7.72614834002319,40.85426954090203
pt.ine.add.PTCONT.5475415,R JOSE MARTINS,2,3650-220,VILA NOVA DE PAIVA,-7.72614834002319,40.85426954090203
pt.ine.add.PTCONT.5475416,R JOSE MARTINS,2,3650-220,VILA NOVA DE PAIVA,-7.72614834002319,40.85426954090203
pt.ine.add.PTCONT.5475417,R JOSE MARTINS,2,3650-220,VILA NOVA DE PAIVA,-7.72614834002319,40.85426954090203
pt.ine.add.PTCONT.5475423,R NOVA DO SUSAO,,3650-010,ALHAIS,-7.717037879656801,40.85654227636917
pt.ine.add.PTCONT.5475424,R CENTRAL,,3650-077,TOURO,-7.711933145216414,40.90037708274625
pt.ine.add.PTCONT.5475441,R COSTA CARRO,1,3650-032,PENDILHE,-7.830461104196907,40.90454004000318
pt.ine.add.PTCONT.5475442,R SENHOR DA POBREZA,275,3650-102,VILA COVA À COELHEIRA VNP,-7.798273213522949,40.918759630487195
pt.ine.add.PTCONT.5475443,R S JOSE,48,3650-102,VILA COVA À COELHEIRA VNP,-7.79713251616592,40.91897242654984
pt.ine.add.PTCONT.5475444,PC D AFONSO HENRIQUES,,3650-194,VILA NOVA DE PAIVA,-7.729759497433683,40.85134664831053
pt.ine.add.PTCONT.5475460,BR SRA DA PENHA,14,3650-020,FRÁGUAS VNP,-7.765834225935505,40.84281348463069
pt.ine.add.PTCONT.5475461,R PADRE VAQUEIRO,89,3650-106,VILA COVA À COELHEIRA VNP,-7.823599918531413,40.87169035851353
pt.ine.add.PTCONT.5475492,R COVAL,,3650-203,VILA NOVA DE PAIVA,-7.734295583269467,40.850353877865835
pt.ine.add.PTCONT.5475493,R MALHADINHAS,22,3650-198,VILA NOVA DE PAIVA,-7.728605227270144,40.85004591008572
pt.ine.add.PTCONT.5475519,R PADRE MANUEL BARBOSA ROCHA,22,3650-240,VILA NOVA DE PAIVA,-7.7297239129893995,40.84939247412805
pt.ine.add.PTCONT.5475550,BR VILA FLOR,12,3650-010,ALHAIS,-7.7127977532302845,40.86501844862054
pt.ine.add.PTCONT.5475566,R CAMPO DA BOLA,3,3650-010,ALHAIS,-7.708551061190328,40.86506592995513
pt.ine.add.PTCONT.5475978,R LUSANDINHA,,3650-245,VILA NOVA DE PAIVA,-7.739349015180218,40.84808400824509
pt.ine.add.PTCONT.5476056,R S JOSE,80,3650-102,VILA COVA À COELHEIRA VNP,-7.796551344331149,40.91887167972768
pt.ine.add.PTCONT.5476085,R SANTO ANTÓNIO,12,3650-215,VILA NOVA DE PAIVA,-7.729938495057629,40.84725007216744
pt.ine.add.PTCONT.5476101,TV FONTAÍNHAS,45,3650-106,VILA COVA À COELHEIRA VNP,-7.823304615573995,40.87141942121139
pt.ine.add.PTCONT.5477098,R LAJA,,3650-051,QUEIRIGA,-7.744569064168741,40.80299627086209
pt.ine.add.PTCONT.5477099,ESTR NACIONAL,56,3650-051,QUEIRIGA,-7.747212563318171,40.79875482104782
pt.ine.add.PTCONT.5477100,R FELICIDADE,4,3650-077,TOURO,-7.711103796536374,40.90015793686195
pt.ine.add.PTCONT.5477101,R OUTEIRO,15,3650-240,VILA NOVA DE PAIVA,-7.729346630971654,40.84903096065766
pt.ine.add.PTCONT.5477114,R PRIOR DO CRATO,18,3650-020,FRÁGUAS VNP,-7.770527745465461,40.83666000232485
pt.ine.add.PTCONT.5477115,AV NSA SRA DA PAZ,330,3650-102,VILA COVA À COELHEIRA VNP,-7.800001710820382,40.91259638528419
pt.ine.add.PTCONT.5477125,R PONTE VELHA,23,3650-020,FRÁGUAS VNP,-7.769658359564103,40.8373686509762
pt.ine.add.PTCONT.5477126,ESTR MUNICIPAL,,3650-049,QUEIRIGA,-7.737948346379351,40.7764002281066
pt.ine.add.PTCONT.5477127,ESTR MUNICIPAL,,3650-049,QUEIRIGA,-7.738608546550771,40.77693377918597
pt.ine.add.PTCONT.5477128,R LUGAR,17,3650-049,QUEIRIGA,-7.728464726156051,40.773665877701895
pt.ine.add.PTCONT.5477129,R NOVA,,3650-051,QUEIRIGA,-7.752350447232958,40.80375160900934
pt.ine.add.PTCONT.5477130,R CORGA,11,3650-051,QUEIRIGA,-7.74779147169243,40.80315115539414
pt.ine.add.PTCONT.5477131,R OUTAO,6,3650-075,TOURO,-7.733193069945701,40.89957930153746
pt.ine.add.PTCONT.5477132,AV CAP CORREIA DE CAMPOS,109,3650-212,VILA NOVA DE PAIVA,-7.730467410303851,40.8441092285552
pt.ine.add.PTCONT.5477143,R GRANJEIRO,10,3650-010,ALHAIS,-7.70428736713842,40.862231651688234
pt.ine.add.PTCONT.5477144,BR POUPINHO,,3650-081,TOURO,-7.745167462019823,40.8934879551232
pt.ine.add.PTCONT.5477145,R CANCELA,7,3650-075,TOURO,-7.735983386491117,40.89735576207764
pt.ine.add.PTCONT.5477146,R ENG ADELINO AMARO DA COSTA,20,3650-224,VILA NOVA DE PAIVA,-7.730059547685135,40.85467048062363
pt.ine.add.PTCONT.5477158,R CRUZ DA PEDRA,4,3650-010,ALHAIS,-7.701055791976372,40.8612380680416
pt.ine.add.PTCONT.5477159,R CENTRAL,,3650-081,TOURO,-7.748011571506215,40.89619891800033
pt.ine.add.PTCONT.5477160,R CRUZ DA PEDRA,,3650-236,VILA NOVA DE PAIVA,-7.737691387711093,40.84765511067909
pt.ine.add.PTCONT.5477175,R PAUL,,3650-081,TOURO,-7.754953156633892,40.89005361656065
pt.ine.add.PTCONT.5477176,R PRINCIPAL,,3650-081,TOURO,-7.728202786092699,40.9336177937703
pt.ine.add.PTCONT.5477177,R QUINTA,5,3650-077,TOURO,-7.710919215743311,40.903056792301804
pt.ine.add.PTCONT.5477178,R CAP LUIS BARBOSA DA COSTA,24,3650-120,VILA COVA À COELHEIRA VNP,-7.810353187589122,40.87578726199679
pt.ine.add.PTCONT.5477194,R CENTRAL,17,3650-081,TOURO,-7.7481306567967,40.89612727741674
pt.ine.add.PTCONT.5477195,R VIDEIRA,,3650-081,TOURO,-7.74620703620945,40.896327949995595
pt.ine.add.PTCONT.5477199,TV CARREIROS,1,3650-120,VILA COVA À COELHEIRA VNP,-7.805242861721219,40.882436403880874
pt.ine.add.PTCONT.5477200,R PROF AUGUSTO GUERRA,91,3650-120,VILA COVA À COELHEIRA VNP,-7.802030339125006,40.87473712441652
pt.ine.add.PTCONT.5477214,R EMIGRANTES,185,3650-120,VILA COVA À COELHEIRA VNP,-7.804126851843833,40.882586307680256
pt.ine.add.PTCONT.5477258,AV RESTAURACAO,69,3650-020,FRÁGUAS VNP,-7.766308374976086,40.840689847008555
pt.ine.add.PTCONT.5477259,R CAMPO,38,3650-020,FRÁGUAS VNP,-7.767637335643596,40.840513967632845
pt.ine.add.PTCONT.5477299,ESTR PRINCIPAL,,3650-051,QUEIRIGA,-7.747376656777492,40.80930012239565
pt.ine.add.PTCONT.5477318,AV PADRE MANUEL RAMOS PINTO,,3650-010,ALHAIS,-7.69714884659651,40.865581697140186
pt.ine.add.PTCONT.5477763,R FUNDO DO LUGAR,,3650-051,QUEIRIGA,-7.748105910796546,40.80410672582013
pt.ine.add.PTCONT.5478940,R BARREIRO,,3650-051,QUEIRIGA,-7.745692294645847,40.80751150781204
pt.ine.add.PTCONT.5478941,R SILVA,4,3650-077,TOURO,-7.711614267140964,40.90013278934326
pt.ine.add.PTCONT.5478942,TV S JOAQUIM,58,3650-102,VILA COVA À COELHEIRA VNP,-7.800469415417559,40.916379729425955
pt.ine.add.PTCONT.5478953,R PRAÇA,11,3650-010,ALHAIS,-7.705206759597246,40.86312654252628
pt.ine.add.PTCONT.5478954,AV PADRE MANUEL RAMOS PINTO,122,3650-010,ALHAIS,-7.701823336957594,40.86359119685325
pt.ine.add.PTCONT.5478955,R IGREJA,2 B,3650-010,ALHAIS,-7.708658540736879,40.863094271512416
pt.ine.add.PTCONT.5478956,R CALVÁRIO,,3650-049,QUEIRIGA,-7.734471071826785,40.775505783138755
pt.ine.add.PTCONT.5478968,R JOSE MARTINS,30,3650-220,VILA NOVA DE PAIVA,-7.72709092307523,40.855281403366305
pt.ine.add.PTCONT.5478969,,,3650-201,VILA NOVA DE PAIVA,-7.733380339189534,40.84478571737757
pt.ine.add.PTCONT.5478977,,,3650-032,PENDILHE,-7.840819481799125,40.910572935123795
pt.ine.add.PTCONT.5478978,BR SEIXAL,,3650-081,TOURO,-7.755465517005205,40.90011362552255
pt.ine.add.PTCONT.5478979,R LUIS CAMOES,,3650-120,VILA COVA À COELHEIRA VNP,-7.808283247774601,40.87938337394646
pt.ine.add.PTCONT.5478991,R FUNDO DO LUGAR,63,3650-048,QUEIRIGA,-7.748576597841783,40.80263148952952
pt.ine.add.PTCONT.5478992,AV CALVÁRIO,21,3650-081,TOURO,-7.749852598709955,40.89180171670882
pt.ine.add.PTCONT.5478993,R CENTRAL,32,3650-081,TOURO,-7.747229202106103,40.89605222667912
pt.ine.add.PTCONT.5478994,R CENTRAL,,3650-081,TOURO,-7.747845802451662,40.89613533098828
pt.ine.add.PTCONT.5479011,R DR VASCO DOS SANTOS TELES,2,3650-214,VILA NOVA DE PAIVA,-7.732025840685636,40.85310148837938
pt.ine.add.PTCONT.5479027,ESTR NOVA,12,3650-032,PENDILHE,-7.834468883893003,40.90801732227735
pt.ine.add.PTCONT.5479037,AV PADRE MANUEL RAMOS PINTO,30,3650-010,ALHAIS,-7.716890604279547,40.85733416968742
pt.ine.add.PTCONT.5479046,R QUINTAS,,3650-211,VILA NOVA DE PAIVA,-7.730970949114509,40.84908165864175
pt.ine.add.PTCONT.5479067,AV ALM GAGO COUTINHO,,3650-243,VILA NOVA DE PAIVA,-7.7291023545789574,40.850200734440605
pt.ine.add.PTCONT.5479082,R EIRO,15,3650-032,PENDILHE,-7.83646533029314,40.90481677850871
pt.ine.add.PTCONT.5479093,R CRUZEIRO,1,3650-010,ALHAIS,-7.713391507834656,40.868667558357316
pt.ine.add.PTCONT.5479094,TV POMBAL,,3650-020,FRÁGUAS VNP,-7.769409815532893,40.83945699575411
pt.ine.add.PTCONT.5479107,VLA SEIXINHO,,3650-051,QUEIRIGA,-7.7466396314567945,40.809684866963124
pt.ine.add.PTCONT.5479124,R CABO,46,3650-020,FRÁGUAS VNP,-7.768858664258552,40.83833865404363
pt.ine.add.PTCONT.5479594,R NOVA,7,3650-051,QUEIRIGA,-7.752397179474287,40.803868827090234
pt.ine.add.PTCONT.5479693,TV SANTO ANTÓNIO,13,3650-120,VILA COVA À COELHEIRA VNP,-7.803601483231218,40.88086489127752
pt.ine.add.PTCONT.5480795,TV CONDE ALEIXO,1,3650-020,FRÁGUAS VNP,-7.769734666359684,40.83859355272723
pt.ine.add.PTCONT.5480796,R LAJA,,3650-051,QUEIRIGA,-7.746332628914407,40.8054065074381
pt.ine.add.PTCONT.5480797,R BARREIRO,2,3650-051,QUEIRIGA,-7.746713931388161,40.807091702959056
pt.ine.add.PTCONT.5480798,ESTR NACIONAL,,3650-051,QUEIRIGA,-7.7473102779834555,40.79825087220963
