id,street,house,postcode,city,lon,lat
pt.ine.add.PTCONT.849784,AV DE S ROQUE,,5230-010,ALGOSO,-6.573129375816525,41.4701850445887
pt.ine.add.PTCONT.849785,R DA LAGOA,6 A,5230-010,ALGOSO,-6.574356445292886,41.469931578367444
pt.ine.add.PTCONT.849813,R DA ESCOLA,,5230-020,ANGUEIRA,-6.406183116670581,41.61809105795173
pt.ine.add.PTCONT.849814,BR DE BAIXO,71,5230-051,ARGOZELO,-6.5985125277898655,41.642706981569425
pt.ine.add.PTCONT.849815,R DA AVELEIRA,,5230-038,ARGOZELO,-6.599080901873694,41.64455123122462
pt.ine.add.PTCONT.849816,R DO RECOSTO,,5230-053,ARGOZELO,-6.600226752576515,41.63975878807388
pt.ine.add.PTCONT.849817,R DO RECOSTO,,5230-053,ARGOZELO,-6.599361268502291,41.64082763046556
pt.ine.add.PTCONT.849818,LG DE S SEBASTIÃO,,5230-032,ARGOZELO,-6.600987170260709,41.64008404186523
pt.ine.add.PTCONT.849819,R DO CALVÁRIO,,5230-028,ARGOZELO,-6.601938195452699,41.636414386792744
pt.ine.add.PTCONT.849840,BR DAS MINAS,,5230-066,ARGOZELO,-6.6044440821897705,41.646162250546794
pt.ine.add.PTCONT.849841,R DO RIBEIRO,2,5230-090,CAÇARELHOS,-6.435924031807123,41.56459574727473
pt.ine.add.PTCONT.849842,R DO CHAPEIRÃO,16,5230-090,CAÇARELHOS,-6.4360563785333404,41.5636613610615
pt.ine.add.PTCONT.849860,R DA LAGOA,21,5230-100,CAMPO DE VÍBORAS,-6.557182084192062,41.5246184602113
pt.ine.add.PTCONT.849861,BR DE STO ESTEVÃO,,5230-124,CARÇÃO,-6.5827260216648265,41.593760388638046
pt.ine.add.PTCONT.849862,R DA URZEIRA,,5230-158,MATELA VMS,-6.619978540643656,41.51458587841916
pt.ine.add.PTCONT.849882,R PRINCIPAL,,5230-152,MATELA VMS,-6.642612848628308,41.480362174280614
pt.ine.add.PTCONT.849883,R EMPEDRADA,13,5230-181,PINELO,-6.552049291630216,41.637377465168456
pt.ine.add.PTCONT.849884,R DO TANQUE VELHO,3,5230-181,PINELO,-6.552109821917259,41.636865113913714
pt.ine.add.PTCONT.849885,LG DA MISERICÓRDIA,,5230-202,SANTULHÃO,-6.619463749362728,41.564926138747644
pt.ine.add.PTCONT.849901,R DA PRAÇA,7,5230-232,UVA,-6.510415722465699,41.492257992324035
pt.ine.add.PTCONT.849902,R DO RIBEIRO,6,5230-253,VALE DE FRADES,-6.493600513334322,41.64407615203513
pt.ine.add.PTCONT.849903,BR DE S VICENTE,25,5230-342,VIMIOSO,-6.527030570752574,41.5922393901462
pt.ine.add.PTCONT.849928,R ENG ADELINO AMARO DA COSTA,11,5230-331,VIMIOSO,-6.530007063619056,41.58488023982182
pt.ine.add.PTCONT.849929,ESTR DE S JOANICO,,5230-328,VIMIOSO,-6.513119583264011,41.59507827505847
pt.ine.add.PTCONT.849930,LG DA CAPELA,10,5230-309,VIMIOSO,-6.527153908906078,41.58581276832798
pt.ine.add.PTCONT.849931,R DO SERRO,10,5230-334,VIMIOSO,-6.521437480858803,41.58180732596031
pt.ine.add.PTCONT.849932,R DO FUNDO DA VILA,15,5230-327,VIMIOSO,-6.529491538025951,41.58293734088677
pt.ine.add.PTCONT.849953,ESTR CAMPO DE VÍBORAS,5,5230-285,VIMIOSO,-6.529695843332489,41.581949828441225
pt.ine.add.PTCONT.849954,QTA DOS PICADEIROS,,5230-283,VIMIOSO,-6.492745638570411,41.55278897906803
pt.ine.add.PTCONT.850060,ESTR DE S BARTOLOMEU,,5230-048,ARGOZELO,-6.6051638822062495,41.647702373812336
pt.ine.add.PTCONT.850062,ESTR CAMPO DE VÍBORAS,5,5230-285,VIMIOSO,-6.529695843332489,41.581949828441225
pt.ine.add.PTCONT.850101,R DR MANUEL MARIA LOPES,6,5230-125,CARÇÃO,-6.585316780359188,41.59224673460964
pt.ine.add.PTCONT.850102,R DA FONTAÇA,15,5230-181,PINELO,-6.55371715336346,41.637391395441384
pt.ine.add.PTCONT.850149,R DA PRAÇA,16,5230-232,UVA,-6.509791465929916,41.4923212086979
pt.ine.add.PTCONT.850596,R DO PIO,,5230-020,ANGUEIRA,-6.408677628850385,41.614527242113475
pt.ine.add.PTCONT.850597,BR DAS MINAS,,5230-066,ARGOZELO,-6.60391946127139,41.64702858523047
pt.ine.add.PTCONT.850599,EN 218,,5230-073,,-6.6045875475610245,41.65075581010766
pt.ine.add.PTCONT.850600,EN 218,,5230-073,,-6.604268886002002,41.64798757764234
pt.ine.add.PTCONT.850601,R DAS PEREIRAS,6,5230-129,CARÇÃO,-6.586654977771378,41.59346218644396
pt.ine.add.PTCONT.850602,R DO MEIO,20,5230-133,CARÇÃO,-6.587302233437499,41.59297571066911
pt.ine.add.PTCONT.850603,R DAS MILHARADAS,,5230-152,MATELA VMS,-6.64246159488936,41.48173774957987
pt.ine.add.PTCONT.850604,AV DO SABOR,33,5230-201,SANTULHÃO,-6.62131659755759,41.56258263351381
pt.ine.add.PTCONT.850605,R 1 CONDE DE VIMIOSO,17,5230-316,VIMIOSO,-6.527396732658307,41.58424058482112
pt.ine.add.PTCONT.850609,BR DE FONTE COLAÇO,19,5230-328,VIMIOSO,-6.52339695653867,41.59512362892944
pt.ine.add.PTCONT.850610,R DR POLICARPO LIBERAL,8,5230-342,VIMIOSO,-6.527237669487654,41.59259341160863
pt.ine.add.PTCONT.850616,PROLNG DA R DOS BARREIROS,,5230-326,VIMIOSO,-6.527391528032869,41.5907408852184
pt.ine.add.PTCONT.850618,R PADRE BENTO,,5230-061,ARGOZELO,-6.599497620832265,41.64418766012477
pt.ine.add.PTCONT.850619,R DA PRAÇA,20,5230-122,CARÇÃO,-6.586627218240131,41.592615501861935
pt.ine.add.PTCONT.850628,R DO SANTO CRISTO,,5230-100,CAMPO DE VÍBORAS,-6.547890371361893,41.52783998735128
pt.ine.add.PTCONT.850634,LG DA PRAÇA,,5230-051,ARGOZELO,-6.600547290571996,41.64193284554212
pt.ine.add.PTCONT.850635,R DAS EIRAS DAS FIGUEIRAS,,5230-045,ARGOZELO,-6.602245344077976,41.640677016355454
pt.ine.add.PTCONT.850636,R DAS FONTES,,5230-100,CAMPO DE VÍBORAS,-6.555742318433611,41.524211571092394
pt.ine.add.PTCONT.850637,R DE COUPINO,5,5230-181,PINELO,-6.553498364100169,41.635047548662584
pt.ine.add.PTCONT.850638,AV DE ALCANICES,,5230-308,VIMIOSO,-6.529774388445853,41.58798312952172
pt.ine.add.PTCONT.850641,R DO SAGRADO,,5230-054,ARGOZELO,-6.598865147161748,41.64200943663344
pt.ine.add.PTCONT.850642,R DAS CRUZES,9,5230-302,VIMIOSO,-6.531204401150078,41.58640948516512
pt.ine.add.PTCONT.850644,,,5230-010,ALGOSO,-6.579419840060159,41.46993707162855
pt.ine.add.PTCONT.850645,R DA ESCOLA,,5230-253,VALE DE FRADES,-6.491695863250832,41.64345475277649
pt.ine.add.PTCONT.850646,R DAS ALMAS,4,5230-030,ARGOZELO,-6.602255649617279,41.63922763052679
pt.ine.add.PTCONT.850647,R DAS ALMAS,4,5230-030,ARGOZELO,-6.602255649617279,41.63922763052679
pt.ine.add.PTCONT.850648,LG DA ESCOLA,,5230-252,VALE DE FRADES,-6.4606721755131336,41.629421643212126
pt.ine.add.PTCONT.850649,R DA IGREJA,,5230-252,VALE DE FRADES,-6.460447392945094,41.62883316442836
pt.ine.add.PTCONT.850651,BR DE CIMA,64,5230-121,CARÇÃO,-6.5907658159524045,41.596101369248665
pt.ine.add.PTCONT.850652,R DE S JULIÃO,7,5230-209,SANTULHÃO,-6.623345399239923,41.564518010086324
pt.ine.add.PTCONT.850653,R DOS QUEIREDOS,3,5230-329,VIMIOSO,-6.527680023422051,41.57377370473346
pt.ine.add.PTCONT.850659,R PADRE AMÂNDIO LOPES,29,5230-135,CARÇÃO,-6.584946879695797,41.59367327925591
pt.ine.add.PTCONT.850660,R DA IGREJA,,5230-127,CARÇÃO,-6.585674420869638,41.59334095028793
pt.ine.add.PTCONT.850808,R DO VALE,3,5230-134,CARÇÃO,-6.589775404413253,41.59488163219559
pt.ine.add.PTCONT.850809,R DA URZEIRA,,5230-158,MATELA VMS,-6.621257119136275,41.5142065453701
pt.ine.add.PTCONT.850867,R DE S SEBASTIÃO,20,5230-020,ANGUEIRA,-6.406155671103455,41.61372410351457
pt.ine.add.PTCONT.850868,R DO TORRIEIRO,,5230-080,AVELANOSO,-6.419470869805374,41.656355300323405
pt.ine.add.PTCONT.851434,R DE S BARTOLOMEU,,5230-048,ARGOZELO,-6.606382920874481,41.64996038156226
pt.ine.add.PTCONT.851438,R DE S SEBASTIÃO,6,5230-020,ANGUEIRA,-6.407270209387428,41.61466817329297
pt.ine.add.PTCONT.851439,LG DAS OLMEDAS,,5230-080,AVELANOSO,-6.4238343445545,41.65523187612738
pt.ine.add.PTCONT.851440,R DO VALE,16,5230-134,CARÇÃO,-6.589806927746948,41.593558568945696
pt.ine.add.PTCONT.851441,R DA VEIGA,1,5230-270,VILAR SECO VMS,-6.401950580951353,41.52191776506436
pt.ine.add.PTCONT.851442,R DE VALE DE MILHOS,,5230-064,ARGOZELO,-6.603676566962021,41.647655579644464
pt.ine.add.PTCONT.851443,R DE STO AMARO,21,5230-071,ARGOZELO,-6.601873027234807,41.64626307062217
pt.ine.add.PTCONT.851444,R DA COSTANILHA,,5230-080,AVELANOSO,-6.425395180478298,41.65476891348282
pt.ine.add.PTCONT.851445,R DOS GATOS,2,5230-123,CARÇÃO,-6.58688110084657,41.59303306959388
pt.ine.add.PTCONT.851446,R DA PRAÇA,21,5230-122,CARÇÃO,-6.5869228695553295,41.59279054208386
pt.ine.add.PTCONT.851449,R DE STO AMARO,21,5230-071,ARGOZELO,-6.601873027234807,41.64626307062217
pt.ine.add.PTCONT.851453,R DE S ROQUE,,5230-131,CARÇÃO,-6.59220526140154,41.59206018178328
pt.ine.add.PTCONT.851456,R DR TRIGO NEGREIROS,44,5230-326,VIMIOSO,-6.527682600057983,41.588674195723286
pt.ine.add.PTCONT.851460,R DA PIÇARRA,3,5230-090,CAÇARELHOS,-6.434939783357359,41.5614390696982
pt.ine.add.PTCONT.851461,LG DA FONTAZIA,1,5230-090,CAÇARELHOS,-6.4328938900194474,41.55854578706299
pt.ine.add.PTCONT.851462,R DO ALTO DO FETO,,5230-125,CARÇÃO,-6.598234825574056,41.590160122673986
pt.ine.add.PTCONT.851463,LG DAS EIRAS DE CIMA,3,5230-181,PINELO,-6.550116946060657,41.63689170010554
pt.ine.add.PTCONT.851486,R DA SENHORA,,5230-158,MATELA VMS,-6.625194008868913,41.51128710441386
pt.ine.add.PTCONT.851467,R DA BARRACA,,5230-010,ALGOSO,-6.539328780654697,41.497857342289024
pt.ine.add.PTCONT.851468,R PRINCIPAL,,5230-063,ARGOZELO,-6.601494749075893,41.64196348299259
pt.ine.add.PTCONT.851469,AV DE ALCANICES,37,5230-308,VIMIOSO,-6.526448760292785,41.59152000004799
pt.ine.add.PTCONT.851470,R DA PORTELA,23,5230-321,VIMIOSO,-6.525548589377444,41.5847819602818
pt.ine.add.PTCONT.851473,BR DO NAVARRO,6,5230-305,VIMIOSO,-6.52940115440238,41.58852712330019
pt.ine.add.PTCONT.851474,BR DO NAVARRO,6,5230-305,VIMIOSO,-6.52940115440238,41.58852712330019
pt.ine.add.PTCONT.851475,R DO CERRADICO,,5230-305,VIMIOSO,-6.53178884201183,41.58799320419034
pt.ine.add.PTCONT.851478,R DO RIBEIRO,,5230-231,UVA,-6.516832055622993,41.474035377044444
pt.ine.add.PTCONT.851480,CAM DO CAMPO,40,5230-010,ALGOSO,-6.573705142735874,41.47263279631032
pt.ine.add.PTCONT.851481,R DIREITA,,5230-210,SANTULHÃO,-6.625642699044652,41.56161305781407
pt.ine.add.PTCONT.851482,R DAS EIRAS DE BAIXO,4,5230-253,VALE DE FRADES,-6.493955859317914,41.643315950155134
pt.ine.add.PTCONT.851487,R DA CRUZ,,5230-204,SANTULHÃO,-6.620451540817323,41.565749443562666
pt.ine.add.PTCONT.851489,ESTR DO CARVALHAL,,5230-124,CARÇÃO,-6.588726490302963,41.59913511041819
pt.ine.add.PTCONT.851492,R DO TORRIEIRO,,5230-080,AVELANOSO,-6.418807152810543,41.65558013446232
pt.ine.add.PTCONT.851493,R DAS CALÇADAS,,5230-080,AVELANOSO,-6.420482220543075,41.65624433424689
pt.ine.add.PTCONT.851495,R PADRE AMÂNDIO LOPES,,5230-135,CARÇÃO,-6.585356888686529,41.5935797644361
pt.ine.add.PTCONT.851496,R DIREITA,,5230-210,SANTULHÃO,-6.622414783529896,41.56381252509878
pt.ine.add.PTCONT.851497,R DE S JOÃO,,5230-251,VALE DE FRADES,-6.471187285649482,41.60874075405047
pt.ine.add.PTCONT.851627,R DAS EIRAS,53,5230-100,CAMPO DE VÍBORAS,-6.556195156281557,41.52283125987931
pt.ine.add.PTCONT.851646,R DA PORTELA,69,5230-321,VIMIOSO,-6.523457086378608,41.58546395082181
pt.ine.add.PTCONT.851673,BR DE S VICENTE,14,5230-342,VIMIOSO,-6.526672689084589,41.592162362752276
pt.ine.add.PTCONT.851674,R DE NSA SRA DA ASCENSÃO,3,5230-010,ALGOSO,-6.576299898627588,41.47025501842116
pt.ine.add.PTCONT.851675,R DAS EIRIÇAS,,5230-080,AVELANOSO,-6.428641617747068,41.65639266233924
pt.ine.add.PTCONT.852421,R ORRRETA BARREIRO,,5230-090,CAÇARELHOS,-6.437499132787464,41.561665918117434
pt.ine.add.PTCONT.852211,LG DAS OLMEDAS,,5230-080,AVELANOSO,-6.423415060324122,41.6551986291705
pt.ine.add.PTCONT.852212,R DE BAIXO,,5230-080,AVELANOSO,-6.4252705352450965,41.65539728041866
pt.ine.add.PTCONT.852213,R ABADE DE BAÇAL,18 A,5230-304,VIMIOSO,-6.529514682532144,41.58490938496674
pt.ine.add.PTCONT.852214,R ENG ADELINO AMARO DA COSTA,5,5230-331,VIMIOSO,-6.530121150094147,41.58511591645571
pt.ine.add.PTCONT.852222,BR DE CIMA,7,5230-121,CARÇÃO,-6.588536712274016,41.593010312167976
pt.ine.add.PTCONT.852225,R DAS ARRAS,,5230-043,ARGOZELO,-6.597346445255145,41.645311347667786
pt.ine.add.PTCONT.852226,R DE S ROQUE,,5230-131,CARÇÃO,-6.591435593282916,41.59214889789309
pt.ine.add.PTCONT.852233,R DO VALE,9,5230-134,CARÇÃO,-6.590239606602874,41.594023546289954
pt.ine.add.PTCONT.852236,R DA BARRACA,,5230-010,ALGOSO,-6.53919643132847,41.497882518075116
pt.ine.add.PTCONT.852238,R PRINCIPAL,,5230-063,ARGOZELO,-6.600917011665189,41.64304517447695
pt.ine.add.PTCONT.852239,R DO TRONCO,,5230-055,ARGOZELO,-6.601875442153911,41.64159942287251
pt.ine.add.PTCONT.852240,R DA PORTELA,77,5230-321,VIMIOSO,-6.523122998091731,41.58539624891997
pt.ine.add.PTCONT.852243,R DAS FONTES,,5230-100,CAMPO DE VÍBORAS,-6.553521345352759,41.524892348006084
pt.ine.add.PTCONT.852244,R DAS FONTES,,5230-100,CAMPO DE VÍBORAS,-6.555148033042911,41.524509531903945
pt.ine.add.PTCONT.852245,R DA FONTE,20,5230-253,VALE DE FRADES,-6.49318311204467,41.64491649582329
pt.ine.add.PTCONT.852246,R DR FRANCISCO SÁ CARNEIRO,27,5230-330,VIMIOSO,-6.529250073020631,41.587363591278866
pt.ine.add.PTCONT.852247,R PRINCIPAL,119,5230-063,ARGOZELO,-6.600873271722899,41.64083879616231
pt.ine.add.PTCONT.852248,R FRANCISCO ALEXANDRE,,5230-217,SANTULHÃO,-6.616379796907795,41.564030171897315
pt.ine.add.PTCONT.852256,R PRINCIPAL,,5230-063,ARGOZELO,-6.60059843039205,41.641294297052454
pt.ine.add.PTCONT.852260,BR CONS CASIMIRO PIRES,22,5230-341,VIMIOSO,-6.528303120142777,41.586378019245586
pt.ine.add.PTCONT.852262,R PADRE AMÂNDIO LOPES,14,5230-135,CARÇÃO,-6.585681465110989,41.59354812121695
pt.ine.add.PTCONT.852263,R DA PORTELA,,5230-157,MATELA VMS,-6.630880973100555,41.51088435956474
pt.ine.add.PTCONT.852264,R DA PORTELA,,5230-157,MATELA VMS,-6.630880973100555,41.51088435956474
pt.ine.add.PTCONT.852265,LG DA MISERICÓRDIA,6,5230-202,SANTULHÃO,-6.6199645854614335,41.5655539643752
pt.ine.add.PTCONT.852266,LG DA MISERICÓRDIA,,5230-202,SANTULHÃO,-6.619915387149415,41.56560733699481
pt.ine.add.PTCONT.852267,R DO CABECICO,5,5230-322,VIMIOSO,-6.530979739520322,41.579005644986886
pt.ine.add.PTCONT.852268,LG DA PONTE DE ANGUEIRA,1,5230-282,VIMIOSO,-6.497404555768086,41.57098802399269
pt.ine.add.PTCONT.852269,QTA DAS FURNAS,,5230-282,VIMIOSO,-6.494533057067371,41.56269110310097
pt.ine.add.PTCONT.852272,R DO CASCALHAL,,5230-251,VALE DE FRADES,-6.4729645867405905,41.60866740429783
pt.ine.add.PTCONT.852274,R DAS EIRAS,,5230-020,ANGUEIRA,-6.406709419801264,41.615902189670116
pt.ine.add.PTCONT.852275,R DO EIRÓ,,5230-156,MATELA VMS,-6.629363240885834,41.510216272618415
pt.ine.add.PTCONT.852418,R DA ESCOLA,,5230-020,ANGUEIRA,-6.407176875079091,41.61681853176631
pt.ine.add.PTCONT.852419,R DAS EIRAS DAS FIGUEIRAS,,5230-045,ARGOZELO,-6.601814107618948,41.641148443297354
pt.ine.add.PTCONT.852420,R DO TORRIEIRO,,5230-080,AVELANOSO,-6.420146858949745,41.655762169606255
pt.ine.add.PTCONT.852490,ESTR CAMPO DE VÍBORAS,9,5230-285,VIMIOSO,-6.529841914364385,41.581861832929455
pt.ine.add.PTCONT.852491,ESTR CAMPO DE VÍBORAS,9,5230-285,VIMIOSO,-6.529841914364385,41.581861832929455
pt.ine.add.PTCONT.852506,R DAS EIRAS DAS FIGUEIRAS,16,5230-045,ARGOZELO,-6.601544518341126,41.64117965109874
pt.ine.add.PTCONT.853007,R DA CALÇADA,7,5230-318,VIMIOSO,-6.527340976451859,41.584554921137176
pt.ine.add.PTCONT.853009,LG DE S PEDRO,,5230-080,AVELANOSO,-6.426178257016651,41.65557282413219
pt.ine.add.PTCONT.853010,R DO VALE,18,5230-134,CARÇÃO,-6.589766455891425,41.59374709506357
pt.ine.add.PTCONT.853011,R DO CARREIRÃO,2,5230-270,VILAR SECO VMS,-6.405550818878768,41.52483497137943
pt.ine.add.PTCONT.853012,R DA IGREJA,11,5230-270,VILAR SECO VMS,-6.407293186566214,41.52193506268657
pt.ine.add.PTCONT.853013,R ABADE DE BAÇAL,6,5230-304,VIMIOSO,-6.529991698709946,41.585501252652264
pt.ine.add.PTCONT.853015,AV DO SABOR,,5230-201,SANTULHÃO,-6.621864266249371,41.56222969944076
pt.ine.add.PTCONT.853020,R DO VALE,3,5230-134,CARÇÃO,-6.588373612379669,41.592305862140904
pt.ine.add.PTCONT.853021,R DA CALÇADA,3,5230-270,VILAR SECO VMS,-6.406521031229588,41.522139548979695
pt.ine.add.PTCONT.853022,R ABEL AUGUSTO MORENO,6,5230-090,CAÇARELHOS,-6.438778666531176,41.563161321508595
pt.ine.add.PTCONT.853023,BR DE VALE DE COVO,,5230-306,VIMIOSO,-6.528116443312855,41.59439733801477
pt.ine.add.PTCONT.853028,R DO VALE DA VACA,,5230-201,SANTULHÃO,-6.617399066845749,41.547090250680164
pt.ine.add.PTCONT.853030,R DO LAGARTINHO,11,5230-232,UVA,-6.509418528108361,41.49382851682356
pt.ine.add.PTCONT.853038,LG ESPADANA,,5230-034,ARGOZELO,-6.600643707612267,41.643941854672505
pt.ine.add.PTCONT.853039,R DO ALVAREDO,2,5230-181,PINELO,-6.550740039387395,41.63644111647317
pt.ine.add.PTCONT.853041,AV DE ALCANICES,18,5230-308,VIMIOSO,-6.528261380582174,41.58854722874748
pt.ine.add.PTCONT.853044,BR DA QUINTA,,5230-128,CARÇÃO,-6.58313142400175,41.588345862951606
pt.ine.add.PTCONT.853046,R DE STO ANTÓNIO,,5230-010,ALGOSO,-6.576878605992441,41.4700827813113
pt.ine.add.PTCONT.853047,R DO CASTELO,,5230-010,ALGOSO,-6.577089877201902,41.469257319492954
pt.ine.add.PTCONT.853048,R PRINCIPAL,,5230-063,ARGOZELO,-6.601523191032177,41.639749063179266
pt.ine.add.PTCONT.853049,R DO SAGRADO,,5230-054,ARGOZELO,-6.599001188071725,41.641840191076646
pt.ine.add.PTCONT.853050,R DAS FONTES,,5230-100,CAMPO DE VÍBORAS,-6.555339053563206,41.52404397689748
pt.ine.add.PTCONT.853051,R DO FUNDO,,5230-151,MATELA VMS,-6.614599781524838,41.51613558925013
pt.ine.add.PTCONT.853052,R DA GUERRA,,5230-158,MATELA VMS,-6.614179802225469,41.51616605579798
pt.ine.add.PTCONT.853055,R DA LAGOA,,5230-010,ALGOSO,-6.57382905111576,41.46996044279446
pt.ine.add.PTCONT.853056,R DO CRUZEIRO,,5230-025,ARGOZELO,-6.600843662840556,41.63854257295576
pt.ine.add.PTCONT.853057,R DO CALVÁRIO,27,5230-028,ARGOZELO,-6.602120848478157,41.637317145511595
pt.ine.add.PTCONT.853059,R DAS CALÇADAS,,5230-080,AVELANOSO,-6.422402479957655,41.65626393481326
pt.ine.add.PTCONT.853060,R DAS EIRAS,,5230-251,VALE DE FRADES,-6.4689360999656,41.608582135058874
pt.ine.add.PTCONT.853061,R DA BEIRA RIO,,5230-251,VALE DE FRADES,-6.470472900438311,41.60806418320927
pt.ine.add.PTCONT.853229,R DA MATELA,,5230-208,SANTULHÃO,-6.622995783760972,41.56202848752762
pt.ine.add.PTCONT.853739,BR DAS TALHINHAS,,5230-210,SANTULHÃO,-6.623794094678722,41.562237045477
pt.ine.add.PTCONT.853727,R CONS JOSÉ ALPOIM,16,5230-317,VIMIOSO,-6.527947708724847,41.58426628674122
pt.ine.add.PTCONT.853728,BR DAS MINAS,,5230-066,ARGOZELO,-6.6042154541999905,41.646330411174816
pt.ine.add.PTCONT.853729,BR DAS MINAS,,5230-066,ARGOZELO,-6.6042154541999905,41.646330411174816
pt.ine.add.PTCONT.853730,R DO FUNDO DO POVO,,5230-152,MATELA VMS,-6.6444842190419955,41.48281735894916
pt.ine.add.PTCONT.853731,R ABADE DE BAÇAL,10,5230-304,VIMIOSO,-6.529850296281874,41.58540024427768
pt.ine.add.PTCONT.853733,R DE SAYAGO,5,5230-020,ANGUEIRA,-6.408597036499821,41.61394982912072
pt.ine.add.PTCONT.853734,BR DO QUINTANAS,9,5230-090,CAÇARELHOS,-6.43179920334291,41.564633809439286
pt.ine.add.PTCONT.853735,R DA IGREJA,,5230-152,MATELA VMS,-6.642803113860378,41.48041866112193
pt.ine.add.PTCONT.853736,R PRINCIPAL,,5230-152,MATELA VMS,-6.642337357138413,41.48036760687458
pt.ine.add.PTCONT.853740,R DOS GATOS,,5230-325,VIMIOSO,-6.528458536533463,41.58397631033232
pt.ine.add.PTCONT.853742,R DE S JOSÉ,2,5230-090,CAÇARELHOS,-6.433313022366552,41.56084782054088
pt.ine.add.PTCONT.853744,R JOSÉ MACHADO,,5230-057,ARGOZELO,-6.600991462836905,41.643955494635996
pt.ine.add.PTCONT.853745,R DE S BARTOLOMEU,25,5230-048,ARGOZELO,-6.601883731865958,41.64276995525913
pt.ine.add.PTCONT.853748,R DA CABREIRA,15,5230-039,ARGOZELO,-6.601476141987976,41.64224233562176
pt.ine.add.PTCONT.853749,R DA PORTELA,15,5230-321,VIMIOSO,-6.526004561723273,41.58477032968406
pt.ine.add.PTCONT.853752,EN 219,,5230-010,ALGOSO,-6.575380458226832,41.47515846772426
pt.ine.add.PTCONT.853753,R DO TOURAL,,5230-010,ALGOSO,-6.571790017321913,41.47162543253856
pt.ine.add.PTCONT.853754,R DO VALE FALCÃO,8,5230-126,CARÇÃO,-6.588162344579744,41.59160976773048
pt.ine.add.PTCONT.853757,CAM DO CAMPO,41,5230-010,ALGOSO,-6.574735500293593,41.47209755091188
pt.ine.add.PTCONT.853759,CAM DO CAMPO,,5230-010,ALGOSO,-6.574844818857778,41.47153181297502
pt.ine.add.PTCONT.853760,R DR FRANCISCO SÁ CARNEIRO,4,5230-332,VIMIOSO,-6.529611799197645,41.58631525313039
pt.ine.add.PTCONT.853762,R DA ESCOLA,1,5230-253,VALE DE FRADES,-6.492038436663126,41.64319855291089
pt.ine.add.PTCONT.853763,R DA RAPADOURA,3 C,5230-322,VIMIOSO,-6.5274345351961225,41.58174720061743
pt.ine.add.PTCONT.853766,R DO RECOSTO,,5230-053,ARGOZELO,-6.599845848137438,41.640131843271426
pt.ine.add.PTCONT.853767,R DO CALVÁRIO,30,5230-028,ARGOZELO,-6.602944077739138,41.6380303630003
pt.ine.add.PTCONT.853768,EM 542,8,5230-253,VALE DE FRADES,-6.493702300348343,41.643375355526416
pt.ine.add.PTCONT.853769,LG DA IGREJA,,5230-252,VALE DE FRADES,-6.460726309094805,41.62872018209164
pt.ine.add.PTCONT.853770,ESTR CAMPO DE VÍBORAS,3,5230-285,VIMIOSO,-6.530949140630724,41.582183382955556
pt.ine.add.PTCONT.853771,R DA SERRA,,5230-251,VALE DE FRADES,-6.468969452987132,41.609617988764874
pt.ine.add.PTCONT.853774,R DO CANCELO,1,5230-158,MATELA VMS,-6.633359506721009,41.50936811943581
pt.ine.add.PTCONT.853775,R DO CEREJAL,5,5230-212,SANTULHÃO,-6.621838365138876,41.56539854524351
pt.ine.add.PTCONT.853778,R DAS EIRAS,,5230-158,MATELA VMS,-6.62389416712358,41.5105227647227
pt.ine.add.PTCONT.853779,R DE S JOÃO,,5230-251,VALE DE FRADES,-6.472828293467,41.608836496855865
pt.ine.add.PTCONT.853780,R CONS JOSÉ ALPOIM,60,5230-317,VIMIOSO,-6.527878969820498,41.58558881057734
pt.ine.add.PTCONT.853916,R DE STO AMARO,5,5230-071,ARGOZELO,-6.601036015916772,41.645760985494505
pt.ine.add.PTCONT.853919,R DE S BARTOLOMEU,25,5230-048,ARGOZELO,-6.601883731865958,41.64276995525913
pt.ine.add.PTCONT.853994,ESTR DA MATELA,,5230-208,SANTULHÃO,-6.621945969828063,41.56078123031725
pt.ine.add.PTCONT.853995,R DA MATELA,3,5230-208,SANTULHÃO,-6.623327311142624,41.56169071374501
pt.ine.add.PTCONT.853996,BR DE FONTE COLAÇO,13,5230-328,VIMIOSO,-6.5235521386067985,41.59273993408094
pt.ine.add.PTCONT.853997,BR DE FONTE COLAÇO,13,5230-328,VIMIOSO,-6.5235521386067985,41.59273993408094
pt.ine.add.PTCONT.854066,R DA FONTE,,5230-090,CAÇARELHOS,-6.435653024351609,41.56258401631373
pt.ine.add.PTCONT.854067,R DO CRUZEIRO,3,5230-090,CAÇARELHOS,-6.43609877530253,41.56204139793782
pt.ine.add.PTCONT.854068,AV DO SANTO CRISTO,40,5230-100,CAMPO DE VÍBORAS,-6.548453296815523,41.52784774734318
pt.ine.add.PTCONT.854164,EN 317,,5230-201,SANTULHÃO,-6.629490106230715,41.559052463787495
pt.ine.add.PTCONT.854114,AV DO SANTO CRISTO,,5230-100,CAMPO DE VÍBORAS,-6.554760412252515,41.52271253604579
pt.ine.add.PTCONT.854115,BR DE CIMA,3,5230-121,CARÇÃO,-6.587968090866158,41.59271456400074
pt.ine.add.PTCONT.854158,R DO PORDOMINGO,,5230-160,MATELA VMS,-6.630734377072846,41.512043889478
pt.ine.add.PTCONT.854159,R DA IGREJA,,5230-152,MATELA VMS,-6.642677643740938,41.48014692998451
pt.ine.add.PTCONT.854160,R DAS EIRIÇAS,3,5230-182,PINELO,-6.544992232998961,41.67256369497955
pt.ine.add.PTCONT.854161,LG DAS EIRIÇAS,11,5230-181,PINELO,-6.5551251855325186,41.63624932073151
pt.ine.add.PTCONT.854162,R DA CRUZ,,5230-204,SANTULHÃO,-6.6207639787350185,41.56571754079304
pt.ine.add.PTCONT.854163,R DIREITA,142,5230-210,SANTULHÃO,-6.626125064867795,41.56045794641954
pt.ine.add.PTCONT.854211,R DA ESCOLA VELHA,10,5230-253,VALE DE FRADES,-6.49530576199641,41.64593711779181
pt.ine.add.PTCONT.854212,R DA FONTE,,5230-252,VALE DE FRADES,-6.461226023038431,41.628421344357236
pt.ine.add.PTCONT.854213,LG DA CAPELA,8,5230-270,VILAR SECO VMS,-6.4051836443477095,41.52602689357316
pt.ine.add.PTCONT.854214,R DO RIBEIRO,3,5230-270,VILAR SECO VMS,-6.404975734020831,41.52843665448702
pt.ine.add.PTCONT.854251,R DO MEIO DO LUGAR,5,5230-270,VILAR SECO VMS,-6.404957780857393,41.525060144820756
pt.ine.add.PTCONT.854252,R DR POLICARPO LIBERAL,1,5230-342,VIMIOSO,-6.527514473839233,41.593038439186685
pt.ine.add.PTCONT.854253,BR DE VALE DE COVO,31,5230-306,VIMIOSO,-6.5269553276463625,41.5938229157984
pt.ine.add.PTCONT.854254,AV DAS CRUZES,,5230-302,VIMIOSO,-6.532103332464359,41.58497247925375
pt.ine.add.PTCONT.854255,R 1 CONDE DE VIMIOSO,,5230-316,VIMIOSO,-6.528748285617351,41.58341314736523
pt.ine.add.PTCONT.854290,R DA FONTE NOVA,,5230-319,VIMIOSO,-6.52533228784984,41.583833589559404
pt.ine.add.PTCONT.854587,R DA BARRACA,,5230-010,ALGOSO,-6.5406052645507575,41.49756891128705
pt.ine.add.PTCONT.854617,R DO VALE,26,5230-010,ALGOSO,-6.57688746846018,41.47071314505862
pt.ine.add.PTCONT.854618,R DO VALE DA FONTE MOREIRA,,5230-010,ALGOSO,-6.57696379024733,41.4705251046802
pt.ine.add.PTCONT.854619,R DO CASTELO,,5230-010,ALGOSO,-6.5761995217369655,41.469947541136655
pt.ine.add.PTCONT.854620,R DO CASTELO,12,5230-010,ALGOSO,-6.576407046438466,41.469779284218696
pt.ine.add.PTCONT.854621,R LATEDO DE BAIXO,,5230-058,ARGOZELO,-6.599060616013035,41.645406268254284
pt.ine.add.PTCONT.854622,R DR DOMINGOS CEPEDA,,5230-042,ARGOZELO,-6.6007657202227685,41.64284508593525
pt.ine.add.PTCONT.854664,R DA IGREJA,,5230-042,ARGOZELO,-6.6002531894937455,41.64269419896631
pt.ine.add.PTCONT.854665,R DO RECOSTO,19,5230-053,ARGOZELO,-6.599526638122085,41.64043369447979
pt.ine.add.PTCONT.854666,R NOVA,,5230-060,ARGOZELO,-6.601966974008434,41.6402681617691
pt.ine.add.PTCONT.854667,R NOVA,,5230-060,ARGOZELO,-6.601966974008434,41.6402681617691
pt.ine.add.PTCONT.854668,R DO ALTO TORRIEIRO,,5230-080,AVELANOSO,-6.419350868430094,41.65635351068992
pt.ine.add.PTCONT.854716,R DE S BARTOLOMEU,3,5230-048,ARGOZELO,-6.60412757697637,41.64736447418264
pt.ine.add.PTCONT.854722,R DAS 4 ESQUINAS,8,5230-047,ARGOZELO,-6.601354936293302,41.642798921377114
pt.ine.add.PTCONT.854733,R DA PONTE GRANDE,,5230-252,VALE DE FRADES,-6.459302605160919,41.6294827329549
pt.ine.add.PTCONT.854804,AV DA IMACULADA CONCEIÇÃO,,5230-080,AVELANOSO,-6.4261616189184005,41.656202796320585
pt.ine.add.PTCONT.854810,R RAPADOURA,10,5230-322,VIMIOSO,-6.5325431998554055,41.58221459334351
pt.ine.add.PTCONT.855330,R DO VALE,,5230-010,ALGOSO,-6.575957291301092,41.47056550189527
pt.ine.add.PTCONT.855303,R DO CHAPAÇAL,20,5230-270,VILAR SECO VMS,-6.405195620669365,41.52692740423638
pt.ine.add.PTCONT.855313,R 1 CONDE DE VIMIOSO,,5230-316,VIMIOSO,-6.527499545705447,41.58396291893809
pt.ine.add.PTCONT.855316,R DA MÃE DE ÁGUA,5,5230-182,PINELO,-6.543625250804821,41.67394928863075
pt.ine.add.PTCONT.855317,AV DO SABOR,46,5230-201,SANTULHÃO,-6.623499274940493,41.5615129045256
pt.ine.add.PTCONT.855318,R DO CHAPEIRÃO,,5230-090,CAÇARELHOS,-6.43595424511034,41.56252544096357
pt.ine.add.PTCONT.855319,R DIREITA,153,5230-210,SANTULHÃO,-6.625796427556561,41.56015652654211
pt.ine.add.PTCONT.855320,R DAS FREIRAS,23,5230-323,VIMIOSO,-6.5262639161523905,41.58591737324594
pt.ine.add.PTCONT.855327,R DA CABREIRA,,5230-039,ARGOZELO,-6.601149834306249,41.6423370220006
pt.ine.add.PTCONT.855331,R DAS EIRAS DAS FIGUEIRAS,3,5230-045,ARGOZELO,-6.602027882777429,41.640737142151245
pt.ine.add.PTCONT.855336,R DO VALE,,5230-010,ALGOSO,-6.576536433002826,41.470375265446
pt.ine.add.PTCONT.855337,R DO CALVÁRIO,,5230-028,ARGOZELO,-6.60274650381295,41.63775763466939
pt.ine.add.PTCONT.855338,R DAS FONTES,,5230-100,CAMPO DE VÍBORAS,-6.555974681449452,41.52401668398603
pt.ine.add.PTCONT.855339,R DA GUERRA,,5230-158,MATELA VMS,-6.614137583867051,41.515922405308324
pt.ine.add.PTCONT.855340,EN 218,2 A,5230-341,VIMIOSO,-6.532193330841116,41.58278593214114
pt.ine.add.PTCONT.855341,ESTR CAMPO DE VÍBORAS,32,5230-285,VIMIOSO,-6.530532160199732,41.573345330429795
pt.ine.add.PTCONT.855344,R DO CASTELO,,5230-010,ALGOSO,-6.576114247467504,41.470009411049645
pt.ine.add.PTCONT.855345,R DO PRADO,,5230-251,VALE DE FRADES,-6.469332675939081,41.60948819901288
pt.ine.add.PTCONT.855348,R DO CALVÁRIO,,5230-028,ARGOZELO,-6.601928654295935,41.63884513780254
pt.ine.add.PTCONT.855460,R DAS FONTES,15,5230-100,CAMPO DE VÍBORAS,-6.555246470034659,41.52440284211586
pt.ine.add.PTCONT.855461,R DAS EIRAS DAS FIGUEIRAS,,5230-045,ARGOZELO,-6.601745314232773,41.64101247793371
pt.ine.add.PTCONT.855470,LG ESPADANA,43,5230-034,ARGOZELO,-6.600878085221978,41.6436748825291
pt.ine.add.PTCONT.855495,R DAS EIRAS DAS FIGUEIRAS,3,5230-045,ARGOZELO,-6.602027882777429,41.640737142151245
pt.ine.add.PTCONT.855501,R DR MANUEL MARIA LOPES,,5230-125,CARÇÃO,-6.586375872290142,41.592594113346145
pt.ine.add.PTCONT.855518,R DR FRANCISCO SÁ CARNEIRO,,5230-330,VIMIOSO,-6.529061785267978,41.587703088843675
pt.ine.add.PTCONT.855556,ESTR DA MATELA,,5230-208,SANTULHÃO,-6.622595392300163,41.5606907279715
pt.ine.add.PTCONT.855557,AV DO SANTO CRISTO,,5230-100,CAMPO DE VÍBORAS,-6.549452668607104,41.527645435760626
pt.ine.add.PTCONT.855558,AV DA IMACULADA CONCEIÇÃO,,5230-080,AVELANOSO,-6.423849499338873,41.656474533794366
pt.ine.add.PTCONT.855580,R DOS CANIÇOS,,5230-231,UVA,-6.5183269450818395,41.47457857737895
pt.ine.add.PTCONT.855581,R DA IGREJA,10,5230-270,VILAR SECO VMS,-6.406726763527159,41.52206160855596
pt.ine.add.PTCONT.855589,R DAS CRUZES,,5230-302,VIMIOSO,-6.532628785924797,41.585060826315285
pt.ine.add.PTCONT.855590,BR CONS CASIMIRO PIRES,13,5230-341,VIMIOSO,-6.529021098007067,41.58595588305096
pt.ine.add.PTCONT.855591,R ABADE DE BAÇAL,8,5230-304,VIMIOSO,-6.529933319148009,41.58543741540223
pt.ine.add.PTCONT.855596,R DAS FREIRAS,39,5230-323,VIMIOSO,-6.524307681851065,41.58598004309585
pt.ine.add.PTCONT.855597,R DA FONTE NOVA,2,5230-319,VIMIOSO,-6.5269854269351475,41.58390171671223
pt.ine.add.PTCONT.855598,R DA PORTELA,14,5230-321,VIMIOSO,-6.524872002467919,41.58450239736372
pt.ine.add.PTCONT.855655,ESTR MUNICIPAL,,5230-010,ALGOSO,-6.543237458927517,41.49766835895951
pt.ine.add.PTCONT.855656,EN 219,,5230-010,ALGOSO,-6.578068034784059,41.473907343216666
pt.ine.add.PTCONT.855657,R DA ESCOLA,,5230-020,ANGUEIRA,-6.406698115540578,41.617225487146115
pt.ine.add.PTCONT.855664,R DA ESCOLA,,5230-020,ANGUEIRA,-6.407258650433711,41.61780110621482
pt.ine.add.PTCONT.855666,LG DE S SEBASTIÃO,,5230-032,ARGOZELO,-6.600977517627644,41.63998487744795
pt.ine.add.PTCONT.855667,R DO CRUZEIRO,3,5230-025,ARGOZELO,-6.601121805419831,41.638960430544316
pt.ine.add.PTCONT.855668,R DR ADRIÃO MARTINS AMADO,4,5230-064,ARGOZELO,-6.601896323574767,41.645786209302514
pt.ine.add.PTCONT.855669,BR DO QUINTANAS,8,5230-090,CAÇARELHOS,-6.432063778845671,41.564601711806574
pt.ine.add.PTCONT.855670,R DO RODELO,,5230-090,CAÇARELHOS,-6.437590994111203,41.56182032873356
pt.ine.add.PTCONT.855674,R DA IGREJA,3,5230-090,CAÇARELHOS,-6.435105147854338,41.56199071211344
pt.ine.add.PTCONT.855675,R DA IGREJA,21,5230-100,CAMPO DE VÍBORAS,-6.555408623343873,41.52512533870466
pt.ine.add.PTCONT.855676,R DA LAGOA,24,5230-100,CAMPO DE VÍBORAS,-6.557334285221624,41.52476460055881
pt.ine.add.PTCONT.855677,AV DE S TIAGO,,5230-100,CAMPO DE VÍBORAS,-6.556812758300677,41.522065436513614
pt.ine.add.PTCONT.855678,R DAS EIRAS,,5230-100,CAMPO DE VÍBORAS,-6.556239475355542,41.52396629549262
pt.ine.add.PTCONT.855679,R DAS PENEDAS,27,5230-129,CARÇÃO,-6.585737870919567,41.59470130392971
pt.ine.add.PTCONT.855680,R DE S ROQUE,,5230-131,CARÇÃO,-6.591563405714026,41.592321675017345
pt.ine.add.PTCONT.855681,R DO CARRO CASTELO,6,5230-181,PINELO,-6.555325907616798,41.63736847711078
pt.ine.add.PTCONT.855682,EN 218 2,2,5230-181,PINELO,-6.547804385136161,41.63576142926447
pt.ine.add.PTCONT.855683,R FRANCISCO ALEXANDRE,5,5230-217,SANTULHÃO,-6.616032886750804,41.563998584296925
pt.ine.add.PTCONT.856187,R PRINCIPAL,,5230-010,ALGOSO,-6.53887297837719,41.49788703750163
pt.ine.add.PTCONT.856233,LOTEAM MUNICIPA DE S.VICENTE EM VIMIOSO,,5230-999,VIMIOSO,-6.527503880917208,41.59249809446222
pt.ine.add.PTCONT.856293,R DA MATELA,,5230-208,SANTULHÃO,-6.623041204181672,41.562137124634596
pt.ine.add.PTCONT.856312,BR DE BAIXO,,5230-051,ARGOZELO,-6.598256069450404,41.642892624822494
pt.ine.add.PTCONT.856820,R DA SENHORA,,5230-158,MATELA VMS,-6.627507635545779,41.51017398377139
pt.ine.add.PTCONT.856821,R DA SERRA,,5230-152,MATELA VMS,-6.63935604348585,41.48089614153297
pt.ine.add.PTCONT.856822,R DA IGREJA,,5230-152,MATELA VMS,-6.6427814448244185,41.480319341776976
pt.ine.add.PTCONT.856825,R DAS CATRINAS,,5230-044,ARGOZELO,-6.601169500433241,41.64569974228279
pt.ine.add.PTCONT.856826,R DIREITA,135,5230-210,SANTULHÃO,-6.625478064433493,41.56147584824481
pt.ine.add.PTCONT.856828,R PRINCIPAL,,5230-063,ARGOZELO,-6.600999836340465,41.64410866139218
pt.ine.add.PTCONT.856830,R DA BARRACA,,5230-010,ALGOSO,-6.539626083689291,41.497942493434955
pt.ine.add.PTCONT.856831,R DO ALECRIM,,5230-050,ARGOZELO,-6.600114212366088,41.64349363385319
pt.ine.add.PTCONT.856834,R 25 DE ABRIL,5,5230-124,CARÇÃO,-6.586647759506942,41.590247907169775
pt.ine.add.PTCONT.856835,AV DO SANTO CRISTO,,5230-100,CAMPO DE VÍBORAS,-6.5540064436397305,41.523665546661036
pt.ine.add.PTCONT.856836,BR DA QUINTA,17,5230-128,CARÇÃO,-6.5839809366914235,41.59143644784528
pt.ine.add.PTCONT.856837,R DO VILARINHO,10,5230-253,VALE DE FRADES,-6.492721896693679,41.64417165191262
pt.ine.add.PTCONT.856838,R DA PORTELA,26,5230-321,VIMIOSO,-6.5239240163471495,41.58501132082266
pt.ine.add.PTCONT.856840,R DO CASTELO,,5230-010,ALGOSO,-6.577457911526084,41.468884152083035
pt.ine.add.PTCONT.856841,R DA IGREJA,,5230-252,VALE DE FRADES,-6.460954451824961,41.62871449862483
pt.ine.add.PTCONT.856844,R DO TORRIEIRO,,5230-080,AVELANOSO,-6.4231328218760035,41.65633782729138
pt.ine.add.PTCONT.856845,ESTR DO CARVALHAL,,5230-124,CARÇÃO,-6.586805513270572,41.59820895370645
pt.ine.add.PTCONT.856846,LG DA MISERICÓRDIA,,5230-202,SANTULHÃO,-6.620061511649503,41.565510223285
pt.ine.add.PTCONT.856849,R DA PORTELA,18,5230-157,MATELA VMS,-6.631415154840182,41.51161161328373
pt.ine.add.PTCONT.856850,R DO PORDOMINGO,6,5230-160,MATELA VMS,-6.630404808039405,41.51127428959846
pt.ine.add.PTCONT.856851,R DA RIBEIRA,,5230-251,VALE DE FRADES,-6.470047618880084,41.608742275447575
pt.ine.add.PTCONT.856852,R ABADE DE BAÇAL,23,5230-304,VIMIOSO,-6.529061160283603,41.584822027479085
pt.ine.add.PTCONT.856854,R DIREITA,,5230-210,SANTULHÃO,-6.622147565867778,41.56396207057011
pt.ine.add.PTCONT.856970,R EIRAS DAS FIGUEIRAS,,5230-039,ARGOZELO,-6.602216513476334,41.64138788886123
pt.ine.add.PTCONT.857569,R DA SANÇA,,5230-020,ANGUEIRA,-6.410128247704289,41.6154673232714
pt.ine.add.PTCONT.857571,AV DO SABOR,23,5230-201,SANTULHÃO,-6.6193672285487555,41.56392549399114
pt.ine.add.PTCONT.857572,R 1 CONDE DE VIMIOSO,,5230-316,VIMIOSO,-6.528832865112131,41.58338731795666
pt.ine.add.PTCONT.857573,R DE VALE DE MILHOS,,5230-064,ARGOZELO,-6.602781921849255,41.647418588732464
pt.ine.add.PTCONT.857574,R DA FONTE,4,5230-182,PINELO,-6.543684693514146,41.6725096035113
pt.ine.add.PTCONT.857575,LG DO ESPÍRITO SANTO,8,5230-270,VILAR SECO VMS,-6.404024681319621,41.521858943495815
pt.ine.add.PTCONT.857579,LG DR MANUEL TELES,7,5230-033,ARGOZELO,-6.599852087732396,41.64493065564152
pt.ine.add.PTCONT.857582,BR DE BAIXO,,5230-051,ARGOZELO,-6.598273444288444,41.6431719573925
pt.ine.add.PTCONT.857583,R DA IGREJA,17,5230-181,PINELO,-6.553117282021113,41.6373831498545
pt.ine.add.PTCONT.857585,LG DO CEREJAL,,5230-010,ALGOSO,-6.540157405935033,41.49727459834857
pt.ine.add.PTCONT.857586,R DE S JOÃO,12,5230-042,ARGOZELO,-6.60023889457674,41.64329722562249
pt.ine.add.PTCONT.857587,R DA CABREIRA,,5230-039,ARGOZELO,-6.604207913354933,41.64193658734565
pt.ine.add.PTCONT.857588,R DO VALE FALCÃO,44,5230-126,CARÇÃO,-6.588288245766713,41.591359367095976
pt.ine.add.PTCONT.857589,R DOS CANIÇOS,,5230-231,UVA,-6.518190390493919,41.47477473563068
pt.ine.add.PTCONT.857592,CAM DO CAMPO,,5230-010,ALGOSO,-6.575142698587021,41.47158986969069
pt.ine.add.PTCONT.857595,AV DE S ROQUE,1,5230-010,ALGOSO,-6.573838099765183,41.470581805718716
pt.ine.add.PTCONT.857596,R PADRE CRUZ,,5230-062,ARGOZELO,-6.600779101764896,41.641773878213975
pt.ine.add.PTCONT.857597,R DO VILARINHO,10,5230-253,VALE DE FRADES,-6.4924346219749225,41.6441405413199
pt.ine.add.PTCONT.857599,R DA ESTRADA,13,5230-253,VALE DE FRADES,-6.491278897534601,41.64333175494758
pt.ine.add.PTCONT.857600,R DAS EIRAS DE BAIXO,16,5230-253,VALE DE FRADES,-6.493417995528081,41.64322724832414
pt.ine.add.PTCONT.857604,R DA IGREJA,,5230-207,SANTULHÃO,-6.623853645867862,41.56534399036955
pt.ine.add.PTCONT.857605,R DA RAPADOURA,26,5230-322,VIMIOSO,-6.529250583420321,41.58152946502862
pt.ine.add.PTCONT.857607,LG DE S SEBASTIÃO,,5230-032,ARGOZELO,-6.600613038996672,41.63966490405873
pt.ine.add.PTCONT.857608,R DA PORTELA,,5230-157,MATELA VMS,-6.6320140936617635,41.511610430339104
pt.ine.add.PTCONT.857609,R DO CALVÁRIO,,5230-028,ARGOZELO,-6.601278205670861,41.638944508811704
pt.ine.add.PTCONT.857610,R DA PRAÇA,47,5230-122,CARÇÃO,-6.584967530119026,41.592809239773544
pt.ine.add.PTCONT.857726,R DA ESCOLA,,5230-020,ANGUEIRA,-6.407510037038011,41.616472410588464
pt.ine.add.PTCONT.857736,BR DAS TALHINHAS,3,5230-210,SANTULHÃO,-6.6237852530619445,41.56210187879262
pt.ine.add.PTCONT.857742,R DO PONTO,,5230-252,VALE DE FRADES,-6.462128222381396,41.630658253927756
pt.ine.add.PTCONT.857768,R PRINCIPAL,33,5230-063,ARGOZELO,-6.600739272319399,41.64396113545425
pt.ine.add.PTCONT.857803,R DA URZEIRA,,5230-158,MATELA VMS,-6.62092968386947,41.51232051994012
pt.ine.add.PTCONT.857813,R DE VALE DE MILHOS,8,5230-064,ARGOZELO,-6.603057698961557,41.64743126399078
pt.ine.add.PTCONT.858140,EN 218,8,5230-341,VIMIOSO,-6.534972364170678,41.58290563263991
pt.ine.add.PTCONT.858141,R DR NORBERTO LOPES,,5230-332,VIMIOSO,-6.528436916277853,41.584849327824436
pt.ine.add.PTCONT.858295,R DO CASTELO,,5230-010,ALGOSO,-6.577153153828752,41.469114119857906
pt.ine.add.PTCONT.858296,R DE STO ESTEVÃO,1,5230-010,ALGOSO,-6.573151917325476,41.4697441797471
pt.ine.add.PTCONT.858297,R DE S BARTOLOMEU,38,5230-048,ARGOZELO,-6.604364204646078,41.65309367973872
pt.ine.add.PTCONT.858319,R DAS ARRAS,,5230-043,ARGOZELO,-6.598344511214168,41.64523464867325
pt.ine.add.PTCONT.858320,R DO FREIXO,17,5230-052,ARGOZELO,-6.60062146570759,41.64032225354763
pt.ine.add.PTCONT.858321,R DAS CATRINAS,,5230-044,ARGOZELO,-6.601441417780436,41.64573513103788
pt.ine.add.PTCONT.858333,R DAS EIRAS DAS FIGUEIRAS,5,5230-045,ARGOZELO,-6.602006295133326,41.641142000685115
pt.ine.add.PTCONT.858347,R DAS EIRAS,36,5230-100,CAMPO DE VÍBORAS,-6.558030484962182,41.520758624954674
pt.ine.add.PTCONT.858348,R DO VALE,6,5230-134,CARÇÃO,-6.588661355024114,41.59230972870531
pt.ine.add.PTCONT.858349,R DO VALE FALCÃO,43,5230-126,CARÇÃO,-6.58909599658901,41.59168533600039
pt.ine.add.PTCONT.858350,R 25 DE ABRIL,21,5230-124,CARÇÃO,-6.587946209072401,41.590112312490476
pt.ine.add.PTCONT.858351,R DAS EIRAS,,5230-158,MATELA VMS,-6.623132768999093,41.51184527892549
pt.ine.add.PTCONT.858362,LG DAS EIRAS DE BAIXO,16,5230-181,PINELO,-6.5506493381628825,41.63720514192145
pt.ine.add.PTCONT.858363,R DIREITA,,5230-210,SANTULHÃO,-6.626042077720374,41.560934037520695
pt.ine.add.PTCONT.858374,R DO CEREJAL,9,5230-212,SANTULHÃO,-6.621684245222448,41.56532449211911
pt.ine.add.PTCONT.858375,R DO CEREJAL,26,5230-212,SANTULHÃO,-6.622306987711994,41.56483749264116
pt.ine.add.PTCONT.858376,R DIREITA,5,5230-210,SANTULHÃO,-6.625797951441268,41.56060671538064
pt.ine.add.PTCONT.858377,R DA ESCOLA VELHA,4,5230-253,VALE DE FRADES,-6.495253891473782,41.64608943266839
pt.ine.add.PTCONT.858378,R DA ESTRADA,5,5230-253,VALE DE FRADES,-6.491153888273142,41.642582704332135
pt.ine.add.PTCONT.858390,EM 542,10,5230-253,VALE DE FRADES,-6.493654992184414,41.643347671062614
pt.ine.add.PTCONT.858391,R DA ESCOLA,,5230-252,VALE DE FRADES,-6.460154153167256,41.629035969479844
pt.ine.add.PTCONT.858392,R DA IGREJA,1,5230-270,VILAR SECO VMS,-6.406381148026672,41.52154322947563
pt.ine.add.PTCONT.858393,LG DA CAPELA,1,5230-270,VILAR SECO VMS,-6.404833707053411,41.5261206700769
pt.ine.add.PTCONT.858394,BR DO NAVARRO,16,5230-305,VIMIOSO,-6.531144152463136,41.58787618167914
pt.ine.add.PTCONT.858395,R DR FRANCISCO SÁ CARNEIRO,5,5230-330,VIMIOSO,-6.530468311982355,41.58562494159272
pt.ine.add.PTCONT.858396,R DAS CRUZES,,5230-302,VIMIOSO,-6.531880215990111,41.58526648008268
pt.ine.add.PTCONT.858414,CAM DO CAMPO,44 B,5230-010,ALGOSO,-6.5738737487016685,41.47358945107541
pt.ine.add.PTCONT.858440,R DA FONTE,,5230-252,VALE DE FRADES,-6.4611270375599075,41.628536945798224
pt.ine.add.PTCONT.858442,BR DAS MINAS,32 D,5230-066,ARGOZELO,-6.605177655437496,41.645595798593995
pt.ine.add.PTCONT.858454,BR DAS MINAS,32 D,5230-066,ARGOZELO,-6.605177655437496,41.645595798593995
pt.ine.add.PTCONT.858502,R DA AMENDOEIRA,,5230-010,ALGOSO,-6.573972801881614,41.47594970454603
pt.ine.add.PTCONT.858504,ESTR DA MATELA,,5230-208,SANTULHÃO,-6.622975477687338,41.56032658299193
pt.ine.add.PTCONT.858562,R DA LAGOA,,5230-100,CAMPO DE VÍBORAS,-6.55758357579611,41.525353237440086
pt.ine.add.PTCONT.858563,R DO OUTÃO,,5230-100,CAMPO DE VÍBORAS,-6.556377160739335,41.5256968352
pt.ine.add.PTCONT.858564,R DAS EIRAS,,5230-100,CAMPO DE VÍBORAS,-6.556319376651261,41.524129452382304
pt.ine.add.PTCONT.858565,BR DE CIMA,34,5230-121,CARÇÃO,-6.588840659314167,41.59434688589417
pt.ine.add.PTCONT.858594,BR DE CIMA,1,5230-121,CARÇÃO,-6.588305693930232,41.593142257295035
pt.ine.add.PTCONT.858595,BR DE CIMA,13,5230-121,CARÇÃO,-6.588165040705353,41.593005317248895
pt.ine.add.PTCONT.858596,R DAS FONTES,,5230-130,CARÇÃO,-6.587676731487698,41.59235951794162
pt.ine.add.PTCONT.858597,BR DO VALE,1,5230-134,CARÇÃO,-6.5884410410577425,41.592495837825076
pt.ine.add.PTCONT.858598,BR DE STO ESTEVÃO,1,5230-124,CARÇÃO,-6.582963945686537,41.593340442097066
pt.ine.add.PTCONT.858599,R DR MANUEL MARIA LOPES,7,5230-125,CARÇÃO,-6.585447801954875,41.59228451203826
pt.ine.add.PTCONT.858600,R 25 DE ABRIL,17,5230-124,CARÇÃO,-6.587525739860259,41.59014267284999
pt.ine.add.PTCONT.858633,R DA CHARQUEIRA,,5230-154,MATELA VMS,-6.629912290287493,41.510817679430026
pt.ine.add.PTCONT.858634,R DAS EIRIÇAS,1,5230-182,PINELO,-6.545078472983487,41.67247485513123
pt.ine.add.PTCONT.858635,LG DAS EIRAS DE BAIXO,20,5230-181,PINELO,-6.550984824424835,41.63722776742385
pt.ine.add.PTCONT.858636,R DA CRUZ,11,5230-181,PINELO,-6.554752529880056,41.63676639066178
pt.ine.add.PTCONT.858637,R DA CRUZ,3,5230-181,PINELO,-6.554565185751246,41.636574749713255
pt.ine.add.PTCONT.858638,AV DO SABOR,,5230-201,SANTULHÃO,-6.618535066117986,41.565679193385236
pt.ine.add.PTCONT.858661,R DA FONTE DO ARCO,,5230-206,SANTULHÃO,-6.623187678693896,41.5640837768754
pt.ine.add.PTCONT.858662,R DIREITA,107,5230-210,SANTULHÃO,-6.6243090314898225,41.56277500391624
pt.ine.add.PTCONT.858663,R DOS CANIÇOS,,5230-231,UVA,-6.517748601119122,41.47424633095435
pt.ine.add.PTCONT.858664,R DO RIBEIRO,10,5230-270,VILAR SECO VMS,-6.404655490655556,41.527864632203645
pt.ine.add.PTCONT.858700,R DAS PEREIRAS,5,5230-270,VILAR SECO VMS,-6.402191082737479,41.52637802369372
pt.ine.add.PTCONT.858701,TV DO LAR S JOSÉ,,5230-300,VIMIOSO,-6.527971146023894,41.58719268317856
pt.ine.add.PTCONT.858702,LG DA CAPELA,60,5230-309,VIMIOSO,-6.527980615994614,41.58584232213472
pt.ine.add.PTCONT.858703,R D ANTÓNIO RIBEIRO,11,5230-333,VIMIOSO,-6.528328458473801,41.58390246804535
pt.ine.add.PTCONT.858730,R DAS FREIRAS,42,5230-323,VIMIOSO,-6.523506292493331,41.58589679766392
pt.ine.add.PTCONT.858731,R DAS FREIRAS,12,5230-323,VIMIOSO,-6.52662555664913,41.58584139848213
pt.ine.add.PTCONT.859042,R DA SALINA,,5230-020,ANGUEIRA,-6.408309227495804,41.61574614660406
pt.ine.add.PTCONT.859071,BR DE BAIXO,,5230-051,ARGOZELO,-6.599041495525368,41.64216484593545
pt.ine.add.PTCONT.859072,BR DE BAIXO,,5230-051,ARGOZELO,-6.600178536292355,41.641792878735565
pt.ine.add.PTCONT.859100,R DO CALVÁRIO,13,5230-028,ARGOZELO,-6.602136881111175,41.63866784687583
pt.ine.add.PTCONT.859101,R PRINCIPAL,,5230-063,ARGOZELO,-6.6016738747286885,41.64200188309553
pt.ine.add.PTCONT.859102,R DAS EIRAS DAS FIGUEIRAS,,5230-045,ARGOZELO,-6.602242787333957,41.64078502127332
pt.ine.add.PTCONT.859103,R DAS EIRAS DAS FIGUEIRAS,,5230-045,ARGOZELO,-6.602053584135132,41.64066545857357
pt.ine.add.PTCONT.859104,LG DE S PEDRO,,5230-080,AVELANOSO,-6.427092520183075,41.65595552988377
pt.ine.add.PTCONT.859105,R DO SOALHEIRO,,5230-080,AVELANOSO,-6.42614796140156,41.65535629888642
pt.ine.add.PTCONT.859168,R DO PINIDELO,4,5230-213,SANTULHÃO,-6.620215854160128,41.566088470025484
pt.ine.add.PTCONT.859186,R DO ALTO DO FETO,,5230-125,CARÇÃO,-6.595137479680188,41.59181134602558
pt.ine.add.PTCONT.859223,ESTR DA MATELA,,5230-208,SANTULHÃO,-6.621641420204158,41.55841834205965
pt.ine.add.PTCONT.859719,R DA CALÇADA,,5230-318,VIMIOSO,-6.527566174959722,41.58562945841613
pt.ine.add.PTCONT.859720,R DIREITA,,5230-210,SANTULHÃO,-6.622493850320956,41.5640206416072
pt.ine.add.PTCONT.859725,R LATEDO DE CIMA,13,5230-059,ARGOZELO,-6.599250937053625,41.64598501593777
pt.ine.add.PTCONT.859726,BR DE CIMA,15,5230-121,CARÇÃO,-6.588139988573876,41.59304999708051
pt.ine.add.PTCONT.859730,R CAMILO CASTELO BRANCO,11,5230-090,CAÇARELHOS,-6.433858760394481,41.56380896205325
pt.ine.add.PTCONT.859731,R CAMILO CASTELO BRANCO,17,5230-090,CAÇARELHOS,-6.434383464534867,41.563456586283195
pt.ine.add.PTCONT.859732,BR DE VALE DE COVO,8,5230-306,VIMIOSO,-6.525479836055794,41.59335212466512
pt.ine.add.PTCONT.859734,BR DE BAIXO,58,5230-051,ARGOZELO,-6.598295447950165,41.64224491721873
pt.ine.add.PTCONT.859735,R DO CRUZEIRO,,5230-090,CAÇARELHOS,-6.435921389185138,41.561948746401825
pt.ine.add.PTCONT.859736,R DR POLICARPO LIBERAL,23 B,5230-342,VIMIOSO,-6.5283707046845025,41.59187996992718
pt.ine.add.PTCONT.859741,BR DE BAIXO,,5230-051,ARGOZELO,-6.598301927997144,41.64298326970634
pt.ine.add.PTCONT.859742,R PRINCIPAL,76,5230-063,ARGOZELO,-6.601080181068212,41.64258742266148
pt.ine.add.PTCONT.859743,LG DAS EIRAS DE BAIXO,21,5230-181,PINELO,-6.551140350123188,41.63724791485773
pt.ine.add.PTCONT.859745,R DA FONTAZIA DE CIMA,6,5230-090,CAÇARELHOS,-6.432565523827369,41.557811664554436
pt.ine.add.PTCONT.859746,R DO VALE,,5230-010,ALGOSO,-6.540289312540278,41.49726742216347
pt.ine.add.PTCONT.859747,R DO VALE FALCÃO,10,5230-126,CARÇÃO,-6.589291040659269,41.591552906070156
pt.ine.add.PTCONT.859748,R DO CHAPICO,,5230-231,UVA,-6.5157315243404845,41.47496526577916
pt.ine.add.PTCONT.859752,R DA IGREJA,,5230-042,ARGOZELO,-6.600376589660874,41.64255179292
pt.ine.add.PTCONT.859753,BR DA QUINTA,3,5230-128,CARÇÃO,-6.58411576684671,41.59181640391174
pt.ine.add.PTCONT.859754,AV DO SABOR,,5230-201,SANTULHÃO,-6.617251957376059,41.567064223154546
pt.ine.add.PTCONT.859755,R DAS EIRAS,,5230-100,CAMPO DE VÍBORAS,-6.556375150356646,41.52380609505238
pt.ine.add.PTCONT.859756,R DA CALÇADA,,5230-158,MATELA VMS,-6.614476851727436,41.516782213085484
pt.ine.add.PTCONT.859757,LG DA IGREJA,4,5230-010,ALGOSO,-6.575286506981067,41.47058342790257
pt.ine.add.PTCONT.859758,R DO SAGRADO,,5230-054,ARGOZELO,-6.598857846549862,41.64181126778868
pt.ine.add.PTCONT.859759,R DO CALVÁRIO,,5230-028,ARGOZELO,-6.602551843355831,41.63685471706205
pt.ine.add.PTCONT.859760,R DAS EIRIÇAS,,5230-080,AVELANOSO,-6.429496895119506,41.65764777798164
pt.ine.add.PTCONT.859761,R DO PEREIRO,,5230-158,MATELA VMS,-6.616465832566523,41.51676344823577
pt.ine.add.PTCONT.859762,R DE STO ANTÃO,,5230-157,MATELA VMS,-6.632751366817563,41.51288053598325
pt.ine.add.PTCONT.859763,R PADRE AMÂNDIO LOPES,32,5230-135,CARÇÃO,-6.586001311992998,41.59371448620853
pt.ine.add.PTCONT.859764,LOTEAM DOS QUEIREDOS,,5230-329,VIMIOSO,-6.5272507774116555,41.57561338663938
pt.ine.add.PTCONT.859768,R DO CALVÁRIO,,5230-028,ARGOZELO,-6.60201195109436,41.636847525608864
pt.ine.add.PTCONT.859769,LG PRINCIPAL,8,5230-153,MATELA VMS,-6.63131538341474,41.51074597885165
pt.ine.add.PTCONT.859770,R DO CEREJAL,13,5230-212,SANTULHÃO,-6.622057441919266,41.56525737115494
pt.ine.add.PTCONT.859773,R CONS JOSÉ ALPOIM,44,5230-317,VIMIOSO,-6.527959814544144,41.58522980793998
pt.ine.add.PTCONT.859874,R DAS CATRINAS,5,5230-044,ARGOZELO,-6.601557299215231,41.64540355554139
pt.ine.add.PTCONT.859919,R DA PORTELIÇA,,5230-080,AVELANOSO,-6.422945344012568,41.656163977783116
pt.ine.add.PTCONT.859921,R DO PINIDELO,,5230-213,SANTULHÃO,-6.620257282420707,41.566368119565965
pt.ine.add.PTCONT.859925,R DA CABREIRA,47,5230-039,ARGOZELO,-6.602643984382087,41.64158265058291
pt.ine.add.PTCONT.859945,R DA MATELA,,5230-208,SANTULHÃO,-6.623391710683638,41.56252887321238
pt.ine.add.PTCONT.859947,R DA CRUZ,8,5230-314,VIMIOSO,-6.531247262696543,41.586130980470074
pt.ine.add.PTCONT.860584,BR DAS MINAS,,5230-066,ARGOZELO,-6.60410243372929,41.646904974441476
pt.ine.add.PTCONT.860585,R FRANCISCO ALEXANDRE,5,5230-217,SANTULHÃO,-6.616503878604422,41.562825357592445
pt.ine.add.PTCONT.860589,R DA FACEIRA,,5230-080,AVELANOSO,-6.425410984888694,41.654625098199425
pt.ine.add.PTCONT.860590,R DA IGREJA,,5230-152,MATELA VMS,-6.6434657575585385,41.48128257922015
pt.ine.add.PTCONT.860591,R PRINCIPAL,,5230-152,MATELA VMS,-6.642788876104429,41.48051751514246
pt.ine.add.PTCONT.860592,R PRINCIPAL,,5230-152,MATELA VMS,-6.642566829521989,41.48028054630341
pt.ine.add.PTCONT.860595,R DE VALE DE MILHOS,,5230-064,ARGOZELO,-6.603517653233588,41.64676214394145
pt.ine.add.PTCONT.860596,R DA IGREJA,4,5230-182,PINELO,-6.54418841420021,41.672534576344496
pt.ine.add.PTCONT.860599,R DO CHAPEIRÃO,1,5230-090,CAÇARELHOS,-6.43584289686332,41.5621996791628
pt.ine.add.PTCONT.860600,BR DE STO ESTEVÃO,12,5230-124,CARÇÃO,-6.583287229824318,41.59336280805845
pt.ine.add.PTCONT.860601,R DR POLICARPO LIBERAL,2,5230-306,VIMIOSO,-6.527359954709945,41.59298226099286
pt.ine.add.PTCONT.860608,R DAS EIRAS DAS FIGUEIRAS,64,5230-045,ARGOZELO,-6.604248000153436,41.64074869189585
pt.ine.add.PTCONT.860609,BR DE VALE DE COVO,13,5230-306,VIMIOSO,-6.527169631654279,41.59340275612012
pt.ine.add.PTCONT.860610,R DA CABREIRA,,5230-039,ARGOZELO,-6.603772772384924,41.64206584625395
pt.ine.add.PTCONT.860612,R DO TOURAL,,5230-010,ALGOSO,-6.571398266750217,41.47098986978256
pt.ine.add.PTCONT.860613,R 25 DE ABRIL,22,5230-124,CARÇÃO,-6.589027996285961,41.59000980615077
pt.ine.add.PTCONT.860615,LG DA MISERICÓRDIA,,5230-202,SANTULHÃO,-6.619882385797867,41.565994047347175
pt.ine.add.PTCONT.860618,AV DE S ROQUE,,5230-010,ALGOSO,-6.573395546261789,41.470566801010904
pt.ine.add.PTCONT.860619,R DO PEREIRO,,5230-158,MATELA VMS,-6.616033866885327,41.51730695926775
pt.ine.add.PTCONT.860620,R DA MALHADA,20,5230-320,VIMIOSO,-6.527016951185133,41.58021080643526
pt.ine.add.PTCONT.860623,AV DE S ROQUE,,5230-010,ALGOSO,-6.574194409148862,41.470199486484
pt.ine.add.PTCONT.860625,R DA LAGOA,,5230-010,ALGOSO,-6.573863225277473,41.47003293399923
pt.ine.add.PTCONT.860626,R DA MADALENA,,5230-080,AVELANOSO,-6.418790314166621,41.65530978935204
pt.ine.add.PTCONT.860627,R DO SOL,,5230-215,SANTULHÃO,-6.6215406413762175,41.56531360063651
pt.ine.add.PTCONT.860752,R DA SERRA,8,5230-100,CAMPO DE VÍBORAS,-6.556655165210964,41.52658297965622
pt.ine.add.PTCONT.860789,R CONS JOSÉ ALPOIM,27,5230-317,VIMIOSO,-6.528309734364767,41.58465848316293
pt.ine.add.PTCONT.860821,R DA MATELA,,5230-208,SANTULHÃO,-6.623321483315871,41.56245592395119
pt.ine.add.PTCONT.860822,ESTR DA MATELA,,5230-208,SANTULHÃO,-6.622618767287641,41.558143079415004
pt.ine.add.PTCONT.861349,R DIREITA,,5230-210,SANTULHÃO,-6.621322356619276,41.56439238669305
pt.ine.add.PTCONT.861353,R DE S JULIÃO,,5230-209,SANTULHÃO,-6.619056690118092,41.563876387700006
pt.ine.add.PTCONT.861355,R DO SOALHEIRO,,5230-080,AVELANOSO,-6.426708157776726,41.654599352602396
pt.ine.add.PTCONT.861356,LG DE S SEBASTIÃO,7,5230-311,VIMIOSO,-6.5307885122960005,41.584314924856315
pt.ine.add.PTCONT.861357,LG DE S SEBASTIÃO,7,5230-311,VIMIOSO,-6.5307885122960005,41.584314924856315
pt.ine.add.PTCONT.861359,R DAS EIRAS,5,5230-182,PINELO,-6.543502950756465,41.67355145731878
pt.ine.add.PTCONT.861360,R DIREITA,,5230-210,SANTULHÃO,-6.626619528676674,41.56032937639413
pt.ine.add.PTCONT.861361,R DA RIBEIRA,2,5230-270,VILAR SECO VMS,-6.40152119829788,41.525440595879715
pt.ine.add.PTCONT.861362,R DOS GATOS,1,5230-325,VIMIOSO,-6.528308223601246,41.58423530735908
pt.ine.add.PTCONT.861364,R DE FRONFRIA,1,5230-306,VIMIOSO,-6.524949487585298,41.592975571439
pt.ine.add.PTCONT.861367,R LATEDO DE BAIXO,,5230-058,ARGOZELO,-6.59944416267875,41.645429393928396
pt.ine.add.PTCONT.861368,R DO CHAPEIRÃO,6,5230-090,CAÇARELHOS,-6.435741380526105,41.56241425880454
pt.ine.add.PTCONT.861370,R DA CABREIRA,29,5230-039,ARGOZELO,-6.601896306213084,41.64223893133187
pt.ine.add.PTCONT.861371,R DA IGREJA,20,5230-233,UVA,-6.504427273442939,41.53339081480248
pt.ine.add.PTCONT.861374,R DO VALE FALCÃO,,5230-126,CARÇÃO,-6.590044443876245,41.59113986666088
pt.ine.add.PTCONT.861375,R DO LAGARTINHO,,5230-232,UVA,-6.510556895673752,41.49235902198536
pt.ine.add.PTCONT.861376,LG DO JOGO,,5230-313,VIMIOSO,-6.526748457656485,41.58475371802199
pt.ine.add.PTCONT.861380,R DA FACEIRA,13,5230-181,PINELO,-6.555400398896454,41.6352987567301
pt.ine.add.PTCONT.861382,CAM DO CAMPO,,5230-010,ALGOSO,-6.5749947840038585,41.47176793536708
pt.ine.add.PTCONT.861383,R DA IGREJA,,5230-253,VALE DE FRADES,-6.495342129742539,41.64639679853201
pt.ine.add.PTCONT.861385,CAM DO CAMPO,,5230-010,ALGOSO,-6.574793070421405,41.4716931744259
pt.ine.add.PTCONT.861386,R DA CONSTITUIÇÃO,,5230-040,ARGOZELO,-6.600433812900527,41.64064386798813
pt.ine.add.PTCONT.861387,R PRINCIPAL,,5230-063,ARGOZELO,-6.6009004671403675,41.64070411003737
pt.ine.add.PTCONT.861388,AV DO SANTO CRISTO,,5230-100,CAMPO DE VÍBORAS,-6.554825925807582,41.52297453382383
pt.ine.add.PTCONT.861389,R DO PINIDELO,,5230-213,SANTULHÃO,-6.621065711955263,41.56614466807703
pt.ine.add.PTCONT.861392,R DAS EIRAS,,5230-100,CAMPO DE VÍBORAS,-6.556477037956743,41.52405058389371
pt.ine.add.PTCONT.861393,R DO SABOR,,5230-214,SANTULHÃO,-6.622749571471088,41.564879321704886
pt.ine.add.PTCONT.861394,R DAS EIRAS DE BAIXO,14,5230-253,VALE DE FRADES,-6.493527348191522,41.64317478941764
pt.ine.add.PTCONT.861398,R DA IGREJA,,5230-156,MATELA VMS,-6.613980220758174,41.51599235385303
pt.ine.add.PTCONT.861399,R DO FUNDO DA IGREJA,,5230-252,VALE DE FRADES,-6.461051079811342,41.627761566147264
pt.ine.add.PTCONT.861402,R DO PORDOMINGO,3,5230-160,MATELA VMS,-6.629779840627602,41.51136515837979
pt.ine.add.PTCONT.861403,R DA CRUZ,18,5230-204,SANTULHÃO,-6.620436406608527,41.56588429492046
pt.ine.add.PTCONT.861404,AV DE ALCANICES,,5230-308,VIMIOSO,-6.530817037248033,41.58607096441765
pt.ine.add.PTCONT.861408,R DO MEIO,1,5230-133,CARÇÃO,-6.587299617622604,41.59358790054577
pt.ine.add.PTCONT.861409,R DO CEREJAL,23,5230-212,SANTULHÃO,-6.622132285029537,41.56513230772768
pt.ine.add.PTCONT.861410,R DAS CABANAS,,5230-251,VALE DE FRADES,-6.470932943777064,41.60836794375909
pt.ine.add.PTCONT.861411,R DE S JOÃO,,5230-251,VALE DE FRADES,-6.472799463038481,41.60902514813688
pt.ine.add.PTCONT.861413,R DO CALVÁRIO,,5230-028,ARGOZELO,-6.601944800646967,41.63613537391073
pt.ine.add.PTCONT.861414,R DE S JOÃO,,5230-251,VALE DE FRADES,-6.471970436681673,41.60860802399813
pt.ine.add.PTCONT.861535,R DA BEIRA RIO,,5230-251,VALE DE FRADES,-6.470516475048362,41.60823587485326
pt.ine.add.PTCONT.861552,BR MIRA PEREIRAS,7,5230-305,VIMIOSO,-6.530516540063559,41.5880384955757
pt.ine.add.PTCONT.861578,R DO TORRIEIRO,,5230-080,AVELANOSO,-6.419921793235778,41.6561009332681
pt.ine.add.PTCONT.861579,R DE S ROQUE,,5230-131,CARÇÃO,-6.593391546692505,41.59159890268107
pt.ine.add.PTCONT.861580,AV DO SABOR,,5230-201,SANTULHÃO,-6.621528926830418,41.56221628730052
pt.ine.add.PTCONT.861632,AV DO SANTO CRISTO,,5230-100,CAMPO DE VÍBORAS,-6.550013271750066,41.5272570071367
pt.ine.add.PTCONT.861642,LG DAS OLMEDAS,,5230-080,AVELANOSO,-6.423243204281576,41.65624943853005
pt.ine.add.PTCONT.861658,R DAS EIRIÇAS,2,5230-181,PINELO,-6.555096799319927,41.63642899557595
pt.ine.add.PTCONT.861672,R DA CABREIRA,29,5230-039,ARGOZELO,-6.601896306213084,41.64223893133187
pt.ine.add.PTCONT.862179,R DOS PINHÕES,4,5230-020,ANGUEIRA,-6.406595987323178,41.61520724080063
pt.ine.add.PTCONT.862180,BR DE CIMA,33,5230-121,CARÇÃO,-6.589779030551286,41.59523280990673
pt.ine.add.PTCONT.862181,BR DE CIMA,37,5230-121,CARÇÃO,-6.589380814909766,41.59483131691364
pt.ine.add.PTCONT.862186,R DAS FONTES,13,5230-130,CARÇÃO,-6.587822105801638,41.59229844921371
pt.ine.add.PTCONT.862188,R DA CAPELA,8,5230-090,CAÇARELHOS,-6.436877632334493,41.562512060136065
pt.ine.add.PTCONT.862192,R DA PIÇARRA,4,5230-090,CAÇARELHOS,-6.434932005733761,41.56173606282728
pt.ine.add.PTCONT.862193,R DAS CANADAS,1,5230-090,CAÇARELHOS,-6.434384737098479,41.55974725655187
pt.ine.add.PTCONT.862194,AV DE ALCANICES,34,5230-308,VIMIOSO,-6.524644556272212,41.59221502941007
pt.ine.add.PTCONT.862195,R PADRE BENTO,,5230-061,ARGOZELO,-6.600373117819877,41.64421734659866
pt.ine.add.PTCONT.862197,R DO TRONCO,22,5230-055,ARGOZELO,-6.601123431428298,41.64169310364376
pt.ine.add.PTCONT.862198,R DO CANIÇO DE BAIXO,5,5230-181,PINELO,-6.552489537445912,41.63606004640713
pt.ine.add.PTCONT.862199,LG DO TANQUE VELHO,20,5230-181,PINELO,-6.551075741882545,41.63645474144731
pt.ine.add.PTCONT.862203,CAM DO CAMPO,,5230-010,ALGOSO,-6.574606989313428,41.47246495205927
pt.ine.add.PTCONT.862204,R DO VALE FALCÃO,47,5230-126,CARÇÃO,-6.588459712542557,41.59171280059733
pt.ine.add.PTCONT.862207,R DO SANTO CRISTO,,5230-100,CAMPO DE VÍBORAS,-6.550864949774794,41.524756785401735
pt.ine.add.PTCONT.862208,R DE S ROQUE,12,5230-131,CARÇÃO,-6.594056496309482,41.59086953591844
pt.ine.add.PTCONT.862209,EM 542,2,5230-253,VALE DE FRADES,-6.495329927629133,41.64498312448537
pt.ine.add.PTCONT.862211,LG PRIOR MIRANDA LOPES,4,5230-035,ARGOZELO,-6.600642371575198,41.64146594468016
pt.ine.add.PTCONT.862213,LG DA IGREJA,2,5230-010,ALGOSO,-6.57521664627832,41.470501450214776
pt.ine.add.PTCONT.862214,R DO SAGRADO,,5230-054,ARGOZELO,-6.598619585031529,41.641736060737024
pt.ine.add.PTCONT.862215,R DAS EIRIÇAS,,5230-080,AVELANOSO,-6.427149792594191,41.656514574441275
pt.ine.add.PTCONT.862216,R DA IGREJA,10,5230-207,SANTULHÃO,-6.623550768347578,41.56393548792931
pt.ine.add.PTCONT.862220,R DO PORDOMINGO,5,5230-160,MATELA VMS,-6.630270797674005,41.51137157614903
pt.ine.add.PTCONT.862221,R DA MADALENA,,5230-080,AVELANOSO,-6.41947120891087,41.6554369861506
pt.ine.add.PTCONT.862224,R DA ESCOLA,,5230-020,ANGUEIRA,-6.406587779458604,41.617313861425046
pt.ine.add.PTCONT.862225,R DA IGREJA,27,5230-127,CARÇÃO,-6.585014944878433,41.59383625552733
pt.ine.add.PTCONT.862339,R DA ESCOLA,8,5230-020,ANGUEIRA,-6.406366145907927,41.61752660792209
pt.ine.add.PTCONT.862352,R DA ESTRADA,11,5230-253,VALE DE FRADES,-6.490517764574165,41.64258261684664
pt.ine.add.PTCONT.862375,R DO MOUCHO,,5230-080,AVELANOSO,-6.423910552121135,41.65688958595382
pt.ine.add.PTCONT.862376,R DE VALE DE MILHOS,,5230-064,ARGOZELO,-6.603524191836897,41.647500496588144
pt.ine.add.PTCONT.862399,R DA AMENDOEIRA,,5230-010,ALGOSO,-6.573999973439769,41.47581502082119
pt.ine.add.PTCONT.862406,AV DE S ROQUE,,5230-010,ALGOSO,-6.5736470634462245,41.47056120842601
pt.ine.add.PTCONT.862928,R DA BEIRA RIO,,5230-251,VALE DE FRADES,-6.4704789098236954,41.60783018624828
pt.ine.add.PTCONT.862929,R DA FONTAZIA,2,5230-270,VILAR SECO VMS,-6.406841668503962,41.52900488509752
pt.ine.add.PTCONT.862932,R DA IGREJA,,5230-156,MATELA VMS,-6.629143437707803,41.509880270156025
pt.ine.add.PTCONT.862933,R DO FUNDO DO POVO,,5230-152,MATELA VMS,-6.6445007404561816,41.48314169880835
pt.ine.add.PTCONT.862937,R DO FUNDO DA VILA,40,5230-327,VIMIOSO,-6.530527557422201,41.58274471375052
pt.ine.add.PTCONT.862940,R PRINCIPAL,,5230-063,ARGOZELO,-6.600910209411096,41.64549821427407
pt.ine.add.PTCONT.862944,R DO FREIXO,1,5230-232,UVA,-6.511132596782676,41.49232212681844
pt.ine.add.PTCONT.862945,AV DE ALCANICES,42,5230-308,VIMIOSO,-6.522453276299532,41.59207630541751
pt.ine.add.PTCONT.862946,R DA CALÇADA,11,5230-318,VIMIOSO,-6.527248587836363,41.584895755514175
pt.ine.add.PTCONT.862952,R DE S PEDRO,4,5230-090,CAÇARELHOS,-6.431276554968989,41.55668518644687
pt.ine.add.PTCONT.862953,R DA PORTELA,45,5230-321,VIMIOSO,-6.52481973222366,41.585158906153474
pt.ine.add.PTCONT.862954,R DA MALHADA,55,5230-320,VIMIOSO,-6.526722354793271,41.58048579209715
pt.ine.add.PTCONT.862957,R NOVA,,5230-060,ARGOZELO,-6.602047339209335,41.64042228767673
pt.ine.add.PTCONT.862958,R DO LAR S JOSÉ,2,5230-300,VIMIOSO,-6.52789481171713,41.58688550541399
pt.ine.add.PTCONT.862961,AV DE ALCANICES,7,5230-308,VIMIOSO,-6.531713302873019,41.58474196385517
pt.ine.add.PTCONT.862965,R DO RECOSTO,,5230-053,ARGOZELO,-6.598894187939791,41.64078538296702
pt.ine.add.PTCONT.862966,LG JACINTO DE OLIVEIRA,13,5230-010,ALGOSO,-6.574614320754096,41.47016016037909
pt.ine.add.PTCONT.862967,R DO RECOSTO,,5230-053,ARGOZELO,-6.6000307285543105,41.639927235012
pt.ine.add.PTCONT.862968,R DAS EIRAS,,5230-158,MATELA VMS,-6.624157243389552,41.511057420847926
pt.ine.add.PTCONT.863216,R DA CAVADA,20,5230-020,ANGUEIRA,-6.4092925431948595,41.611709466732655
pt.ine.add.PTCONT.863218,BR DE S VICENTE,17,5230-342,VIMIOSO,-6.526581465323846,41.59197201890781
pt.ine.add.PTCONT.863243,R DAS ARRAS,7,5230-043,ARGOZELO,-6.597552995761882,41.645206068868376
pt.ine.add.PTCONT.863261,R DAS FONTES,,5230-100,CAMPO DE VÍBORAS,-6.554947275222342,41.524389732376605
pt.ine.add.PTCONT.863262,R DAS FONTES,,5230-100,CAMPO DE VÍBORAS,-6.555206656182784,41.52406917017509
pt.ine.add.PTCONT.863263,R DO MEIO,15,5230-133,CARÇÃO,-6.587621186929261,41.59368225773255
pt.ine.add.PTCONT.863290,R DO VALE,10,5230-134,CARÇÃO,-6.59031367275563,41.594438692682424
pt.ine.add.PTCONT.863291,BR DE STO ESTEVÃO,16,5230-124,CARÇÃO,-6.582591261011559,41.594379799017325
pt.ine.add.PTCONT.863292,R DO VALE FALCÃO,39,5230-126,CARÇÃO,-6.588703143689678,41.59156301526262
pt.ine.add.PTCONT.863293,R 25 DE ABRIL,7,5230-124,CARÇÃO,-6.586851570568455,41.59025064901009
pt.ine.add.PTCONT.863314,LG DO TOURALICO,2,5230-181,PINELO,-6.5546692910283975,41.63624306009429
pt.ine.add.PTCONT.863355,LG DA VEIGA,,5230-231,UVA,-6.5168950215929575,41.47391021375799
pt.ine.add.PTCONT.863356,LG DO SAGRADO,9,5230-253,VALE DE FRADES,-6.495268085279224,41.646476771908354
pt.ine.add.PTCONT.863357,R DA IGREJA,,5230-251,VALE DE FRADES,-6.46941619093258,41.60903924673984
pt.ine.add.PTCONT.863358,R DO CHAPAÇAL,5,5230-270,VILAR SECO VMS,-6.4048756154336495,41.527696878581146
pt.ine.add.PTCONT.863405,TV DO LAR S JOSÉ,,5230-330,VIMIOSO,-6.528324593646811,41.586963532797256
pt.ine.add.PTCONT.863406,R DA CALÇADA,,5230-318,VIMIOSO,-6.527380004835713,41.58491559797597
pt.ine.add.PTCONT.863432,R DA COSTA DO VALE,,5230-306,VIMIOSO,-6.514629507175908,41.58264801251233
pt.ine.add.PTCONT.863433,R DA PORTELA,19,5230-321,VIMIOSO,-6.525850286715946,41.584705149588295
pt.ine.add.PTCONT.863434,R DO FUNDO DA VILA,37,5230-327,VIMIOSO,-6.5313753361245706,41.58240540163382
pt.ine.add.PTCONT.863435,BR DE PEREIRAS,,5230-329,VIMIOSO,-6.5279096031937875,41.57515441664713
pt.ine.add.PTCONT.863752,R DE S JOÃO,3,5230-010,ALGOSO,-6.57532670604221,41.46940451616874
pt.ine.add.PTCONT.863753,R DAS VIDEIRAS,3,5230-010,ALGOSO,-6.576184204151654,41.46958719441928
pt.ine.add.PTCONT.863809,BR DE BAIXO,,5230-051,ARGOZELO,-6.598677480555324,41.64233104788339
pt.ine.add.PTCONT.863810,BR DE BAIXO,,5230-051,ARGOZELO,-6.598364271406624,41.642885066623414
pt.ine.add.PTCONT.863811,R DO ALECRIM,25,5230-050,ARGOZELO,-6.5997932320342345,41.6433633063243
pt.ine.add.PTCONT.863812,R DO ALECRIM,25,5230-050,ARGOZELO,-6.5997932320342345,41.6433633063243
pt.ine.add.PTCONT.863813,R DO ALECRIM,,5230-050,ARGOZELO,-6.600033634827409,41.643348507083005
pt.ine.add.PTCONT.863842,R DA CONSTITUIÇÃO,9,5230-040,ARGOZELO,-6.5998367682515635,41.641527225356214
pt.ine.add.PTCONT.863843,R DO SAGRADO,,5230-054,ARGOZELO,-6.599422416854914,41.64179179381334
pt.ine.add.PTCONT.863844,LG DE S SEBASTIÃO,,5230-032,ARGOZELO,-6.601016653024163,41.639346168510215
pt.ine.add.PTCONT.863845,R PRINCIPAL,,5230-063,ARGOZELO,-6.600990596831262,41.64196576614953
pt.ine.add.PTCONT.863846,BR DO QUINTANAS,,5230-090,CAÇARELHOS,-6.431380262798999,41.56460960178244
pt.ine.add.PTCONT.863874,R DA CAPELA,14,5230-090,CAÇARELHOS,-6.437186362380609,41.56262465454785
pt.ine.add.PTCONT.863876,R DA IGREJA,,5230-042,ARGOZELO,-6.600219540399622,41.6425947144595
pt.ine.add.PTCONT.863919,R DO TOURAL,,5230-010,ALGOSO,-6.571401723742325,41.47084586105622
pt.ine.add.PTCONT.863922,R LATEDO DE CIMA,,5230-059,ARGOZELO,-6.5995671879171205,41.645809171732665
pt.ine.add.PTCONT.863927,R LATEDO DE CIMA,21,5230-059,ARGOZELO,-6.599031533194789,41.64612613915431
pt.ine.add.PTCONT.863956,R DA MATELA,27,5230-208,SANTULHÃO,-6.623436503483542,41.562664512033706
pt.ine.add.PTCONT.863976,R DAS ARRAS,16,5230-043,ARGOZELO,-6.596338691427201,41.64428051003126
pt.ine.add.PTCONT.863985,R DAS ARRAS,16,5230-043,ARGOZELO,-6.596338691427201,41.64428051003126
pt.ine.add.PTCONT.864359,AV DE ALCANICES,3,5230-308,VIMIOSO,-6.5319375302371565,41.584402962327424
pt.ine.add.PTCONT.864360,AV DE ALCANICES,46,5230-308,VIMIOSO,-6.521180890798123,41.592121491871886
pt.ine.add.PTCONT.864361,CAM DA COSTA DO VALE,,5230-306,VIMIOSO,-6.5197873060918745,41.58547552547103
pt.ine.add.PTCONT.864362,R DA RAPADOURA,46,5230-322,VIMIOSO,-6.527805961069445,41.581275213666174
pt.ine.add.PTCONT.864536,R DA BARRACA,,5230-010,ALGOSO,-6.539383562366906,41.49806518029812
pt.ine.add.PTCONT.864537,EN 219,,5230-010,ALGOSO,-6.57500224581926,41.47695403885734
pt.ine.add.PTCONT.864538,CAM DO CAMPO,48,5230-010,ALGOSO,-6.573963230925951,41.47385176510151
pt.ine.add.PTCONT.864549,BR DE BAIXO,,5230-051,ARGOZELO,-6.598437758879974,41.642823025294305
pt.ine.add.PTCONT.864550,R DO CALVÁRIO,,5230-028,ARGOZELO,-6.601792627481551,41.63901438714675
pt.ine.add.PTCONT.864551,R PRINCIPAL,,5230-063,ARGOZELO,-6.600982135392738,41.644855694480626
pt.ine.add.PTCONT.864552,R JOSÉ MACHADO,,5230-057,ARGOZELO,-6.601194804732304,41.64398521509272
pt.ine.add.PTCONT.864553,R DA CABREIRA,,5230-039,ARGOZELO,-6.601677134088711,41.64237105959637
pt.ine.add.PTCONT.864554,R DAS EIRAS DAS FIGUEIRAS,,5230-045,ARGOZELO,-6.604096784714962,41.641052790592354
pt.ine.add.PTCONT.864577,R DA CABREIRA,,5230-039,ARGOZELO,-6.601885802795837,41.642175628215895
pt.ine.add.PTCONT.864578,R DAS EIRAS DAS FIGUEIRAS,,5230-045,ARGOZELO,-6.601853299608353,41.64101391679417
pt.ine.add.PTCONT.864579,R DO CALVÁRIO,,5230-028,ARGOZELO,-6.6028624354551075,41.63793024017313
pt.ine.add.PTCONT.864580,R DO TORRIEIRO,,5230-080,AVELANOSO,-6.4209230466027005,41.65591778770033
pt.ine.add.PTCONT.864581,R DA COSTANILHA,,5230-080,AVELANOSO,-6.4248133460928205,41.65543550026535
pt.ine.add.PTCONT.864582,R DA PORTELIÇA,,5230-080,AVELANOSO,-6.422310766932772,41.656100513053765
pt.ine.add.PTCONT.864583,R DE BAIXO,,5230-080,AVELANOSO,-6.426179798953675,41.65596898491528
pt.ine.add.PTCONT.864584,R DA CAPELA,2,5230-090,CAÇARELHOS,-6.436567255119391,41.562462463499585
pt.ine.add.PTCONT.864585,R DA SERRA,,5230-100,CAMPO DE VÍBORAS,-6.556682438774129,41.52595311622358
pt.ine.add.PTCONT.864586,R DA LAGOA,,5230-100,CAMPO DE VÍBORAS,-6.557214263108829,41.525267145592416
pt.ine.add.PTCONT.864602,R PADRE AMÂNDIO LOPES,16,5230-135,CARÇÃO,-6.585803509950518,41.59345973107478
pt.ine.add.PTCONT.864603,R DO FUNDO,,5230-151,MATELA VMS,-6.61463360343128,41.51622607027304
pt.ine.add.PTCONT.864616,R DAS EIRIÇAS,7,5230-182,PINELO,-6.544954008469987,41.67265319840274
pt.ine.add.PTCONT.864617,R DA FONTE,5,5230-182,PINELO,-6.544201918615856,41.671985569545626
pt.ine.add.PTCONT.864618,R EMPEDRADA,2,5230-181,PINELO,-6.552340529363405,41.63724642308807
pt.ine.add.PTCONT.864619,LG DO JOGADOURO,2,5230-181,PINELO,-6.554049522418923,41.636558662404994
pt.ine.add.PTCONT.864620,LG DO CRUZEIRO,7,5230-181,PINELO,-6.553055479235324,41.63549162201277
pt.ine.add.PTCONT.864621,AV DO SABOR,1,5230-201,SANTULHÃO,-6.617267424200846,41.56657182517563
pt.ine.add.PTCONT.864622,AV DO SABOR,,5230-201,SANTULHÃO,-6.6174156588015745,41.56638470905103
pt.ine.add.PTCONT.864627,R DIREITA,,5230-210,SANTULHÃO,-6.623364639218253,41.56317676050233
pt.ine.add.PTCONT.864628,AV DO SABOR,,5230-201,SANTULHÃO,-6.62197463822414,41.5621231098356
pt.ine.add.PTCONT.864629,AV DO SABOR,,5230-201,SANTULHÃO,-6.622676377505799,41.561331031631845
pt.ine.add.PTCONT.864630,R DA EIRA,5,5230-205,SANTULHÃO,-6.623572560609221,41.56042445845192
pt.ine.add.PTCONT.864631,R DOS GATOS,,5230-232,UVA,-6.509301525285748,41.4918010964887
pt.ine.add.PTCONT.864641,R DE FRONFRIA,,5230-306,VIMIOSO,-6.523636171562213,41.59708068888894
pt.ine.add.PTCONT.864653,R DA IGREJA,,5230-100,CAMPO DE VÍBORAS,-6.555084378140307,41.525156902527165
pt.ine.add.PTCONT.864658,R DOS OLMICOS,1,5230-181,PINELO,-6.5541935767771635,41.63606546397531
pt.ine.add.PTCONT.864687,R DO MEIO DO LUGAR,21,5230-270,VILAR SECO VMS,-6.404749169469477,41.52389558203804
pt.ine.add.PTCONT.864753,R DA PORTELIÇA,,5230-080,AVELANOSO,-6.4193148000948845,41.6559028162981
pt.ine.add.PTCONT.864754,BR DE FONTE COLAÇO,11,5230-328,VIMIOSO,-6.523693099398841,41.592858950483155
pt.ine.add.PTCONT.865265,R DAS EIRAS,,5230-020,ANGUEIRA,-6.406743007056562,41.615542566998506
pt.ine.add.PTCONT.865267,R DE STO ANTÓNIO,7,5230-217,SANTULHÃO,-6.619520493031747,41.56352236039546
pt.ine.add.PTCONT.865268,AV DO SABOR,,5230-201,SANTULHÃO,-6.621453876290293,41.562350351046526
pt.ine.add.PTCONT.865272,EN 218,6,5230-090,CAÇARELHOS,-6.432194498922521,41.55824733595514
pt.ine.add.PTCONT.865275,ESTR DE S JOANICO,,5230-307,VIMIOSO,-6.509090663105644,41.59791146849075
pt.ine.add.PTCONT.865278,BR DE STO ESTEVÃO,,5230-124,CARÇÃO,-6.580516782070777,41.595864352062726
pt.ine.add.PTCONT.865279,LG DAS EIRAS DE BAIXO,10,5230-181,PINELO,-6.550227007027914,41.63729836127394
pt.ine.add.PTCONT.865286,R DO SANTO CRISTO,,5230-100,CAMPO DE VÍBORAS,-6.550206366333046,41.52523390345497
pt.ine.add.PTCONT.865287,R DO VALE FALCÃO,14,5230-126,CARÇÃO,-6.588402556748326,41.59159498945739
pt.ine.add.PTCONT.865288,R DAS FREIRAS,40 A,5230-323,VIMIOSO,-6.523831749182597,41.5858293283038
pt.ine.add.PTCONT.865289,CAM DO CAMPO,,5230-010,ALGOSO,-6.574401172340887,41.473560586972724
pt.ine.add.PTCONT.865290,R DO TRONCO,13,5230-055,ARGOZELO,-6.6019141488812885,41.6415165208121
pt.ine.add.PTCONT.865291,R DO SERRO,8,5230-334,VIMIOSO,-6.521479284713074,41.582537178682
pt.ine.add.PTCONT.865292,TV DO LAR S JOSÉ,,5230-330,VIMIOSO,-6.528591894598805,41.58682321171766
pt.ine.add.PTCONT.865293,AV DE S ROQUE,,5230-010,ALGOSO,-6.573428326628532,41.47019810285158
pt.ine.add.PTCONT.865294,R DO PONTO,,5230-252,VALE DE FRADES,-6.462274494566846,41.630570348734935
pt.ine.add.PTCONT.865296,R DAS VIDEIRAS,,5230-010,ALGOSO,-6.575951669196687,41.4698001297195
pt.ine.add.PTCONT.865297,EN 219,,5230-286,VIMIOSO,-6.542098312927487,41.547603403586784
pt.ine.add.PTCONT.865298,R DAS PENEDAS,3,5230-129,CARÇÃO,-6.586460567285719,41.59356761041573
pt.ine.add.PTCONT.865299,LG PRINCIPAL,,5230-153,MATELA VMS,-6.631471259375061,41.51073901114218
pt.ine.add.PTCONT.865300,R DO CEREJAL,16,5230-212,SANTULHÃO,-6.621905629534453,41.565084311605936
pt.ine.add.PTCONT.865301,R DO CASCALHAL,,5230-251,VALE DE FRADES,-6.471001681847148,41.60802681522123
pt.ine.add.PTCONT.865302,R ABADE DE BAÇAL,17,5230-304,VIMIOSO,-6.529224753071087,41.584995372786814
pt.ine.add.PTCONT.865305,R DIREITA,21,5230-210,SANTULHÃO,-6.621819796413282,41.56413782951033
pt.ine.add.PTCONT.865401,R DO VALE FALCÃO,27,5230-126,CARÇÃO,-6.587880616420867,41.59135388802924
pt.ine.add.PTCONT.865411,LG DA CAPELA DE SANTO CRISTO,1,5230-090,CAÇARELHOS,-6.437620335075536,41.56253202015267
pt.ine.add.PTCONT.865415,R DO ALTO DO FETO,2,5230-125,CARÇÃO,-6.597000894954767,41.591115997908105
pt.ine.add.PTCONT.865421,LG PRINCIPAL,,5230-153,MATELA VMS,-6.631471259375061,41.51073901114218
pt.ine.add.PTCONT.865437,R DA LAGOA,,5230-217,SANTULHÃO,-6.612985316951167,41.56411138364173
pt.ine.add.PTCONT.865468,R DE VALE DE MILHOS,128,5230-064,ARGOZELO,-6.603900145585812,41.64683025693155
pt.ine.add.PTCONT.865469,R DE VALE DE MILHOS,128,5230-064,ARGOZELO,-6.603900145585812,41.64683025693155
pt.ine.add.PTCONT.865713,CAM DO CAMPO,,5230-010,ALGOSO,-6.575350877891893,41.47139461318055
pt.ine.add.PTCONT.865714,R DO VALE,,5230-010,ALGOSO,-6.575826303416163,41.470536717785485
pt.ine.add.PTCONT.865715,R DA LAGOA,,5230-010,ALGOSO,-6.5740553385700355,41.470008528117944
pt.ine.add.PTCONT.865736,R PADRE BENTO,,5230-061,ARGOZELO,-6.600322775062768,41.6443157108178
pt.ine.add.PTCONT.865737,R DO CALVÁRIO,,5230-028,ARGOZELO,-6.601918461900152,41.63623405879377
pt.ine.add.PTCONT.865738,BR DAS MINAS,15 A,5230-066,ARGOZELO,-6.604133243720001,41.64661728067665
pt.ine.add.PTCONT.865739,BR DAS MINAS,15 A,5230-066,ARGOZELO,-6.604133243720001,41.64661728067665
pt.ine.add.PTCONT.865740,R DO TRONCO,,5230-055,ARGOZELO,-6.601541059253399,41.64158729721766
pt.ine.add.PTCONT.865741,R DAS EIRAS DAS FIGUEIRAS,,5230-045,ARGOZELO,-6.602354035727688,41.64115563628153
pt.ine.add.PTCONT.865742,R DO CALVÁRIO,4,5230-028,ARGOZELO,-6.60167569402775,41.63939096549904
pt.ine.add.PTCONT.865743,R DO CALVÁRIO,4,5230-028,ARGOZELO,-6.60167569402775,41.63939096549904
pt.ine.add.PTCONT.865757,R DO SANTO CRISTO,,5230-090,CAÇARELHOS,-6.436417492020684,41.56406283553072
pt.ine.add.PTCONT.865758,R DE S PEDRO,14,5230-090,CAÇARELHOS,-6.4311763390773145,41.55593643064125
pt.ine.add.PTCONT.865759,TV DO OUTÃO,11,5230-100,CAMPO DE VÍBORAS,-6.5565363556020255,41.52555496395016
pt.ine.add.PTCONT.865760,R DA LAGOA,20,5230-100,CAMPO DE VÍBORAS,-6.5574891077264335,41.52480273590431
pt.ine.add.PTCONT.865761,BR DE CIMA,52 B,5230-121,CARÇÃO,-6.589389349958354,41.595479669714
pt.ine.add.PTCONT.865762,BR DE CIMA,35,5230-121,CARÇÃO,-6.589532391943333,41.595013418691245
pt.ine.add.PTCONT.865778,R DA PRAÇA,19,5230-122,CARÇÃO,-6.586816254425718,41.5927350880418
pt.ine.add.PTCONT.865779,BR DE CIMA,9,5230-121,CARÇÃO,-6.588380849991866,41.593008217670715
pt.ine.add.PTCONT.865780,R DAS FONTES,,5230-130,CARÇÃO,-6.587569901651091,41.59231306501983
pt.ine.add.PTCONT.865781,R DE S ROQUE,28,5230-131,CARÇÃO,-6.589601257216011,41.59162009530221
pt.ine.add.PTCONT.865794,LG DAS EIRAS DE BAIXO,19,5230-181,PINELO,-6.550964352376031,41.637083433953784
pt.ine.add.PTCONT.865795,R DO SABOR,,5230-214,SANTULHÃO,-6.6228855924516274,41.56470104130466
pt.ine.add.PTCONT.865796,R DIREITA,28,5230-210,SANTULHÃO,-6.622910747332849,41.563620967338345
pt.ine.add.PTCONT.865797,R DA PRAÇA,17,5230-232,UVA,-6.509943934467752,41.492449408808596
pt.ine.add.PTCONT.865809,R DA ESCOLA,,5230-253,VALE DE FRADES,-6.4907384119970954,41.642873872457606
pt.ine.add.PTCONT.865810,R DA ESCOLA,5,5230-253,VALE DE FRADES,-6.491561369858051,41.643551866743756
pt.ine.add.PTCONT.865811,R DA IGREJA,6,5230-270,VILAR SECO VMS,-6.4064937203263295,41.52181501953622
pt.ine.add.PTCONT.865812,R DR FRANCISCO SÁ CARNEIRO,13,5230-330,VIMIOSO,-6.530021389604199,41.58623993656403
pt.ine.add.PTCONT.865831,R DO VALE DE S MIGUEL,,5230-285,VIMIOSO,-6.514492612136319,41.58524803431697
pt.ine.add.PTCONT.865832,ESTR CAMPO DE VÍBORAS,13,5230-285,VIMIOSO,-6.529631493170211,41.5816428187298
pt.ine.add.PTCONT.865833,LOTEAM DOS QUEIREDOS,,5230-329,VIMIOSO,-6.5271368838143955,41.575854884700284
pt.ine.add.PTCONT.866077,R DA ESCOLA,,5230-020,ANGUEIRA,-6.407359171810018,41.6162810785285
pt.ine.add.PTCONT.866105,R 1 CONDE DE VIMIOSO,,5230-316,VIMIOSO,-6.528373559283331,41.58353396268304
pt.ine.add.PTCONT.866324,ESTR MUNICIPAL,,5230-010,ALGOSO,-6.544521054939089,41.4975780580874
pt.ine.add.PTCONT.866325,LG DA ESCOLA,,5230-010,ALGOSO,-6.540445823675478,41.497233576342815
pt.ine.add.PTCONT.866326,R DO TOURAL,,5230-010,ALGOSO,-6.571944723315762,41.47166354670085
pt.ine.add.PTCONT.866327,CAM DO CAMPO,47,5230-010,ALGOSO,-6.5744487198145585,41.473075043621456
pt.ine.add.PTCONT.866328,R DA PENA DA MAIA,,5230-010,ALGOSO,-6.572906135859262,41.469011563510016
pt.ine.add.PTCONT.866329,R PRINCIPAL,101,5230-063,ARGOZELO,-6.600778833250138,41.64127869610013
pt.ine.add.PTCONT.866368,R DO TRONCO,,5230-055,ARGOZELO,-6.601248749411546,41.64170811333693
pt.ine.add.PTCONT.866369,R DO CALVÁRIO,28,5230-028,ARGOZELO,-6.603060223311282,41.63819396789671
pt.ine.add.PTCONT.866370,EN 218,,5230-063,ARGOZELO,-6.603019379663973,41.634340031038604
pt.ine.add.PTCONT.866399,R DAS EIRAS,,5230-100,CAMPO DE VÍBORAS,-6.556224528271976,41.52310176458498
pt.ine.add.PTCONT.866423,R DOS GATOS,1,5230-123,CARÇÃO,-6.587115733518696,41.5932523050341
pt.ine.add.PTCONT.866424,R DO MEIO,12,5230-133,CARÇÃO,-6.587561919962055,41.59315026558152
pt.ine.add.PTCONT.866425,R DO VALE FARTO,,5230-134,CARÇÃO,-6.587707650753637,41.591063456697995
pt.ine.add.PTCONT.866426,R DO VALE FALCÃO,18,5230-126,CARÇÃO,-6.588038406682494,41.591274979290574
pt.ine.add.PTCONT.866427,R DA GUERRA,,5230-158,MATELA VMS,-6.613107676833426,41.516421990980874
pt.ine.add.PTCONT.866428,R DAS EIRAS,,5230-158,MATELA VMS,-6.623459168490392,41.51120131650985
pt.ine.add.PTCONT.866429,ESTR DA JUNQUEIRA,,5230-156,MATELA VMS,-6.625367933658797,41.50482490553261
pt.ine.add.PTCONT.866430,R DAS EIRAS,11,5230-182,PINELO,-6.542732030521982,41.67364882794242
pt.ine.add.PTCONT.866462,R EMPEDRADA,12,5230-181,PINELO,-6.551644680651171,41.637236849610765
pt.ine.add.PTCONT.866463,R DO TOURAL,3,5230-233,UVA,-6.504216000571023,41.53560264603996
pt.ine.add.PTCONT.866464,R DA IGREJA,12,5230-233,UVA,-6.504373056387594,41.53459649588812
pt.ine.add.PTCONT.866465,LG DA FIGUEIRA,19,5230-253,VALE DE FRADES,-6.4945374811828875,41.64546700323515
pt.ine.add.PTCONT.866506,R DA IGREJA,,5230-252,VALE DE FRADES,-6.460514582599217,41.62855504338986
pt.ine.add.PTCONT.866507,R DO CASCALHAL,,5230-251,VALE DE FRADES,-6.471170486948044,41.60799324335017
pt.ine.add.PTCONT.866508,R DA IGREJA,3,5230-270,VILAR SECO VMS,-6.40645132362178,41.521607306599826
pt.ine.add.PTCONT.866509,R DA PANEIRA,3,5230-270,VILAR SECO VMS,-6.405799400172224,41.52179558702129
pt.ine.add.PTCONT.866510,BR DE FONTE COLAÇO,,5230-328,VIMIOSO,-6.523545214770178,41.59543181642575
pt.ine.add.PTCONT.866511,BR DO NAVARRO,18,5230-305,VIMIOSO,-6.53125338076539,41.58782368418126
pt.ine.add.PTCONT.866512,BR CONS CASIMIRO PIRES,7,5230-300,VIMIOSO,-6.52881904274961,41.5863672144922
pt.ine.add.PTCONT.866513,AV DE ALCANICES,9,5230-308,VIMIOSO,-6.531615177953931,41.584830629707355
pt.ine.add.PTCONT.866547,R DA MALHADA,49,5230-320,VIMIOSO,-6.52675050667463,41.58080130088501
pt.ine.add.PTCONT.866799,R DA ESTRADA,,5230-253,VALE DE FRADES,-6.492740847609465,41.6434246579041
pt.ine.add.PTCONT.866807,R DAS EIRAS,,5230-100,CAMPO DE VÍBORAS,-6.556127360989118,41.52364963901776
pt.ine.add.PTCONT.866839,EN 218,2,5230-341,VIMIOSO,-6.533562092952977,41.582714954178044
pt.ine.add.PTCONT.866852,R DO SAGRADO,,5230-054,ARGOZELO,-6.598859554876913,41.64173926463728
pt.ine.add.PTCONT.866866,BR CONS CASIMIRO PIRES,11,5230-300,VIMIOSO,-6.5283679138183555,41.586667029075876
pt.ine.add.PTCONT.866879,R DA PRAÇA,21,5230-232,UVA,-6.509620059609582,41.492471846874516
pt.ine.add.PTCONT.866886,R PRINCIPAL,116,5230-063,ARGOZELO,-6.600976069804546,41.64142659046127
pt.ine.add.PTCONT.867444,R DOS PINHÕES,3,5230-020,ANGUEIRA,-6.406778754259778,41.615101948111544
pt.ine.add.PTCONT.867445,R DO VALE,6,5230-134,CARÇÃO,-6.589169576715874,41.593126854239735
pt.ine.add.PTCONT.867446,R DO EIRÓ,4,5230-156,MATELA VMS,-6.628757551322497,41.50999226717044
pt.ine.add.PTCONT.867447,R DO CEREJAL,35,5230-212,SANTULHÃO,-6.6225376265717015,41.564714476300274
pt.ine.add.PTCONT.867448,R DO CHAPAÇAL,22,5230-270,VILAR SECO VMS,-6.405197536828393,41.5268554065863
pt.ine.add.PTCONT.867451,R DO CAXÃO,,5230-020,ANGUEIRA,-6.408376624771016,41.61546805944572
pt.ine.add.PTCONT.867456,R DE VALE DE MILHOS,8,5230-064,ARGOZELO,-6.603001676919269,41.64675527517272
pt.ine.add.PTCONT.867457,R DA PRAÇA,13,5230-122,CARÇÃO,-6.587012165539122,41.59256666045374
pt.ine.add.PTCONT.867458,R PRINCIPAL,,5230-152,MATELA VMS,-6.642602951478184,41.48131641722725
pt.ine.add.PTCONT.867459,AV DO SABOR,,5230-201,SANTULHÃO,-6.6221573324407075,41.56199946394087
pt.ine.add.PTCONT.867460,R DO CHAPAÇAL,11,5230-270,VILAR SECO VMS,-6.404917535197866,41.52702226082467
pt.ine.add.PTCONT.867462,LG DA FONTE ALDE,10,5230-270,VILAR SECO VMS,-6.405860957539123,41.52218365430695
pt.ine.add.PTCONT.867468,BR DE BAIXO,,5230-051,ARGOZELO,-6.59871023392182,41.641962352187065
pt.ine.add.PTCONT.867469,R DR POLICARPO LIBERAL,,5230-342,VIMIOSO,-6.528079797133794,41.59248813124126
pt.ine.add.PTCONT.867470,R DE S JOSÉ,3,5230-090,CAÇARELHOS,-6.433136872979839,41.560250999659296
pt.ine.add.PTCONT.867471,BR DE STO ESTEVÃO,20,5230-124,CARÇÃO,-6.582256491348716,41.59383508437896
pt.ine.add.PTCONT.867472,AV DE ALCANICES,29,5230-308,VIMIOSO,-6.528443111075239,41.589441091134766
pt.ine.add.PTCONT.867473,R DOS LAMADEIROS,,5230-308,VIMIOSO,-6.531324667232982,41.59124592625841
pt.ine.add.PTCONT.867476,EN 219,,5230-010,ALGOSO,-6.57517312890846,41.47531772173801
pt.ine.add.PTCONT.867477,R DE S JOÃO,,5230-042,ARGOZELO,-6.60017762041479,41.64335042777232
pt.ine.add.PTCONT.867478,R PRINCIPAL,112,5230-063,ARGOZELO,-6.600977400081645,41.64152581136519
pt.ine.add.PTCONT.867479,R DA SERRA,30,5230-100,CAMPO DE VÍBORAS,-6.557182986976068,41.527049388448404
pt.ine.add.PTCONT.867480,R DOS CANIÇOS,,5230-231,UVA,-6.518871086011746,41.47532449926043
pt.ine.add.PTCONT.867481,R DA ESCOLA PRIMÁRIA,4,5230-321,VIMIOSO,-6.5229358029145255,41.58569073531811
pt.ine.add.PTCONT.867482,EN 219,,5230-010,ALGOSO,-6.576029919898857,41.47403282504108
pt.ine.add.PTCONT.867483,R DA IGREJA,,5230-042,ARGOZELO,-6.600881599476933,41.64251351092992
pt.ine.add.PTCONT.867484,BR DE BAIXO,,5230-051,ARGOZELO,-6.598921723333124,41.642154243830966
pt.ine.add.PTCONT.867485,R DAS EIRAS DAS FIGUEIRAS,,5230-045,ARGOZELO,-6.602219789271246,41.640235516776094
pt.ine.add.PTCONT.867486,R 25 DE ABRIL,13,5230-124,CARÇÃO,-6.587309510687623,41.59015777183744
pt.ine.add.PTCONT.867487,AV DO SABOR,22,5230-201,SANTULHÃO,-6.618710417185891,41.565357382301734
pt.ine.add.PTCONT.867489,R PRINCIPAL,,5230-063,ARGOZELO,-6.6007736594746556,41.640990523223266
pt.ine.add.PTCONT.867490,R 25 DE ABRIL,2,5230-124,CARÇÃO,-6.586000741863952,41.590725379445026
pt.ine.add.PTCONT.867491,R FRANCISCO ALEXANDRE,,5230-217,SANTULHÃO,-6.617163179491597,41.56436462604342
pt.ine.add.PTCONT.867492,AV DE S ROQUE,,5230-010,ALGOSO,-6.572859849473059,41.47044248918866
pt.ine.add.PTCONT.867493,R PRINCIPAL,192,5230-063,ARGOZELO,-6.601515456006418,41.63956889511174
pt.ine.add.PTCONT.867494,R PRINCIPAL,192,5230-063,ARGOZELO,-6.601515456006418,41.63956889511174
pt.ine.add.PTCONT.867495,R DO CEREJAL,30,5230-212,SANTULHÃO,-6.6222512905482525,41.5651698852941
pt.ine.add.PTCONT.867496,LG DE S ROQUE,6,5230-010,ALGOSO,-6.572359316202331,41.46985047107597
pt.ine.add.PTCONT.867497,R DA IGREJA,,5230-207,SANTULHÃO,-6.6240810518970825,41.564329594876185
pt.ine.add.PTCONT.867498,R DA RAPADOURA,38,5230-322,VIMIOSO,-6.528052558537568,41.58148573304326
pt.ine.add.PTCONT.867501,R DO TORRIEIRO,,5230-080,AVELANOSO,-6.421723561332551,41.65651491626033
pt.ine.add.PTCONT.867502,R DO MOUCHO,,5230-080,AVELANOSO,-6.423836031476174,41.65743766843677
pt.ine.add.PTCONT.867503,LOTEAM DOS QUEIREDOS,,5230-329,VIMIOSO,-6.527236561688436,41.57570322108508
pt.ine.add.PTCONT.867505,R DO CRUZEIRO,,5230-025,ARGOZELO,-6.601063734383858,41.63887862717082
pt.ine.add.PTCONT.867506,BC DA PORTELA,,5230-157,MATELA VMS,-6.6313968232300375,41.511368280682525
pt.ine.add.PTCONT.867510,R DA ESCOLA,,5230-020,ANGUEIRA,-6.407062940067562,41.61704190014201
pt.ine.add.PTCONT.867511,R DO CALVÁRIO,,5230-028,ARGOZELO,-6.602234782079133,41.638588121764876
pt.ine.add.PTCONT.867512,R DO CALVÁRIO,1,5230-028,ARGOZELO,-6.601548830783513,41.639173196909724
pt.ine.add.PTCONT.867628,R DE VALE DE MILHOS,8,5230-064,ARGOZELO,-6.603001676919269,41.64675527517272
pt.ine.add.PTCONT.867629,R DA CANCELA,,5230-152,MATELA VMS,-6.643211735078258,41.48191853707908
pt.ine.add.PTCONT.867633,R PRINCIPAL,192,5230-063,ARGOZELO,-6.601515456006418,41.63956889511174
pt.ine.add.PTCONT.868111,R DO VALE,,5230-010,ALGOSO,-6.57641904115245,41.470778833201024
pt.ine.add.PTCONT.868131,R LATEDO DE CIMA,4,5230-059,ARGOZELO,-6.600073717420111,41.645707891009934
pt.ine.add.PTCONT.868132,BR DE BAIXO,,5230-051,ARGOZELO,-6.598426364355271,41.642291681772086
pt.ine.add.PTCONT.868133,R DO SAGRADO,,5230-054,ARGOZELO,-6.5990849641535085,41.641850312616924
pt.ine.add.PTCONT.868134,R DO RECOSTO,,5230-053,ARGOZELO,-6.5975876236729745,41.64020973182916
pt.ine.add.PTCONT.868135,R DO RECOSTO,,5230-053,ARGOZELO,-6.6000911460850755,41.63991003446532
pt.ine.add.PTCONT.868166,R DA COVA,,5230-064,ARGOZELO,-6.602608967218253,41.64559763105326
pt.ine.add.PTCONT.868167,R DR ADRIÃO MARTINS AMADO,,5230-064,ARGOZELO,-6.601953335913992,41.64591301428528
pt.ine.add.PTCONT.868168,R DAS EIRIÇAS,,5230-080,AVELANOSO,-6.427836417129512,41.65642573159134
pt.ine.add.PTCONT.868169,R DO TORRIEIRO,,5230-080,AVELANOSO,-6.420069922683208,41.656400244905626
pt.ine.add.PTCONT.868186,R DO OUTÃO,,5230-100,CAMPO DE VÍBORAS,-6.556391978776313,41.52557999431223
pt.ine.add.PTCONT.868187,R DAS FONTES,,5230-100,CAMPO DE VÍBORAS,-6.5551622497024296,41.52392450644715
pt.ine.add.PTCONT.868188,LG DAS EIRAS,3,5230-100,CAMPO DE VÍBORAS,-6.555841209705465,41.52161994980639
pt.ine.add.PTCONT.868189,R DE STO ESTEVÃO,1,5230-124,CARÇÃO,-6.583670825277952,41.59387216470492
pt.ine.add.PTCONT.868190,R PADRE AMÂNDIO LOPES,17,5230-135,CARÇÃO,-6.584948328618966,41.59411446084027
pt.ine.add.PTCONT.868191,R 1 DE MAIO,10,5230-123,CARÇÃO,-6.588750188266343,41.592608031545105
pt.ine.add.PTCONT.868203,R DE S ROQUE,29,5230-131,CARÇÃO,-6.58978345324631,41.591523505258486
pt.ine.add.PTCONT.868204,BR DA QUINTA,4,5230-128,CARÇÃO,-6.583955172538934,41.59201231247047
pt.ine.add.PTCONT.868205,R DO VALE FALCÃO,14,5230-126,CARÇÃO,-6.589525697107503,41.59126795142379
pt.ine.add.PTCONT.868206,R DO CANCELO,1,5230-158,MATELA VMS,-6.631943758750776,41.50998889061236
pt.ine.add.PTCONT.868207,R DO CANCELO,,5230-158,MATELA VMS,-6.632899163263085,41.509074003749134
pt.ine.add.PTCONT.868228,R DA IGREJA,,5230-152,MATELA VMS,-6.6428693588234635,41.480662614150226
pt.ine.add.PTCONT.868229,LG DO TOURALICO,3,5230-181,PINELO,-6.55457155596961,41.636313743540235
pt.ine.add.PTCONT.868244,R 1 CONDE DE VIMIOSO,,5230-316,VIMIOSO,-6.528518298465735,41.58349997006341
pt.ine.add.PTCONT.868369,R DE STO ANTÓNIO,,5230-010,ALGOSO,-6.5772794458478625,41.47034030233882
pt.ine.add.PTCONT.868394,R PRINCIPAL,56,5230-063,ARGOZELO,-6.601062213855906,41.643210159021756
pt.ine.add.PTCONT.868404,R PEQUENA,10,5230-233,UVA,-6.504330633076546,41.53262540858457
pt.ine.add.PTCONT.868540,R DA CONSTITUIÇÃO,4,5230-040,ARGOZELO,-6.59994411422591,41.6415556672206
pt.ine.add.PTCONT.868541,LG DE S SEBASTIÃO,,5230-032,ARGOZELO,-6.600504416047375,41.63969046528344
pt.ine.add.PTCONT.868542,BR DAS MINAS,,5230-066,ARGOZELO,-6.603930104946062,41.64657856486294
pt.ine.add.PTCONT.868543,R DA CABREIRA,,5230-039,ARGOZELO,-6.601308374783354,41.64223109634239
pt.ine.add.PTCONT.868544,R DO TORRIEIRO,,5230-080,AVELANOSO,-6.421030570395145,41.65593739604224
pt.ine.add.PTCONT.868545,R DA IGREJA,8,5230-127,CARÇÃO,-6.585701624858246,41.59320626688282
pt.ine.add.PTCONT.868546,R DE S ROQUE,,5230-131,CARÇÃO,-6.591283374621129,41.59199379988135
pt.ine.add.PTCONT.868547,R DO EIRÓ,,5230-156,MATELA VMS,-6.6296611415337035,41.510283192241346
pt.ine.add.PTCONT.868548,R DO TOURAL,14,5230-233,UVA,-6.504496036997053,41.536380901291544
pt.ine.add.PTCONT.868549,R DE S JOÃO,16,5230-251,VALE DE FRADES,-6.4729055418634855,41.60909870629472
pt.ine.add.PTCONT.868550,R DA FONTAZIA,5,5230-270,VILAR SECO VMS,-6.4053458049717165,41.52893739825132
pt.ine.add.PTCONT.868551,R DA PORTELA,22,5230-321,VIMIOSO,-6.5242008475378785,41.58497017951687
pt.ine.add.PTCONT.868552,R DA RAPADOURA,40,5230-322,VIMIOSO,-6.527922931743093,41.581393889997635
pt.ine.add.PTCONT.869146,EN 218,,5230-073,,-6.604926870738592,41.65518991274191
pt.ine.add.PTCONT.869147,R LATEDO DE CIMA,,5230-059,ARGOZELO,-6.59794026964588,41.64658873833736
pt.ine.add.PTCONT.869148,R DO CHAPEIRÃO,2,5230-090,CAÇARELHOS,-6.4356373044544535,41.5622686696424
pt.ine.add.PTCONT.869149,R DA IGREJA,4,5230-100,CAMPO DE VÍBORAS,-6.554524376683728,41.524536984586156
pt.ine.add.PTCONT.869150,R DA IGREJA,,5230-152,MATELA VMS,-6.642736049943216,41.48073291460302
pt.ine.add.PTCONT.869151,R DO PESO,7,5230-181,PINELO,-6.554022759613048,41.636180159025166
pt.ine.add.PTCONT.869152,BR DE VALE DE COVO,,5230-306,VIMIOSO,-6.527819331446284,41.59477132655146
pt.ine.add.PTCONT.869153,AV DE ALCANICES,27,5230-308,VIMIOSO,-6.528626949349524,41.58928159830249
pt.ine.add.PTCONT.869154,LG DA CAPELA,26,5230-309,VIMIOSO,-6.5267238511169285,41.586229913606886
pt.ine.add.PTCONT.869231,VALE DE FRADES,,5230-253,VALE DE FRADES,-6.418612798489472,41.652498163687596
pt.ine.add.PTCONT.869234,R DAS EIRIÇAS,7,5230-181,PINELO,-6.555285242463323,41.63657563460385
pt.ine.add.PTCONT.869323,R DAS EIRAS DAS FIGUEIRAS,22,5230-045,ARGOZELO,-6.601188243690388,41.64119461424901
pt.ine.add.PTCONT.869824,R DE S BARTOLOMEU,,5230-048,ARGOZELO,-6.605539849002176,41.6495710421966
pt.ine.add.PTCONT.869825,R DIREITA,,5230-210,SANTULHÃO,-6.621356420956962,41.564473864973976
pt.ine.add.PTCONT.869826,R DO CHAPAÇAL,6,5230-270,VILAR SECO VMS,-6.405172865748269,41.5277823762563
pt.ine.add.PTCONT.869828,R DA PRAÇA,32,5230-122,CARÇÃO,-6.586263884906595,41.59276366925262
pt.ine.add.PTCONT.869829,R FRANCISCO ALEXANDRE,1,5230-217,SANTULHÃO,-6.615272267665397,41.56269205929493
pt.ine.add.PTCONT.869831,QTA DO BENTO,,5230-152,MATELA VMS,-6.642031943309417,41.480111549266944
pt.ine.add.PTCONT.869832,BR DAS TALHINHAS,,5230-210,SANTULHÃO,-6.6238249753680005,41.56194033957182
pt.ine.add.PTCONT.869835,R LATEDO DE CIMA,15,5230-059,ARGOZELO,-6.5991071592010355,41.64597409360082
pt.ine.add.PTCONT.869836,R LATEDO DE CIMA,18,5230-059,ARGOZELO,-6.599246239637641,41.64618302449136
pt.ine.add.PTCONT.869837,R DE S ROQUE,,5230-131,CARÇÃO,-6.591353167919976,41.592084769166725
pt.ine.add.PTCONT.869838,BR DO VALE DE S MIGUEL,8,5230-306,VIMIOSO,-6.516582676363107,41.58991413625005
pt.ine.add.PTCONT.869841,BR DE STO ESTEVÃO,12,5230-124,CARÇÃO,-6.582841177846874,41.593960014557744
pt.ine.add.PTCONT.869844,R DAS PARREIRAS,9,5230-232,UVA,-6.51067210684218,41.49254071590532
pt.ine.add.PTCONT.869845,BR DE VALE DE COVO,1,5230-306,VIMIOSO,-6.526782471785381,41.59305522164175
pt.ine.add.PTCONT.869846,R DO BR DE MORA,27,5230-232,UVA,-6.50930574467866,41.489235182131054
pt.ine.add.PTCONT.869847,BR DE VALE DE COVO,,5230-306,VIMIOSO,-6.527279422784111,41.59429561450841
pt.ine.add.PTCONT.869852,R DAS EIRAS DAS FIGUEIRAS,,5230-045,ARGOZELO,-6.601702924910376,41.64128201049819
pt.ine.add.PTCONT.869853,R DAS EIRAS DAS FIGUEIRAS,64,5230-045,ARGOZELO,-6.602905323521895,41.64118998772536
pt.ine.add.PTCONT.869857,R PRINCIPAL,,5230-063,ARGOZELO,-6.600572300561101,41.6413839810691
pt.ine.add.PTCONT.869858,R PRINCIPAL,179,5230-063,ARGOZELO,-6.6014231557076455,41.63991879170097
pt.ine.add.PTCONT.869859,R PRINCIPAL,179,5230-063,ARGOZELO,-6.6014231557076455,41.63991879170097
pt.ine.add.PTCONT.869860,R DA LAGOA,,5230-100,CAMPO DE VÍBORAS,-6.557201231749563,41.52481679731793
pt.ine.add.PTCONT.869861,R DE S ROQUE,14,5230-131,CARÇÃO,-6.59085458860173,41.58985426193849
pt.ine.add.PTCONT.869865,R DO SAGRADO,26,5230-054,ARGOZELO,-6.599591249706559,41.641758033837284
pt.ine.add.PTCONT.869866,R DO CALVÁRIO,,5230-028,ARGOZELO,-6.603628995794098,41.63647291412632
pt.ine.add.PTCONT.869877,R DO CASCALHAL,,5230-251,VALE DE FRADES,-6.472821169609244,41.60771099051612
pt.ine.add.PTCONT.869879,R DO CALVÁRIO,,5230-028,ARGOZELO,-6.601811167856842,41.638231351366
pt.ine.add.PTCONT.869880,R DA PORTELA,9,5230-157,MATELA VMS,-6.6310237386227096,41.51144443864645
pt.ine.add.PTCONT.870005,R DE S PEDRO,2,5230-090,CAÇARELHOS,-6.431295795476279,41.55686553685109
pt.ine.add.PTCONT.870006,LG DA CAPELA,,5230-309,VIMIOSO,-6.52791755569683,41.58596748758643
pt.ine.add.PTCONT.870017,R DR TRIGO NEGREIROS,66,5230-326,VIMIOSO,-6.526797291618926,41.590039329728725
pt.ine.add.PTCONT.870051,ESTR DA MATELA,,5230-208,SANTULHÃO,-6.622263466141648,41.557958343010895
pt.ine.add.PTCONT.870052,BR DE S VICENTE,22,5230-342,VIMIOSO,-6.526974642990779,41.5920765496291
pt.ine.add.PTCONT.870550,R DE S BARTOLOMEU,,5230-048,ARGOZELO,-6.605164908835307,41.648674737222386
pt.ine.add.PTCONT.870551,R DA FRÁGUA,22,5230-210,SANTULHÃO,-6.622666485581061,41.564329024544776
pt.ine.add.PTCONT.870554,R DA IGREJA,,5230-020,ANGUEIRA,-6.4094789571771695,41.61462029141195
pt.ine.add.PTCONT.870556,AV DO SABOR,,5230-201,SANTULHÃO,-6.6207291923517495,41.56309710285592
pt.ine.add.PTCONT.870560,R DO SANTO CRISTO,7,5230-090,CAÇARELHOS,-6.436860633289945,41.564078378649704
pt.ine.add.PTCONT.870561,LG DA FONTE ALDE,8,5230-270,VILAR SECO VMS,-6.4057534198610195,41.5221730353784
pt.ine.add.PTCONT.870564,R DE S ROQUE,22,5230-131,CARÇÃO,-6.590002885478024,41.59187758047858
pt.ine.add.PTCONT.870565,R LATEDO DE BAIXO,,5230-058,ARGOZELO,-6.599791498656263,41.64546103843424
pt.ine.add.PTCONT.870566,R DO TOURAL,2,5230-233,UVA,-6.504111809878709,41.535457116219106
pt.ine.add.PTCONT.870567,R DO TOURAL,17,5230-232,UVA,-6.505435128767114,41.53715948495036
pt.ine.add.PTCONT.870572,BR DE VALE DE COVO,35,5230-306,VIMIOSO,-6.52703411939129,41.59403109214787
pt.ine.add.PTCONT.870573,R DA BARRACA,,5230-010,ALGOSO,-6.539865073986704,41.49796381190302
pt.ine.add.PTCONT.870574,R DA CABREIRA,,5230-039,ARGOZELO,-6.601212172783797,41.64223881727812
pt.ine.add.PTCONT.870575,LG DO TOURALICO,4,5230-181,PINELO,-6.554760217203624,41.636451383192096
pt.ine.add.PTCONT.870576,R DA PORTELA,47 A,5230-321,VIMIOSO,-6.524710950290894,41.5851933972221
pt.ine.add.PTCONT.870578,R DO VALE FALCÃO,8,5230-126,CARÇÃO,-6.588725861403655,41.591113154834375
pt.ine.add.PTCONT.870579,R DOS OLMICOS,3,5230-181,PINELO,-6.554111354261734,41.63599230846711
pt.ine.add.PTCONT.870581,R DAS EIRAS DAS FIGUEIRAS,,5230-045,ARGOZELO,-6.602746291513751,41.64080973370102
pt.ine.add.PTCONT.870582,R 25 DE ABRIL,9,5230-124,CARÇÃO,-6.587045111136677,41.59018122583663
pt.ine.add.PTCONT.870583,AV DO SABOR,,5230-201,SANTULHÃO,-6.614652176477595,41.56767173443964
pt.ine.add.PTCONT.870584,R DA IGREJA,16,5230-253,VALE DE FRADES,-6.4944930023778555,41.64722198994613
pt.ine.add.PTCONT.870585,R DR TRIGO NEGREIROS,29,5230-326,VIMIOSO,-6.527967419314846,41.58879521612054
pt.ine.add.PTCONT.870586,R DR FRANCISCO SÁ CARNEIRO,21,5230-330,VIMIOSO,-6.529598211719353,41.58686426423324
pt.ine.add.PTCONT.870588,R DAS EIRAS DAS FIGUEIRAS,,5230-045,ARGOZELO,-6.602038389467023,41.640800304861585
pt.ine.add.PTCONT.870589,R DO RIBEIRO,1,5230-253,VALE DE FRADES,-6.493631355984437,41.6438064964376
pt.ine.add.PTCONT.870592,R DE STO ANTÓNIO,,5230-010,ALGOSO,-6.5773465109538485,41.47053928624801
pt.ine.add.PTCONT.870593,R PRINCIPAL,103,5230-063,ARGOZELO,-6.60079253781216,41.64120685285699
pt.ine.add.PTCONT.870594,R DA ESTRADA,1,5230-253,VALE DE FRADES,-6.49221097850031,41.643020952975924
pt.ine.add.PTCONT.870595,LG PRINCIPAL,,5230-153,MATELA VMS,-6.61559561811331,41.51658090132978
pt.ine.add.PTCONT.870597,,,5230-010,ALGOSO,-6.57303774328281,41.47001273543769
pt.ine.add.PTCONT.870598,LG DE S SEBASTIÃO,,5230-032,ARGOZELO,-6.600443572217111,41.63972566686106
pt.ine.add.PTCONT.870599,AV DE ALCANICES,,5230-308,VIMIOSO,-6.53105526463099,41.585651130249026
pt.ine.add.PTCONT.870600,ESTR CAMPO DE VÍBORAS,24,5230-285,VIMIOSO,-6.529795447480744,41.57404631873308
pt.ine.add.PTCONT.870602,R DO ALTO DO CALVÁRIO,,5230-027,ARGOZELO,-6.601405585458764,41.63812691077037
pt.ine.add.PTCONT.870603,BR DE CIMA,16,5230-121,CARÇÃO,-6.588181506428422,41.59332065441707
pt.ine.add.PTCONT.870604,R DO CEREJAL,10,5230-212,SANTULHÃO,-6.62177065400061,41.565217587726245
pt.ine.add.PTCONT.870605,R DO CASCALHAL,,5230-251,VALE DE FRADES,-6.473049007164278,41.607714281530605
pt.ine.add.PTCONT.870607,R DA ESCOLA,,5230-020,ANGUEIRA,-6.406843719233595,41.61671449311832
pt.ine.add.PTCONT.870608,R DAS EIRIÇAS,,5230-080,AVELANOSO,-6.42775550282509,41.656307490051105
pt.ine.add.PTCONT.870609,R DIREITA,3,5230-210,SANTULHÃO,-6.622627110892206,41.56344617689624
pt.ine.add.PTCONT.870610,R CONS JOSÉ ALPOIM,24,5230-317,VIMIOSO,-6.528108844822627,41.58453863553803
pt.ine.add.PTCONT.870705,ESTR DE S BARTOLOMEU,,5230-048,ARGOZELO,-6.6049758037774025,41.64804199611118
pt.ine.add.PTCONT.870715,BR DE STO ESTEVÃO,16,5230-124,CARÇÃO,-6.582677558170984,41.59428192670788
pt.ine.add.PTCONT.871284,LG DAS OLMEDAS,,5230-080,AVELANOSO,-6.423944248101587,41.65516148580882
pt.ine.add.PTCONT.871285,R DO VALE,20,5230-134,CARÇÃO,-6.589893409125923,41.59395587570003
pt.ine.add.PTCONT.871286,AV DO SABOR,19,5230-201,SANTULHÃO,-6.619304996210259,41.56402371158235
pt.ine.add.PTCONT.871287,R DA PATEIRA,1,5230-270,VILAR SECO VMS,-6.406168529656694,41.525033321008124
pt.ine.add.PTCONT.871295,R ABEL AUGUSTO MORENO,10,5230-090,CAÇARELHOS,-6.439540407449846,41.563370618495576
pt.ine.add.PTCONT.871296,R DAS EIRAS,19,5230-182,PINELO,-6.541972858428446,41.6732691880633
pt.ine.add.PTCONT.871301,R DA FONTE DE CIMA,9,5230-182,PINELO,-6.543838658228435,41.67162041897948
pt.ine.add.PTCONT.871305,R DE S ROQUE,8,5230-049,ARGOZELO,-6.601364222818447,41.643420268991804
pt.ine.add.PTCONT.871306,R DE S ROQUE,8,5230-049,ARGOZELO,-6.601364222818447,41.643420268991804
pt.ine.add.PTCONT.871307,R DE S LÁZARO,,5230-201,SANTULHÃO,-6.627554100861943,41.55931523425881
pt.ine.add.PTCONT.871308,LG DA CAPELA,25,5230-309,VIMIOSO,-6.527309245688724,41.58631912266152
pt.ine.add.PTCONT.871309,R DR TRIGO NEGREIROS,20,5230-326,VIMIOSO,-6.5272593937672605,41.587362807593784
pt.ine.add.PTCONT.871311,R DO ALECRIM,,5230-050,ARGOZELO,-6.599544245659967,41.643233938634395
pt.ine.add.PTCONT.871312,R DE S ROQUE,,5230-049,ARGOZELO,-6.601770414966677,41.642993526489676
pt.ine.add.PTCONT.871313,LG DA IGREJA,2,5230-181,PINELO,-6.552393578275419,41.6370400785195
pt.ine.add.PTCONT.871317,LG DA ESCOLA,,5230-010,ALGOSO,-6.540627600675619,41.497146059669156
pt.ine.add.PTCONT.871318,R DE S JOÃO,,5230-042,ARGOZELO,-6.60025217351637,41.64324338328057
pt.ine.add.PTCONT.871319,R DA SERRA,,5230-100,CAMPO DE VÍBORAS,-6.557046253728538,41.52675940571697
pt.ine.add.PTCONT.871320,R DE S JERÓNIMO,2,5230-181,PINELO,-6.5531604999990005,41.636105285514546
pt.ine.add.PTCONT.871321,R DOS CANIÇOS,,5230-231,UVA,-6.518451211071452,41.474877435910855
pt.ine.add.PTCONT.871322,R DO CEMITÉRIO,2,5230-339,VIMIOSO,-6.5258322566098075,41.57866368692034
pt.ine.add.PTCONT.871325,R DO VALE FALCÃO,20,5230-126,CARÇÃO,-6.588646416737968,41.59142720337591
pt.ine.add.PTCONT.871326,R DA IGREJA,27,5230-253,VALE DE FRADES,-6.494800729150404,41.64692026922331
pt.ine.add.PTCONT.871327,R DA FONTE NOVA,8,5230-319,VIMIOSO,-6.526883281118211,41.58415238157923
pt.ine.add.PTCONT.871328,R DA PORTELA,8,5230-321,VIMIOSO,-6.525745748136558,41.584568638466045
pt.ine.add.PTCONT.871334,LG MENDO RUFINO,16,5230-314,VIMIOSO,-6.5293802852745255,41.58597890156062
pt.ine.add.PTCONT.871335,R DAS EIRAS,40,5230-334,VIMIOSO,-6.522570541924542,41.58494734857648
pt.ine.add.PTCONT.871337,R DO FUNDO DA VILA,35,5230-327,VIMIOSO,-6.531395528459423,41.58255873903588
pt.ine.add.PTCONT.871338,R DA RAPADOURA,14 A,5230-322,VIMIOSO,-6.529227904032704,41.58196130679929
pt.ine.add.PTCONT.871340,R DO RECOSTO,50,5230-053,ARGOZELO,-6.597664527871263,41.640003684665125
pt.ine.add.PTCONT.871341,R DO PEREIRO,,5230-158,MATELA VMS,-6.615819997723522,41.51671891396688
pt.ine.add.PTCONT.871342,BR CONS CASIMIRO PIRES,23,5230-341,VIMIOSO,-6.52825405415472,41.58642235065142
pt.ine.add.PTCONT.871344,R DA PENA DA MAIA,2,5230-010,ALGOSO,-6.572882177100001,41.47001062500556
pt.ine.add.PTCONT.871345,R CONS JOSÉ ALPOIM,39,5230-317,VIMIOSO,-6.528367170718758,41.585244498947105
pt.ine.add.PTCONT.871347,R DE S JOÃO,,5230-251,VALE DE FRADES,-6.472269534310382,41.60863935615141
pt.ine.add.PTCONT.871478,AV DO SABOR,,5230-201,SANTULHÃO,-6.614414765918223,41.56808275287233
