id,street,house,postcode,city,lon,lat
pt.ine.add.PTCONT.853782,,,5320-152,SANTALHA,-7.1104523902008285,41.87873321085363
pt.ine.add.PTCONT.855352,,,5320-198,TUIZELO,-7.055836300343714,41.89210756556844
pt.ine.add.PTCONT.872136,,,5320-152,SANTALHA,-7.110543051683484,41.87606910085765
pt.ine.add.PTCONT.882034,,,5320-160,SÃO JOMIL,-7.182725808280347,41.78811579416247
pt.ine.add.PTCONT.892912,,,5335-136,VALE DE JANEIRO,-7.096773035416349,41.77463293912156
pt.ine.add.PTCONT.849789,R DO EIRÓ,,5320-309,VINHAIS,-7.001566862334363,41.827861724980735
pt.ine.add.PTCONT.849701,AV DE S VENÂNCIO,18,5335-101,REBORDELO,-7.162432561902027,41.7393733686503
pt.ine.add.PTCONT.849702,R DO LOMBO,13,5335-120,REBORDELO,-7.159990985678211,41.737074873792565
pt.ine.add.PTCONT.849703,R DO LOMBO,,5335-120,REBORDELO,-7.159978151439516,41.73712878506283
pt.ine.add.PTCONT.849704,R DA CABINE,,5335-131,REBORDELO,-7.151948964574192,41.766312233996466
pt.ine.add.PTCONT.849705,R DO EIRÓ,,5320-140,SANTA CRUZ VNH,-6.94993602985907,41.89792549519932
pt.ine.add.PTCONT.849725,R DO CABO DA ALDEIA,,5320-163,SOBREIRO DE BAIXO,-7.055899865153519,41.84671456264105
pt.ine.add.PTCONT.849726,R PRINCIPAL,,5320-163,SOBREIRO DE BAIXO,-7.050510848712495,41.83354631948232
pt.ine.add.PTCONT.849727,R DO CIMO DA QUINTA,,5320-163,SOBREIRO DE BAIXO,-7.057602986107733,41.857894393843615
pt.ine.add.PTCONT.849728,,,5320-195,TUIZELO,-7.042247695076753,41.91953756468997
pt.ine.add.PTCONT.849740,BR DA IGREJA,,5335-134,VALE DAS FONTES,-7.1064335174624205,41.73298044769312
pt.ine.add.PTCONT.849741,BR DA PORTELA,48,5320-210,VILA BOA DE OUSILHÃO,-6.925572520042052,41.804336965764314
pt.ine.add.PTCONT.849742,BR DO CERDEIRO,21,5320-210,VILA BOA DE OUSILHÃO,-6.925796810704765,41.80328595528944
pt.ine.add.PTCONT.849760,LG DO TERREIRO,,5320-242,VILAR DE OSSOS,-7.025270088704214,41.85985582029382
pt.ine.add.PTCONT.849761,LG DA CRUZ,,5320-242,VILAR DE OSSOS,-7.0260758355471715,41.85922437034569
pt.ine.add.PTCONT.849762,R PRINCIPAL,,5320-261,VILAR SECO DE LOMBA,-7.149798240899834,41.882606082497475
pt.ine.add.PTCONT.849763,R DO LOUREIRO,,5320-279,VINHAIS,-7.01318391077779,41.85265315151621
pt.ine.add.PTCONT.849764,R DAS VARGES,,5320-279,VINHAIS,-7.016692960218143,41.85375868709851
pt.ine.add.PTCONT.849765,R DE BAIXO,71,5320-327,VINHAIS,-7.000224674688747,41.83434875583454
pt.ine.add.PTCONT.849786,SIT DENTRO DA VILA,,5320-272,VINHAIS,-7.000205147281691,41.83545594787227
pt.ine.add.PTCONT.849787,R DE S FRANCISCO,,5320-321,VINHAIS,-7.008220563558567,41.83352703599963
pt.ine.add.PTCONT.849788,,,5320-277,VINHAIS,-6.992402585829143,41.8287614166915
pt.ine.add.PTCONT.849820,R DO CARVALHAL,,5320-307,VINHAIS,-7.009888771909518,41.82418009752931
pt.ine.add.PTCONT.849821,R DO CARVALHAL,,5320-307,VINHAIS,-7.01102661697818,41.82381308724136
pt.ine.add.PTCONT.849822,,,5320-273,VINHAIS,-7.0065649610742105,41.802990114071925
pt.ine.add.PTCONT.849823,CM 1014,,5320-273,VINHAIS,-7.019277805630708,41.821372518659444
pt.ine.add.PTCONT.849955,R PRINCIPAL,24,5335-033,CANDEDO VNH,-7.105118446717986,41.820651346872886
pt.ine.add.PTCONT.849975,R DAS MORARINHAS,,5320-022,CELAS,-6.942633588198521,41.7029226267604
pt.ine.add.PTCONT.849994,R DA TABERNA,,5335-074,ERVEDOSA VNH,-7.102653184884717,41.7250957086932
pt.ine.add.PTCONT.849995,R 25 DE ABRIL,,5335-071,ERVEDOSA VNH,-7.082045742854796,41.71307867109368
pt.ine.add.PTCONT.849996,LG DE STA ANA,,5335-071,ERVEDOSA VNH,-7.078535941976594,41.71021046023165
pt.ine.add.PTCONT.850018,R DO CABECINHO,,5320-070,MOIMENTA VNH,-6.976847244321605,41.950515986568604
pt.ine.add.PTCONT.850019,R PRINCIPAL,,5320-091,NUNES,-6.984412731304093,41.794919946477236
pt.ine.add.PTCONT.850020,R DA CAPELA,,5320-113,PENHAS JUNTAS,-7.014754660775842,41.74301862680443
pt.ine.add.PTCONT.850041,R DA CUMIEIRA,,5320-131,QUIRÁS,-7.179090160307301,41.97132608189394
pt.ine.add.PTCONT.850042,R DA FONTAÍNHA,35,5335-109,REBORDELO,-7.166032530473184,41.73898957292024
pt.ine.add.PTCONT.850043,AV DE S VENÂNCIO,28,5335-101,REBORDELO,-7.161503145234526,41.73962660930402
pt.ine.add.PTCONT.850044,R PROF CLARO,40,5335-126,REBORDELO,-7.16394939499424,41.74002540946759
pt.ine.add.PTCONT.869166,,,5320-153,SANTALHA,-7.104915726799107,41.90246990072524
pt.ine.add.PTCONT.850067,R DAS CORTINHAS,,5320-140,SANTA CRUZ VNH,-6.950668380692913,41.8974198674781
pt.ine.add.PTCONT.850083,R DA IGREJA,,5320-121,PINHEIRO NOVO,-7.138578531273336,41.964329065289625
pt.ine.add.PTCONT.850091,R DO CIMO DO POVO,,5335-053,CUROPOS,-7.113274423900213,41.798927299355405
pt.ine.add.PTCONT.850134,R DO FUNDO DO POVO,,5335-131,REBORDELO,-7.154274020750332,41.76604396252835
pt.ine.add.PTCONT.850135,R DO OSCAIRO,,5320-140,SANTA CRUZ VNH,-6.949055780048385,41.89730421633527
pt.ine.add.PTCONT.850136,R DO OSCAIRO,,5320-140,SANTA CRUZ VNH,-6.949055780048385,41.89730421633527
pt.ine.add.PTCONT.850143,BR DO EIRÓ,,5320-252,VILAR DE PEREGRINOS,-7.0205825372151445,41.776576293802385
pt.ine.add.PTCONT.850144,SIT DE RESSUMIL,,5320-277,VINHAIS,-6.990934188003463,41.83010629623152
pt.ine.add.PTCONT.850151,TV DO PELOURINHO,,5335-051,CUROPOS,-7.0931611587684955,41.801655003768545
pt.ine.add.PTCONT.850661,R DA MÃE DE ÁGUA,,5335-011,AGROCHÃO,-7.033705294033897,41.69690649653231
pt.ine.add.PTCONT.850662,R DOS ENXERTOS,9,5320-021,CELAS,-6.919051209276882,41.71437115442172
pt.ine.add.PTCONT.850663,LG DA CRUZ,,5320-242,VILAR DE OSSOS,-7.026196557396992,41.85920752781627
pt.ine.add.PTCONT.850664,R DIREITA,,5320-070,MOIMENTA VNH,-6.975250521292355,41.94944654880676
pt.ine.add.PTCONT.850665,R DA CASTANHEIRA,,5320-113,PENHAS JUNTAS,-7.009335305717315,41.744955468661544
pt.ine.add.PTCONT.850666,,,5320-152,SANTALHA,-7.111739340169649,41.875836663419975
pt.ine.add.PTCONT.850667,R DO EIRÓ,,5320-309,VINHAIS,-7.000175387887967,41.82758691659339
pt.ine.add.PTCONT.850668,R DO CARVALHAL,,5320-307,VINHAIS,-7.007414662457672,41.823183535489
pt.ine.add.PTCONT.850669,R DO CARVALHAL,23,5320-307,VINHAIS,-7.007920316352695,41.82386372632952
pt.ine.add.PTCONT.850670,R DO BAIRRO,,5320-163,SOBREIRO DE BAIXO,-7.057163828424871,41.84601516392504
pt.ine.add.PTCONT.850671,R DIREITA,,5320-252,VILAR DE PEREGRINOS,-7.0185745200323915,41.77515232659503
pt.ine.add.PTCONT.850672,R DO CAMPO,,5320-086,MONTOUTO,-7.06698156185838,41.938478145671446
pt.ine.add.PTCONT.850673,R DA RIBEIRA,,5320-222,VILA VERDE VNH,-6.95712630546038,41.8449083352012
pt.ine.add.PTCONT.850674,R DE TRÁS,,5320-010,ALVAREDOS,-7.065631850012423,41.80160954046058
pt.ine.add.PTCONT.850675,R DO CIMO DA QUINTA,,5320-084,MONTOUTO,-7.01223884450587,41.92190441229942
pt.ine.add.PTCONT.850676,R PRINCIPAL,3,5335-031,CANDEDO VNH,-7.092322311584776,41.84157650201905
pt.ine.add.PTCONT.850677,R DO EIRÓ,17,5335-119,REBORDELO,-7.16475271764385,41.73776334435599
pt.ine.add.PTCONT.850678,AV DO SENHOR DOS AFLITOS,8,5335-134,VALE DAS FONTES,-7.110038962113379,41.73073476781909
pt.ine.add.PTCONT.850679,R DO OUTEIRO,,5320-222,VILA VERDE VNH,-6.9574089516822735,41.84459612069004
pt.ine.add.PTCONT.850680,R DA PORTELA DOS FRADES,,5320-325,VINHAIS,-7.017775796753365,41.832323774239605
pt.ine.add.PTCONT.850681,R DO POÇO,7,5335-121,,-7.1651804224348075,41.73649747875991
pt.ine.add.PTCONT.850682,SIT DO VALE DA BOUÇA,,5320-163,SOBREIRO DE BAIXO,-7.054189635992704,41.83169027569194
pt.ine.add.PTCONT.850683,ESTR PRINCIPAL,,5320-092,NUNES,-6.977875249307158,41.79383702450561
pt.ine.add.PTCONT.850684,SIT DENTRO DA VILA,,5320-272,VINHAIS,-7.000491829268791,41.834900581542506
pt.ine.add.PTCONT.850685,R PRINCIPAL,,5335-033,CANDEDO VNH,-7.097758447405537,41.82102639452076
pt.ine.add.PTCONT.850686,R DO COTO,,5320-140,SANTA CRUZ VNH,-6.951818620480686,41.898431041628214
pt.ine.add.PTCONT.850687,R DA ABLIQUEIRA,,5320-140,SANTA CRUZ VNH,-6.951615525946008,41.89768170176265
pt.ine.add.PTCONT.850688,R DA IGREJA,,5320-170,SOEIRA,-6.919226350918071,41.85365211488987
pt.ine.add.PTCONT.850689,R DA CALÇADA,,5320-261,VILAR SECO DE LOMBA,-7.15189438337126,41.88261500943711
pt.ine.add.PTCONT.850690,R DO CAVANCO,,5320-133,QUIRÁS,-7.168644217127438,41.93121144050939
pt.ine.add.PTCONT.850691,TV DA LADEIRA,,5335-134,VALE DAS FONTES,-7.133865224743927,41.72114881849815
pt.ine.add.PTCONT.850692,LG DA FONTE DO ANOQUE,,5335-134,VALE DAS FONTES,-7.134750069738359,41.721435613743
pt.ine.add.PTCONT.850693,R DO CAMPO,,5320-263,VILAR SECO DE LOMBA,-7.171847291310128,41.8776519927115
pt.ine.add.PTCONT.850694,LG DO TRONCO,,5320-023,CELAS,-6.960115324666055,41.72001961302359
pt.ine.add.PTCONT.850695,,,5320-154,SANTALHA,-7.084901559058072,41.917017915141614
pt.ine.add.PTCONT.850696,,,5320-153,SANTALHA,-7.103669654834665,41.904268350508595
pt.ine.add.PTCONT.850697,,,5320-101,PAÇÓ,-6.936098051476116,41.84779714955019
pt.ine.add.PTCONT.850698,R DO EIRÓ,12,5335-119,REBORDELO,-7.164527042633949,41.73838267178443
pt.ine.add.PTCONT.850781,EM 505 1,,5320-140,SANTA CRUZ VNH,-6.9480869209548075,41.89561065727798
pt.ine.add.PTCONT.850787,,,5320-153,SANTALHA,-7.105969958607805,41.9036137214444
pt.ine.add.PTCONT.850812,R DA ERMIDA,,5320-042,EDROSA,-6.953823700332134,41.7453534202528
pt.ine.add.PTCONT.850869,R DA CANCELA,,5320-165,SOBREIRO DE BAIXO,-7.040049784248682,41.83423951294667
pt.ine.add.PTCONT.850870,BR DA PORTELA DA VILA,,5320-302,VINHAIS,-7.012070268154723,41.83919163261584
pt.ine.add.PTCONT.850906,BR DA UCHA,22,5320-303,VINHAIS,-7.012556918960925,41.83130963900161
pt.ine.add.PTCONT.851498,TV DAS PENHAS JUNTAS,,5320-111,PENHAS JUNTAS,-7.062571357549696,41.76354241991395
pt.ine.add.PTCONT.851499,,,5320-152,SANTALHA,-7.111255398023072,41.878992445981055
pt.ine.add.PTCONT.851500,,,5320-193,TUIZELO,-7.072358881958261,41.89265752166741
pt.ine.add.PTCONT.851501,,,5320-193,TUIZELO,-7.074647751457306,41.89049990096861
pt.ine.add.PTCONT.851502,BR DO CALVÁRIO,1,5320-305,VINHAIS,-6.998357788614471,41.83848976909577
pt.ine.add.PTCONT.851503,R DO POÇO,,5320-042,EDROSA,-6.9548338273151336,41.74402230062562
pt.ine.add.PTCONT.851504,,,5320-191,TUIZELO,-7.0874627964023995,41.87086453979843
pt.ine.add.PTCONT.851505,,,5320-191,TUIZELO,-7.087766232283936,41.87072325270441
pt.ine.add.PTCONT.851506,R DA EIRA,,5320-251,VILAR DE PEREGRINOS,-7.022741308494069,41.788787532289504
pt.ine.add.PTCONT.851507,R DE BAIXO,,5335-072,ERVEDOSA VNH,-7.016723332938274,41.72027745798458
pt.ine.add.PTCONT.851508,,,5320-191,TUIZELO,-7.090397869626241,41.87036904765213
pt.ine.add.PTCONT.851509,R DO MEIO DO CAMINHO,,5320-163,SOBREIRO DE BAIXO,-7.056773942389655,41.84557035722531
pt.ine.add.PTCONT.851533,,,5320-197,TUIZELO,-7.036700605107667,41.89782344207822
pt.ine.add.PTCONT.851510,R DE S MIGUEL,,5335-134,VALE DAS FONTES,-7.104915249758896,41.73321896390253
pt.ine.add.PTCONT.851511,R DE CIMA,34,5320-328,,-7.004809922077426,41.835114143646656
pt.ine.add.PTCONT.851512,BC DO NEGRILHO,,5335-071,ERVEDOSA VNH,-7.081037198568323,41.711556880063235
pt.ine.add.PTCONT.851513,R DA NEGACIA,2,5335-119,REBORDELO,-7.164626441440591,41.73816742980581
pt.ine.add.PTCONT.851514,ESTR DA PONTE NOVA,,5320-275,VINHAIS,-7.028803401527973,41.837183991397325
pt.ine.add.PTCONT.851515,AV CAP SOBRINHO ALVES,,5320-010,ALVAREDOS,-7.064803144419748,41.80369057807629
pt.ine.add.PTCONT.851516,R DO PARDAL,1,5335-122,REBORDELO,-7.162144115076006,41.736976046284866
pt.ine.add.PTCONT.851517,R DA IGREJA,33,5335-032,CANDEDO VNH,-7.11963122222286,41.8391287891111
pt.ine.add.PTCONT.851518,BR DR MACHADO,,5320-315,VINHAIS,-7.010415643564917,41.832603185403165
pt.ine.add.PTCONT.851519,R DE S JORGE,96,5335-033,CANDEDO VNH,-7.108118557595828,41.820453079211134
pt.ine.add.PTCONT.851520,LG DE STA ANA,,5335-071,ERVEDOSA VNH,-7.078346816574641,41.710019654142464
pt.ine.add.PTCONT.851521,R DA CARREIRA,,5320-232,VILAR DE LOMBA,-7.183784066747826,41.81096576487015
pt.ine.add.PTCONT.851522,AV PADRE FIRMINO MARTINS,,5320-301,VINHAIS,-7.008635407525765,41.83252274747978
pt.ine.add.PTCONT.851523,BR DE AMIÃ,,5320-100,OUSILHÃO,-6.949371670857872,41.79266451178254
pt.ine.add.PTCONT.851524,R DO COTO,,5320-140,SANTA CRUZ VNH,-6.952261642569346,41.89793142978209
pt.ine.add.PTCONT.851525,R DAS CORTINHAS,,5320-140,SANTA CRUZ VNH,-6.950505279380666,41.8977693053276
pt.ine.add.PTCONT.851526,R DO FUNDO DE VILA,,5320-170,SOEIRA,-6.9199210772267215,41.85384852069308
pt.ine.add.PTCONT.851527,R DOS PENEDOS,7,5320-180,TRAVANCA VNH,-6.996320705041873,41.89233505048467
pt.ine.add.PTCONT.851528,R DA IGREJA,,5320-232,VILAR DE LOMBA,-7.183420296713009,41.8095222420381
pt.ine.add.PTCONT.851529,BR DA UCHA,26,5320-303,VINHAIS,-7.012641797879259,41.83127445454455
pt.ine.add.PTCONT.851530,R DO OUTEIRO,,5320-060,MOFREITA,-6.913898753021951,41.918543457921636
pt.ine.add.PTCONT.851531,R DO SOUTO,,5320-102,PAÇÓ,-6.954768421175314,41.8697236572762
pt.ine.add.PTCONT.851532,R DAS NOGUEIRAS,2,5320-021,CELAS,-6.919819888634779,41.71630597531291
pt.ine.add.PTCONT.851534,BR DE ALÉM,,5320-279,VINHAIS,-7.016795137727563,41.849960369039486
pt.ine.add.PTCONT.851535,,,5320-153,SANTALHA,-7.100128572036164,41.902643007504665
pt.ine.add.PTCONT.851618,,,5320-154,SANTALHA,-7.085108950779193,41.91686675678354
pt.ine.add.PTCONT.851644,SIT DENTRO DA VILA,,5320-272,VINHAIS,-7.0000506082994605,41.834662148180776
pt.ine.add.PTCONT.851676,R DA MÃE DE ÁGUA,,5335-011,AGROCHÃO,-7.033314929499237,41.69690087129619
pt.ine.add.PTCONT.851677,R DAS LAMEIRAS,,5320-279,VINHAIS,-7.011878473389641,41.84741861077441
pt.ine.add.PTCONT.852311,R DO FORNO,,5320-034,EDRAL,-7.185822981730185,41.85470208776679
pt.ine.add.PTCONT.852276,R DA AMOREIRA,,5320-070,MOIMENTA VNH,-6.9760620031003695,41.95058910147333
pt.ine.add.PTCONT.852277,R DA CASTANHEIRA,,5320-113,PENHAS JUNTAS,-7.009404441324049,41.74512720694207
pt.ine.add.PTCONT.852278,LG DO TERREIRO,,5320-242,VILAR DE OSSOS,-7.025367661669436,41.85978473673603
pt.ine.add.PTCONT.852279,R PROF CLARO,36,5335-126,REBORDELO,-7.163793955560736,41.73997007825667
pt.ine.add.PTCONT.852280,R DA CANADA,3,5335-107,REBORDELO,-7.166151237168055,41.738288312426974
pt.ine.add.PTCONT.852281,,,5320-160,SÃO JOMIL,-7.179842375530299,41.789487407282785
pt.ine.add.PTCONT.852282,BR DO CALVÁRIO,5,5320-305,VINHAIS,-6.998559239645469,41.838671821768415
pt.ine.add.PTCONT.852283,R DO VALE,,5335-011,AGROCHÃO,-7.03007133345965,41.69304524799647
pt.ine.add.PTCONT.852284,R DAS MORARINHAS,4,5320-022,CELAS,-6.943061523110151,41.70317014878149
pt.ine.add.PTCONT.852285,R DA CALÇADA,,5320-042,EDROSA,-6.954105097642033,41.74377173689055
pt.ine.add.PTCONT.852286,R DIREITA,1,5320-070,MOIMENTA VNH,-6.9763864185095565,41.949989173431476
pt.ine.add.PTCONT.852287,R DAS PEREIRAS,14,5335-114,REBORDELO,-7.166695995428655,41.736429206444754
pt.ine.add.PTCONT.852288,LG DE STO ANTÓNIO,,5335-074,ERVEDOSA VNH,-7.102514800074891,41.724845087042766
pt.ine.add.PTCONT.852289,BR DO CARRIL,,5320-210,VILA BOA DE OUSILHÃO,-6.926280010927094,41.8025437718563
pt.ine.add.PTCONT.852290,R DE CIMA,35,5320-328,,-7.006408059890139,41.834598648192745
pt.ine.add.PTCONT.852291,R DOS CABEÇOS,,5320-312,VINHAIS,-7.003987089527803,41.8223396074557
pt.ine.add.PTCONT.852292,R DO CANCELO,,5335-011,AGROCHÃO,-7.028554370672654,41.69184223427362
pt.ine.add.PTCONT.852293,R DA MOREIRA,,5320-010,ALVAREDOS,-7.065225426537558,41.802172964312696
pt.ine.add.PTCONT.852294,R DO CIMO DA ALDEIA,,5320-085,MONTOUTO,-6.990077320459456,41.92824009475814
pt.ine.add.PTCONT.852295,R DO CABO DA FONTE,,5320-085,MONTOUTO,-6.990527326904397,41.92734427572312
pt.ine.add.PTCONT.852296,R PRINCIPAL,,5320-112,PENHAS JUNTAS,-6.983070758623213,41.731316707482605
pt.ine.add.PTCONT.852297,R DA CANADA,10,5335-107,REBORDELO,-7.16558823367189,41.738157526254696
pt.ine.add.PTCONT.852298,BR DAS PALHAREGAS,,5320-121,PINHEIRO NOVO,-7.137239442617991,41.96433546255097
pt.ine.add.PTCONT.852299,R PRINCIPAL,54,5335-032,CANDEDO VNH,-7.118738250619472,41.840021221736166
pt.ine.add.PTCONT.852300,BR ASSEARAS,,5335-134,VALE DAS FONTES,-7.09261164922369,41.7292187697288
pt.ine.add.PTCONT.852301,,,5320-273,VINHAIS,-7.005003017558762,41.802173501621574
pt.ine.add.PTCONT.852302,R NOVA,,5320-170,SOEIRA,-6.921550125649791,41.85494608710544
pt.ine.add.PTCONT.852303,BR ASSEARAS,,5335-134,VALE DAS FONTES,-7.092978805771562,41.72955521683146
pt.ine.add.PTCONT.852304,R NOVA,,5320-261,VILAR SECO DE LOMBA,-7.151517824357483,41.88517767522141
pt.ine.add.PTCONT.852305,R DO TEAR,,5320-261,VILAR SECO DE LOMBA,-7.149799244414769,41.88332633929935
pt.ine.add.PTCONT.852306,R DA RIGUEIRA,38,5335-033,CANDEDO VNH,-7.106500601371439,41.81926821518271
pt.ine.add.PTCONT.852307,R DA NEGRILHEIRA,,5320-034,EDRAL,-7.184965153529867,41.85489307834538
pt.ine.add.PTCONT.852308,R DO CANTO MIGUEIS,,5320-134,QUIRÁS,-7.16371243831884,41.950355338296134
pt.ine.add.PTCONT.852309,R DA POULA,,5320-133,QUIRÁS,-7.168099290416261,41.93136891627916
pt.ine.add.PTCONT.852310,R DA VEIGA,,5320-170,SOEIRA,-6.917301138829957,41.85420794516628
pt.ine.add.PTCONT.852312,BR DE BAIXO,,5320-100,OUSILHÃO,-6.9548043770025725,41.792288216599694
pt.ine.add.PTCONT.852313,,,5320-151,SANTALHA,-7.109285331970881,41.923900178475705
pt.ine.add.PTCONT.852314,R PRINCIPAL,,5320-263,VILAR SECO DE LOMBA,-7.172078752642612,41.87828414816201
pt.ine.add.PTCONT.852315,,,5320-154,SANTALHA,-7.082427957214577,41.91643711816149
pt.ine.add.PTCONT.852316,BR DA UCHA,24,5320-303,VINHAIS,-7.012483761761495,41.83136294404058
pt.ine.add.PTCONT.852317,BR DA IGREJA,,5320-032,EDRAL,-7.159891890329064,41.83907186017285
pt.ine.add.PTCONT.852318,,,5335-136,VALE DE JANEIRO,-7.096940086834317,41.77621001475897
pt.ine.add.PTCONT.852319,,,5320-153,SANTALHA,-7.102668644922327,41.90431338996583
pt.ine.add.PTCONT.852320,R DA CAPELA,,5320-242,VILAR DE OSSOS,-7.025199315567228,41.86046734817701
pt.ine.add.PTCONT.852384,AV PADRE FIRMINO MARTINS,4,5320-301,VINHAIS,-7.00836872303668,41.83262817374229
pt.ine.add.PTCONT.852395,R DA LAGOA,,5320-252,VILAR DE PEREGRINOS,-7.017670292271314,41.77597184671052
pt.ine.add.PTCONT.852396,R DO CIMO DA ALDEIA,,5320-083,MONTOUTO,-7.052467971316964,41.941079359613006
pt.ine.add.PTCONT.852398,R DOS VALES,3,5335-134,VALE DAS FONTES,-7.108345213780197,41.73294349403342
pt.ine.add.PTCONT.852403,BR ASSEARAS,,5335-134,VALE DAS FONTES,-7.092978805771562,41.72955521683146
pt.ine.add.PTCONT.852407,R DA PORTELA,,5335-134,VALE DAS FONTES,-7.13647133742134,41.72047819510592
pt.ine.add.PTCONT.852408,R DO EIRÓ,,5320-309,VINHAIS,-6.998961753943512,41.822010996789125
pt.ine.add.PTCONT.852492,EN 206,,5320-113,PENHAS JUNTAS,-7.005597804134698,41.746944584366375
pt.ine.add.PTCONT.852493,R DAS CASAS NOVAS,,5320-170,SOEIRA,-6.9138608288164125,41.855278848051164
pt.ine.add.PTCONT.852494,R ARMANDO ALMENDRA,,5320-320,VINHAIS,-7.01225959185191,41.82972218543053
pt.ine.add.PTCONT.853062,R DOS RETORNADOS,10,5335-124,REBORDELO,-7.1564057614294105,41.74045671286508
pt.ine.add.PTCONT.853063,,,5320-193,TUIZELO,-7.074748190431775,41.89390398545467
pt.ine.add.PTCONT.853064,BR DO CAMPO,,5320-306,VINHAIS,-7.007699860721495,41.82751684279646
pt.ine.add.PTCONT.853065,,,5320-193,TUIZELO,-7.075007843381863,41.891313495726514
pt.ine.add.PTCONT.853066,,,5320-194,TUIZELO,-7.068985713778888,41.87010960842185
pt.ine.add.PTCONT.853067,AV PADRE FIRMINO MARTINS,41,5320-301,VINHAIS,-7.009851113429293,41.83459636105577
pt.ine.add.PTCONT.853068,,,5320-194,TUIZELO,-7.068387913264965,41.87129247606162
pt.ine.add.PTCONT.853069,BR DO CALVÁRIO,16,5320-305,VINHAIS,-6.999096027234708,41.83827198280802
pt.ine.add.PTCONT.853070,BR DAS CHABOLAS,,5335-074,ERVEDOSA VNH,-7.0982258240178036,41.72538904085645
pt.ine.add.PTCONT.853071,BR DAS CHABOLAS,,5335-074,ERVEDOSA VNH,-7.097655145480107,41.72650031183088
pt.ine.add.PTCONT.853072,R PRINCIPAL,,5320-221,VILA VERDE VNH,-6.96474981531353,41.854727491103226
pt.ine.add.PTCONT.853073,R DO CIMO DO LOMBO,8,5335-120,REBORDELO,-7.159485516173624,41.73711560824328
pt.ine.add.PTCONT.853074,R DO VALE,,5320-252,VILAR DE PEREGRINOS,-7.018323212979748,41.774384614039754
pt.ine.add.PTCONT.853075,R DO CARVALHAL,12,5320-307,VINHAIS,-7.011189822526502,41.82342754620154
pt.ine.add.PTCONT.853076,R DA COSTINHA,,5335-071,ERVEDOSA VNH,-7.081512796202319,41.71039079902889
pt.ine.add.PTCONT.853077,AV DO SENHOR DOS AFLITOS,2,5335-134,VALE DAS FONTES,-7.111313271906533,41.73147537647773
pt.ine.add.PTCONT.853078,CAM DE CIMA,,5320-222,VILA VERDE VNH,-6.958161229103307,41.84362248179895
pt.ine.add.PTCONT.853079,R PRINCIPAL,8,5335-032,CANDEDO VNH,-7.117247752745419,41.83910773195879
pt.ine.add.PTCONT.853080,R DO COUÇO,,5320-222,VILA VERDE VNH,-6.958786171161627,41.842368439659516
pt.ine.add.PTCONT.853081,,,5320-271,VINHAIS,-7.044851657824829,41.786694305646385
pt.ine.add.PTCONT.853082,R DA IGREJA,37,5335-032,CANDEDO VNH,-7.119646774906482,41.839669115944425
pt.ine.add.PTCONT.853083,R DOS ENXERTOS,,5335-134,VALE DAS FONTES,-7.137557043080343,41.72176608215951
pt.ine.add.PTCONT.853084,R PRINCIPAL,4,5335-033,CANDEDO VNH,-7.099371183335565,41.821031917471956
pt.ine.add.PTCONT.853085,R DO OLIVAL,,5335-134,VALE DAS FONTES,-7.135223003706834,41.72116061826639
pt.ine.add.PTCONT.853086,R DE CIMA,,5320-328,,-7.003472918209436,41.8351550197353
pt.ine.add.PTCONT.853087,BR DO OUTEIRO,,5320-051,FRESULFE,-6.928897866235083,41.91257973002568
pt.ine.add.PTCONT.853088,BR DO FONTÃO,,5320-100,OUSILHÃO,-6.945625750109052,41.788340336656525
pt.ine.add.PTCONT.853089,,,5320-154,SANTALHA,-7.085229424571757,41.91834435328082
pt.ine.add.PTCONT.853090,R DO CIMO DA ALDEIA,7,5320-180,TRAVANCA VNH,-6.9970456955289775,41.892900414139845
pt.ine.add.PTCONT.853091,R DO CORGO,,5320-052,FRESULFE,-6.917732796979931,41.88990957464681
pt.ine.add.PTCONT.853092,LG DO CABOCO,,5320-102,PAÇÓ,-6.949362706816022,41.87089247602706
pt.ine.add.PTCONT.853093,,,5320-195,TUIZELO,-7.042576695117763,41.91862238261993
pt.ine.add.PTCONT.853094,BR DAS EIRAS,,5335-134,VALE DAS FONTES,-7.107959770163929,41.73450663280867
pt.ine.add.PTCONT.853095,R PRINCIPAL,,5320-263,VILAR SECO DE LOMBA,-7.172264016757964,41.877979592478496
pt.ine.add.PTCONT.853096,R NOVA,,5320-335,VINHAIS,-7.003744843817077,41.83475255323138
pt.ine.add.PTCONT.853097,R ARMANDO ALMENDRA,8,5320-320,VINHAIS,-7.012935672332839,41.82891849872822
pt.ine.add.PTCONT.853098,,,5320-197,TUIZELO,-7.037651046259727,41.89791354093808
pt.ine.add.PTCONT.853099,R DA FACEIRA,,5320-242,VILAR DE OSSOS,-7.024759306720411,41.86711638736728
pt.ine.add.PTCONT.853100,R DE BAIXO,,5320-279,VINHAIS,-7.015239964284619,41.8514487609148
pt.ine.add.PTCONT.853101,BR DE ALÉM,,5320-279,VINHAIS,-7.016609709024615,41.84954442338658
pt.ine.add.PTCONT.853102,R DO MALHO,,5320-041,EDROSA,-6.97003989393469,41.76473163721724
pt.ine.add.PTCONT.853103,R DA EIRA DE CIMA,,5320-041,EDROSA,-6.961942882818381,41.764946481910826
pt.ine.add.PTCONT.853104,R DA FONTAÍNHA,14,5335-109,REBORDELO,-7.165735428750295,41.73876198864922
pt.ine.add.PTCONT.853105,R DA CASTANHEIRA,,5320-242,VILAR DE OSSOS,-7.026417267425495,41.85967781612602
pt.ine.add.PTCONT.853106,BR DO CAMPO,,5320-306,VINHAIS,-7.007251722299033,41.82767450729244
pt.ine.add.PTCONT.853182,BR DO CALVÁRIO,49,5320-305,VINHAIS,-6.999701428496644,41.84012359867836
pt.ine.add.PTCONT.853184,R DOS CABEÇOS,,5320-312,VINHAIS,-7.004324045219039,41.82234291951236
pt.ine.add.PTCONT.853195,R DA URZE,,5320-070,MOIMENTA VNH,-6.9733452302206445,41.94877010154805
pt.ine.add.PTCONT.853206,R DO POMAR,31,5335-033,CANDEDO VNH,-7.1044897781249565,41.81932225038613
pt.ine.add.PTCONT.853230,R DO CENTRO DO POVO,,5320-083,MONTOUTO,-7.051182934543894,41.940770158229626
pt.ine.add.PTCONT.853231,BR DOS CHOUPOS,,5320-313,,-6.994483773002346,41.83698391800951
pt.ine.add.PTCONT.853232,R DA CANADA,,5320-232,VILAR DE LOMBA,-7.179807848154219,41.81292254531278
pt.ine.add.PTCONT.853781,BR DE ALÉM,,5320-041,EDROSA,-6.963259380078639,41.763969541491186
pt.ine.add.PTCONT.853783,R DO CANTO ALEGRE,5,5335-119,REBORDELO,-7.165320852147981,41.73755205133268
pt.ine.add.PTCONT.853784,,,5320-193,TUIZELO,-7.073285802945092,41.89271109596999
pt.ine.add.PTCONT.853785,R DA IGREJA,,5320-242,VILAR DE OSSOS,-7.02458057527106,41.85794050953905
pt.ine.add.PTCONT.853786,R DO MEIO DA QUINTA,,5320-244,VILAR DE OSSOS,-7.040049307404145,41.86326556712131
pt.ine.add.PTCONT.853787,AV PADRE FIRMINO MARTINS,36,5320-301,VINHAIS,-7.009481674559514,41.83506991319773
pt.ine.add.PTCONT.853788,SIT DO POULO,,5320-042,EDROSA,-6.956535450517086,41.7436616031222
pt.ine.add.PTCONT.853789,BR DAS CHABOLAS,,5335-074,ERVEDOSA VNH,-7.098702725426466,41.725627421707
pt.ine.add.PTCONT.853790,R DAS PEREIRAS,8,5335-114,REBORDELO,-7.166563789671877,41.73642809437016
pt.ine.add.PTCONT.853791,R DA LAGOA,,5320-252,VILAR DE PEREGRINOS,-7.017762269749449,41.775522578625136
pt.ine.add.PTCONT.853792,R DO LOMBO,,5335-120,REBORDELO,-7.159575902075631,41.736702221013445
pt.ine.add.PTCONT.853793,R DAS EIRAS,,5320-163,SOBREIRO DE BAIXO,-7.0565524513765725,41.845136130944404
pt.ine.add.PTCONT.853794,R 25 DE ABRIL,,5335-071,ERVEDOSA VNH,-7.080069080404405,41.711241898346636
pt.ine.add.PTCONT.853795,R DO OUTEIRO,1,5320-222,VILA VERDE VNH,-6.957290383780681,41.84449587273756
pt.ine.add.PTCONT.853796,R DA PORTELA DOS FRADES,142,5320-325,VINHAIS,-7.014021800033687,41.8294512688993
pt.ine.add.PTCONT.853797,R DO SOUTO DO VENTO,,5335-053,CUROPOS,-7.112678737133781,41.79779660659882
pt.ine.add.PTCONT.853798,R DO POSTO,,5320-122,PINHEIRO NOVO,-7.117257941848271,41.96010904772982
pt.ine.add.PTCONT.853799,R DA LADEIRA,,5335-134,VALE DAS FONTES,-7.108683714165752,41.73206418732387
pt.ine.add.PTCONT.853800,R DO SOUTO DO VENTO,,5335-053,CUROPOS,-7.1117032649278205,41.796338418177875
pt.ine.add.PTCONT.853801,R DO RIGUEIRO,,5320-163,SOBREIRO DE BAIXO,-7.052004122654512,41.83351536972001
pt.ine.add.PTCONT.853802,R DO LOMBEIRO,,5335-071,ERVEDOSA VNH,-7.078609590145012,41.71085037345389
pt.ine.add.PTCONT.853803,CM 1015,,5320-091,NUNES,-6.981103429793702,41.79563406891624
pt.ine.add.PTCONT.853804,BR ASSEARAS,,5335-134,VALE DAS FONTES,-7.093559373161173,41.73007366015934
pt.ine.add.PTCONT.853805,R DA CARREIRA,,5320-232,VILAR DE LOMBA,-7.182006699161121,41.81315685068958
pt.ine.add.PTCONT.853806,R PRINCIPAL,22,5335-032,CANDEDO VNH,-7.117389278756102,41.83853278143122
pt.ine.add.PTCONT.853807,R DA CALÇADA,,5320-261,VILAR SECO DE LOMBA,-7.151785418296216,41.882650090726365
pt.ine.add.PTCONT.853808,R DO ESTÁDIO,,5335-071,ERVEDOSA VNH,-7.076158598735501,41.71010758713526
pt.ine.add.PTCONT.853809,R DA ALDEIA,,5320-133,QUIRÁS,-7.168319502846773,41.93275723405006
pt.ine.add.PTCONT.853810,R DO TEMPORÃO,,5320-232,VILAR DE LOMBA,-7.18049778324864,41.810218299827255
pt.ine.add.PTCONT.853811,R PRINCIPAL,66,5335-033,CANDEDO VNH,-7.105940082598686,41.8204516243797
pt.ine.add.PTCONT.853812,,,5320-051,FRESULFE,-6.929189869790076,41.91371716827162
pt.ine.add.PTCONT.853813,BR DO CAMPO,,5320-100,OUSILHÃO,-6.961989414078945,41.79081314904564
pt.ine.add.PTCONT.853814,R DO CAMPO,,5320-132,QUIRÁS,-7.141551865987348,41.911804181081514
pt.ine.add.PTCONT.853815,R DA PORTELA,,5335-134,VALE DAS FONTES,-7.136532389235722,41.720415701208786
pt.ine.add.PTCONT.853816,R DA CRUZ,133,5335-033,CANDEDO VNH,-7.108639634333794,41.81947638079912
pt.ine.add.PTCONT.853817,BR DE STO ANTÓNIO,,5320-032,EDRAL,-7.158576128186452,41.841680625858125
pt.ine.add.PTCONT.853818,BR DE STO ANTÓNIO,,5320-032,EDRAL,-7.158786945885907,41.842069550723124
pt.ine.add.PTCONT.853819,BR DE STO ANTÓNIO,,5320-032,EDRAL,-7.159862834625631,41.84098928942522
pt.ine.add.PTCONT.853820,BR DO CANCELO,,5320-243,VILAR DE OSSOS,-7.039091990102929,41.87420420781244
pt.ine.add.PTCONT.853821,R DO FORNO,,5320-263,VILAR SECO DE LOMBA,-7.1733257243867,41.87948298828107
pt.ine.add.PTCONT.853822,R DAS VARGES,,5320-279,VINHAIS,-7.017480252168771,41.85418948381808
pt.ine.add.PTCONT.853823,,,5320-153,SANTALHA,-7.101507941678864,41.90454605022845
pt.ine.add.PTCONT.853824,,,5335-136,VALE DE JANEIRO,-7.095246181117719,41.77608668468356
pt.ine.add.PTCONT.853825,R DE BAIXO,,5320-327,VINHAIS,-7.000209838788102,41.83314219019856
pt.ine.add.PTCONT.853826,R DA CORRIÇA,5,5320-021,CELAS,-6.920551556687117,41.71573748932769
pt.ine.add.PTCONT.853827,,,5320-198,TUIZELO,-7.055902978568867,41.8945930349837
pt.ine.add.PTCONT.853828,,,5335-136,VALE DE JANEIRO,-7.095369796994741,41.77513345700019
pt.ine.add.PTCONT.916714,,,5320-123,PINHEIRO NOVO,-7.14445901255635,41.938199144396755
pt.ine.add.PTCONT.853902,,,5320-052,FRESULFE,-6.937227563355723,41.89961244568884
pt.ine.add.PTCONT.853918,,,5320-052,FRESULFE,-6.918904938963305,41.88909369795794
pt.ine.add.PTCONT.853925,R DA PORTELA,,5320-041,EDROSA,-6.965342682652051,41.76513414646757
pt.ine.add.PTCONT.853926,EN 316,,5320-279,VINHAIS,-7.0135360844864225,41.849721572343974
pt.ine.add.PTCONT.853928,R DOS RETORNADOS,42,5335-124,REBORDELO,-7.156302075763199,41.739366429318316
pt.ine.add.PTCONT.854000,R DO VALE,,5320-252,VILAR DE PEREGRINOS,-7.018267317122433,41.774834232841314
pt.ine.add.PTCONT.854001,R DO CUNHAL,19,5335-033,CANDEDO VNH,-7.117186413227176,41.83765768052454
pt.ine.add.PTCONT.854002,SIT DO VALE DAS PREIXEIRAS,,5335-051,CUROPOS,-7.097408980480232,41.80312489324617
pt.ine.add.PTCONT.854069,R DE BAIXO,,5320-327,VINHAIS,-7.001180604723332,41.834754318820295
pt.ine.add.PTCONT.854070,AV PADRE FIRMINO MARTINS,16,5320-301,VINHAIS,-7.009527965253641,41.83242344517829
pt.ine.add.PTCONT.854071,AV PADRE FIRMINO MARTINS,16,5320-301,VINHAIS,-7.009527965253641,41.83242344517829
pt.ine.add.PTCONT.854072,AV PADRE FIRMINO MARTINS,16,5320-301,VINHAIS,-7.009527965253641,41.83242344517829
pt.ine.add.PTCONT.854073,AV PADRE FIRMINO MARTINS,16,5320-301,VINHAIS,-7.009527965253641,41.83242344517829
pt.ine.add.PTCONT.854116,AV DA PORTELA DOS FRADES,31,5320-325,VINHAIS,-7.012659904698607,41.82954602861333
pt.ine.add.PTCONT.854117,R DO COUÇO,,5320-308,VINHAIS,-7.008981593289548,41.82580979465235
pt.ine.add.PTCONT.854319,TV DO EIRÓ,,5335-011,AGROCHÃO,-7.028987034228225,41.69182838552903
pt.ine.add.PTCONT.854320,R DOS CORTINHEIROS,,5320-010,ALVAREDOS,-7.065745581269006,41.80200673812511
pt.ine.add.PTCONT.854321,R PRINCIPAL,6,5335-032,CANDEDO VNH,-7.117017184727368,41.83922273341593
pt.ine.add.PTCONT.854322,R PRINCIPAL,18,5335-033,CANDEDO VNH,-7.103226046377638,41.820823461043794
pt.ine.add.PTCONT.854323,R DO POMAR,,5335-033,CANDEDO VNH,-7.103973466761327,41.820749131735184
pt.ine.add.PTCONT.854324,R DA FONTAÍNHA,,5320-023,CELAS,-6.9585511961413165,41.72144415988095
pt.ine.add.PTCONT.854353,R DO POULO,1,5320-021,CELAS,-6.919669473542023,41.71535904280121
pt.ine.add.PTCONT.854354,R NOVA,2,5320-021,CELAS,-6.919790149007203,41.712776375862006
pt.ine.add.PTCONT.854355,R DA FORJA,,5335-053,CUROPOS,-7.117331372906474,41.79574009258952
pt.ine.add.PTCONT.854356,BR DA IGREJA,,5320-032,EDRAL,-7.159455768928291,41.83845594803219
pt.ine.add.PTCONT.854357,R DOS PALHEIROS,,5320-032,EDRAL,-7.159392930503122,41.83704191690288
pt.ine.add.PTCONT.854358,R DA EIRA DE CIMA,,5320-041,EDROSA,-6.962893616887059,41.765568389374245
pt.ine.add.PTCONT.854387,R DA ESTRADA,,5335-072,ERVEDOSA VNH,-7.0159759096438625,41.721107500931424
pt.ine.add.PTCONT.854388,R DO CRUZEIRO,,5320-060,MOFREITA,-6.912709398796673,41.91833275641828
pt.ine.add.PTCONT.854389,R DO CAMPO DE FUTEBOL,,5320-070,MOIMENTA VNH,-6.972827775161391,41.952032941287825
pt.ine.add.PTCONT.854390,R DO MEADOURO,,5320-070,MOIMENTA VNH,-6.975203108119369,41.950733491681234
pt.ine.add.PTCONT.854391,R DIREITA,,5320-070,MOIMENTA VNH,-6.97562447866397,41.94944131691844
pt.ine.add.PTCONT.854437,BR DE BAIXO,,5320-100,OUSILHÃO,-6.954765826854453,41.79176563695309
pt.ine.add.PTCONT.854438,R DO OUTEIRO,,5320-102,PAÇÓ,-6.953333838150693,41.86978995516814
pt.ine.add.PTCONT.854439,R PRINCIPAL,,5320-111,PENHAS JUNTAS,-7.0635389960826185,41.762480045128676
pt.ine.add.PTCONT.854440,R DA CASTANHEIRA,,5320-113,PENHAS JUNTAS,-7.0129261552039415,41.74309084610592
pt.ine.add.PTCONT.854441,LG DO SOUTO,,5320-113,PENHAS JUNTAS,-7.013950632900885,41.742245519413466
pt.ine.add.PTCONT.854468,R DA ALDEIA,,5320-133,QUIRÁS,-7.1684076896971805,41.932505890165615
pt.ine.add.PTCONT.854469,LG DO CAMPO,,5320-132,QUIRÁS,-7.141677813729619,41.91145414946001
pt.ine.add.PTCONT.854470,R DE VAL CASTANHEIRA,,5320-132,QUIRÁS,-7.140872662292443,41.91207740839287
pt.ine.add.PTCONT.854471,R DE VAL CASTANHEIRA,,5320-132,QUIRÁS,-7.140347891040061,41.91249601589786
pt.ine.add.PTCONT.854472,R DAS PASSAIS,10,5335-106,REBORDELO,-7.164398553963838,41.74053338350885
pt.ine.add.PTCONT.854499,R DO LOMBO,11,5335-120,REBORDELO,-7.159941415446261,41.73717349055875
pt.ine.add.PTCONT.854500,R ANTÓNIO GASPAR,3,5335-119,REBORDELO,-7.164606461332743,41.73789716153436
pt.ine.add.PTCONT.854501,AV DO BRASIL,40,5335-102,REBORDELO,-7.161010458201524,41.73323908105272
pt.ine.add.PTCONT.854502,R DO EIRÓ,,5320-140,SANTA CRUZ VNH,-6.950422105717068,41.8977054275467
pt.ine.add.PTCONT.854539,,,5320-154,SANTALHA,-7.085125518328201,41.91806431102459
pt.ine.add.PTCONT.854540,,,5320-163,SOBREIRO DE BAIXO,-7.047094016372273,41.832712781401504
pt.ine.add.PTCONT.854541,R DA VEIGA,,5320-170,SOEIRA,-6.9174861668911864,41.85397582413447
pt.ine.add.PTCONT.854588,,,5320-197,TUIZELO,-7.038020088914216,41.900293864470804
pt.ine.add.PTCONT.854589,,,5320-196,TUIZELO,-7.084580280019067,41.86519330982052
pt.ine.add.PTCONT.854590,R PRINCIPAL,,5335-134,VALE DAS FONTES,-7.107784240936552,41.73269539977238
pt.ine.add.PTCONT.854591,R PRINCIPAL,,5335-134,VALE DAS FONTES,-7.107702264136925,41.73255961841535
pt.ine.add.PTCONT.854592,AV DO SENHOR DOS AFLITOS,11,5335-134,VALE DAS FONTES,-7.109288582446395,41.73030492773045
pt.ine.add.PTCONT.854623,BR DO EIRÓ,71,5320-210,VILA BOA DE OUSILHÃO,-6.926007572942218,41.806160173989184
pt.ine.add.PTCONT.854624,R DO FUNDO DA ALDEIA,,5320-222,VILA VERDE VNH,-6.956396273665741,41.843352324671
pt.ine.add.PTCONT.854625,R DA CARREIRA,,5320-232,VILAR DE LOMBA,-7.18277755934761,41.812298921941114
pt.ine.add.PTCONT.854626,R DO BARREIRO,,5320-232,VILAR DE LOMBA,-7.183335739680596,41.80872925906626
pt.ine.add.PTCONT.854627,BR DA VÁRZEA,,5320-243,VILAR DE OSSOS,-7.0345569574728755,41.87383680235251
pt.ine.add.PTCONT.854628,R DA IGREJA,,5320-242,VILAR DE OSSOS,-7.024506619652499,41.858038829747024
pt.ine.add.PTCONT.854629,R DA IGREJA,,5320-242,VILAR DE OSSOS,-7.024614676872536,41.85805787901834
pt.ine.add.PTCONT.854669,R DO REGADIO,,5320-261,VILAR SECO DE LOMBA,-7.150458057463186,41.88357506256191
pt.ine.add.PTCONT.854670,BR DO CALVÁRIO,26,5320-305,VINHAIS,-6.998800187116139,41.83798096139697
pt.ine.add.PTCONT.854671,R DO SOUTO COVO,,5320-316,VINHAIS,-6.996616364379748,41.83688800039618
pt.ine.add.PTCONT.854712,AV PADRE FIRMINO MARTINS,16,5320-301,VINHAIS,-7.009527965253641,41.83242344517829
pt.ine.add.PTCONT.854735,R DO CIMO DO LOMBO,9,5335-120,REBORDELO,-7.159199921111805,41.73692411788612
pt.ine.add.PTCONT.854742,BR DO CRUZEIRO,,5320-243,VILAR DE OSSOS,-7.029657345892109,41.875059259918764
pt.ine.add.PTCONT.854752,AV PADRE FIRMINO MARTINS,16,5320-301,VINHAIS,-7.009527965253641,41.83242344517829
pt.ine.add.PTCONT.854754,R DA ABLIQUEIRA,,5320-140,SANTA CRUZ VNH,-6.9517714868552645,41.897719318527315
pt.ine.add.PTCONT.854763,,,5335-052,CUROPOS,-7.150443290518029,41.77829172295003
pt.ine.add.PTCONT.854769,R PRINCIPAL,,5320-021,CELAS,-6.920122438467829,41.71619212710732
pt.ine.add.PTCONT.854782,R DA RIGUEIRA,40,5335-033,CANDEDO VNH,-7.10628427770728,41.81924827511183
pt.ine.add.PTCONT.854806,R DO CARRIL,3,5335-117,REBORDELO,-7.162117772174744,41.737128880260315
pt.ine.add.PTCONT.854809,R PRINCIPAL,,5320-231,VILAR DE LOMBA,-7.184271437179715,41.844794802900935
pt.ine.add.PTCONT.854831,R AMÁLIA RODRIGUES,10,5320-315,VINHAIS,-7.010742347728734,41.83250734406165
pt.ine.add.PTCONT.931935,,,5320-042,EDROSA,-6.952530024434547,41.74575428306829
pt.ine.add.PTCONT.855304,R DIREITA,5,5335-011,AGROCHÃO,-7.031979132627168,41.693873846606536
pt.ine.add.PTCONT.855349,R DA QUINTA,2,5320-021,CELAS,-6.919952060590836,41.714389672708144
pt.ine.add.PTCONT.855350,TV DO FORTE,4,5320-070,MOIMENTA VNH,-6.97603413187747,41.950129670390744
pt.ine.add.PTCONT.855351,,,5320-198,TUIZELO,-7.055905862243626,41.892270273224916
pt.ine.add.PTCONT.855353,BR DO CANTO,54,5320-210,VILA BOA DE OUSILHÃO,-6.9256022170130285,41.80531862084275
pt.ine.add.PTCONT.855354,BR DO CALVÁRIO,,5320-305,VINHAIS,-6.999641118919444,41.839447769499685
pt.ine.add.PTCONT.855355,,,5320-193,TUIZELO,-7.073136345265335,41.89081907266139
pt.ine.add.PTCONT.855356,BR DA IGREJA,,5320-242,VILAR DE OSSOS,-7.0242907498624305,41.85728948826936
pt.ine.add.PTCONT.855357,R DA PORTELA DOS FRADES,,5320-325,VINHAIS,-7.014692684772854,41.828944624799114
pt.ine.add.PTCONT.855358,R DA PONTE,,5320-070,MOIMENTA VNH,-6.9767468204687475,41.94873239177606
pt.ine.add.PTCONT.855359,R DAS POÇAS,,5320-113,PENHAS JUNTAS,-7.013949189776584,41.74371303855009
pt.ine.add.PTCONT.855360,BR DO CALVÁRIO,37,5320-305,VINHAIS,-6.99847900355361,41.83776171382131
pt.ine.add.PTCONT.855361,R DE S JOSÉ,25,5320-321,VINHAIS,-7.0074748381344225,41.8341769582653
pt.ine.add.PTCONT.855362,R DIREITA,82 A,5335-011,AGROCHÃO,-7.030761289643104,41.69273675137892
pt.ine.add.PTCONT.855363,R DO CALVÁRIO,,5335-051,CUROPOS,-7.094268043700489,41.80315054899557
pt.ine.add.PTCONT.855364,R DA FONTE,,5335-074,ERVEDOSA VNH,-7.101032215688458,41.72425285378881
pt.ine.add.PTCONT.855365,AV DO BRASIL,3,5335-102,REBORDELO,-7.160524970075967,41.738330857687025
pt.ine.add.PTCONT.855366,AV DO BRASIL,5,5335-102,REBORDELO,-7.160442738668561,41.73820411500142
pt.ine.add.PTCONT.855367,,,5320-191,TUIZELO,-7.088212869461264,41.87066429579791
pt.ine.add.PTCONT.855368,R DOS CABEÇOS,,5320-312,VINHAIS,-7.004308198959193,41.82187460007608
pt.ine.add.PTCONT.855369,EN 206,,5335-011,AGROCHÃO,-7.028650090656008,41.702395075497925
pt.ine.add.PTCONT.855370,R DA ESTRADA,,5320-163,SOBREIRO DE BAIXO,-7.057339662527737,41.84414415979838
pt.ine.add.PTCONT.855371,R DO VALE,,5320-252,VILAR DE PEREGRINOS,-7.018616051010477,41.774837616671114
pt.ine.add.PTCONT.855372,LG DAS COVAS DO FOLGUEDO,,5335-053,CUROPOS,-7.114974752142085,41.79792501883618
pt.ine.add.PTCONT.855373,AV DO BRASIL,17,5335-102,REBORDELO,-7.160153493498452,41.735068507432715
pt.ine.add.PTCONT.855374,R PRINCIPAL,,5335-053,CUROPOS,-7.116367250364697,41.79659187778043
pt.ine.add.PTCONT.855375,R DA ESCOLA,,5320-091,NUNES,-6.986141025653504,41.796503770442044
pt.ine.add.PTCONT.855376,R DO CHARCO,,5320-123,PINHEIRO NOVO,-7.143493053156074,41.93906411477616
pt.ine.add.PTCONT.855377,R DA CANCELA,,5335-032,CANDEDO VNH,-7.11846086058893,41.83928951557762
pt.ine.add.PTCONT.855378,R DA FONTE,,5320-123,PINHEIRO NOVO,-7.143753805507604,41.93779693680206
pt.ine.add.PTCONT.855379,R PRINCIPAL,,5320-231,VILAR DE LOMBA,-7.1844540803100125,41.84384197544777
pt.ine.add.PTCONT.855380,R DO CONCELHO,,5320-134,QUIRÁS,-7.163752080557825,41.950922862230364
pt.ine.add.PTCONT.855381,R DE S JOSÉ,,5335-134,VALE DAS FONTES,-7.134864932897068,41.72177873877869
pt.ine.add.PTCONT.855382,R FR AGOSTINHO,44,5335-033,CANDEDO VNH,-7.106364776426849,41.81948307757213
pt.ine.add.PTCONT.855383,R DOS ENXERTOS,,5335-134,VALE DAS FONTES,-7.136931465111995,41.721031389308045
pt.ine.add.PTCONT.855384,R NOVA,48,5320-335,VINHAIS,-7.0052257538009295,41.83337162084903
pt.ine.add.PTCONT.855385,R DA UCHA,3,5320-315,VINHAIS,-7.01118822265044,41.83179144962626
pt.ine.add.PTCONT.855386,,,5320-154,SANTALHA,-7.084642776811414,41.91589017337731
pt.ine.add.PTCONT.855387,,,5320-195,TUIZELO,-7.042115025352851,41.918834069033075
pt.ine.add.PTCONT.855388,BR DO CANCELO,,5320-243,VILAR DE OSSOS,-7.038335737268702,41.87475519152426
pt.ine.add.PTCONT.855389,BR DA IGREJA,,5320-032,EDRAL,-7.15951500249525,41.83851947238041
pt.ine.add.PTCONT.855390,R DA EIRA VELHA,8,5335-108,REBORDELO,-7.163150155940521,41.7404148112734
pt.ine.add.PTCONT.855391,,,5320-153,SANTALHA,-7.0991444169969595,41.903885574396426
pt.ine.add.PTCONT.855392,R DO CIMO DO POVO,,5320-279,VINHAIS,-7.013000274467322,41.85351565858395
pt.ine.add.PTCONT.855393,BR DA IGREJA,,5320-032,EDRAL,-7.160043163908679,41.838622983262496
pt.ine.add.PTCONT.855394,,,5320-153,SANTALHA,-7.099409216638389,41.905400471683095
pt.ine.add.PTCONT.855395,R DO CANTO,,5320-279,VINHAIS,-7.015122358625071,41.85197879940926
pt.ine.add.PTCONT.855396,R DO CANTO,,5320-279,VINHAIS,-7.015122358625071,41.85197879940926
pt.ine.add.PTCONT.855397,R DA MINA,,5320-041,EDROSA,-6.964006558160055,41.76586782396189
pt.ine.add.PTCONT.855398,R DA MINA,,5320-242,VILAR DE OSSOS,-7.02672776385001,41.85913161884836
pt.ine.add.PTCONT.855399,R ARMANDO ALMENDRA,18,5320-320,VINHAIS,-7.012149874555016,41.82773142052764
pt.ine.add.PTCONT.855464,R DO VALE,,5320-163,SOBREIRO DE BAIXO,-7.057764690668994,41.846804063818766
pt.ine.add.PTCONT.855465,R DA CARREIRA,,5320-232,VILAR DE LOMBA,-7.182450540247691,41.8124402673951
pt.ine.add.PTCONT.855474,R DO POMAR,,5335-033,CANDEDO VNH,-7.104504165231773,41.81541499534493
pt.ine.add.PTCONT.855475,BR DA IGREJA,,5320-032,EDRAL,-7.159812869219174,41.8434917466578
pt.ine.add.PTCONT.855559,R DO FUNDO DA QUINTA,,5320-244,VILAR DE OSSOS,-7.039439692635121,41.8637009148275
pt.ine.add.PTCONT.855560,SIT DA MINA,,5320-251,VILAR DE PEREGRINOS,-7.022142901507819,41.78721518854765
pt.ine.add.PTCONT.855561,BR DO CALVÁRIO,,5320-243,VILAR DE OSSOS,-7.034553796948635,41.876834797030845
pt.ine.add.PTCONT.855599,R DO ALAMBIQUE,,5335-011,AGROCHÃO,-7.034791577473853,41.69942881791541
pt.ine.add.PTCONT.855605,AV CAP SOBRINHO ALVES,,5320-010,ALVAREDOS,-7.065795936023798,41.80042264270927
pt.ine.add.PTCONT.855606,R DO TANQUE,,5335-032,CANDEDO VNH,-7.115334457800822,41.84284510895821
pt.ine.add.PTCONT.855607,R PRINCIPAL,5,5320-023,CELAS,-6.959373297646923,41.71919273627499
pt.ine.add.PTCONT.855608,R PRINCIPAL,17,5320-022,CELAS,-6.944258280191114,41.7040738641625
pt.ine.add.PTCONT.855610,R DO CANTO,,5320-033,EDRAL,-7.140244170610538,41.860835365102005
pt.ine.add.PTCONT.855611,R DO CANTO,,5320-033,EDRAL,-7.140871322552473,41.860777763479426
pt.ine.add.PTCONT.855612,BR DA IGREJA,,5320-032,EDRAL,-7.160093596473801,41.83767807724885
pt.ine.add.PTCONT.855613,R DOS PALHEIROS,,5320-032,EDRAL,-7.159615776042712,41.83743094250127
pt.ine.add.PTCONT.855614,BR DE ALÉM,,5320-041,EDROSA,-6.9633691360863486,41.76322339170741
pt.ine.add.PTCONT.855615,R DA BARREIRA,,5320-042,EDROSA,-6.954569732262449,41.74400158531214
pt.ine.add.PTCONT.855616,R 25 DE ABRIL,,5335-071,ERVEDOSA VNH,-7.083955244308001,41.713141138514814
pt.ine.add.PTCONT.855621,R DO CENTRO DO POVO,,5320-082,MONTOUTO,-7.034917634060439,41.94278544025932
pt.ine.add.PTCONT.855622,R PRINCIPAL,,5320-091,NUNES,-6.984793478658322,41.79515783615042
pt.ine.add.PTCONT.855623,BR DO CAMPAÇO,,5320-100,OUSILHÃO,-6.952051184570329,41.79284514769388
pt.ine.add.PTCONT.855629,R DO CASTELO,,5320-102,PAÇÓ,-6.952651159492438,41.87023309231906
pt.ine.add.PTCONT.855630,R DO OUTEIRO,,5320-101,PAÇÓ,-6.941573658093382,41.86223200402737
pt.ine.add.PTCONT.855631,R DA CAPELA,,5320-113,PENHAS JUNTAS,-7.015181896799245,41.742644647351966
pt.ine.add.PTCONT.855632,R DA CAPELA,,5320-113,PENHAS JUNTAS,-7.01593879632181,41.741976764302954
pt.ine.add.PTCONT.855633,R DO CAMPO,,5320-132,QUIRÁS,-7.14179400950775,41.91173424745758
pt.ine.add.PTCONT.855634,R PROF CLARO,31,5335-126,REBORDELO,-7.162988523388372,41.739972283730665
pt.ine.add.PTCONT.855639,AV DE S VENÂNCIO,8,5335-101,REBORDELO,-7.163441636485969,41.73941790251801
pt.ine.add.PTCONT.855640,,,5320-153,SANTALHA,-7.101326448238487,41.90384218116546
pt.ine.add.PTCONT.855647,R DA FONTE,,5320-170,SOEIRA,-6.911669272729578,41.85590377988165
pt.ine.add.PTCONT.855648,,,5320-193,TUIZELO,-7.078778483661716,41.8928246820597
pt.ine.add.PTCONT.855650,R NOVA,,5335-134,VALE DAS FONTES,-7.107942755769247,41.73330903986084
pt.ine.add.PTCONT.855651,R DA LADEIRA,10,5335-134,VALE DAS FONTES,-7.10864351268051,41.73232492515134
pt.ine.add.PTCONT.855652,R PRINCIPAL,,5320-232,VILAR DE LOMBA,-7.181047315732171,41.811303242628206
pt.ine.add.PTCONT.855653,BR DO CRUZEIRO,,5320-243,VILAR DE OSSOS,-7.029943773005911,41.87521506418646
pt.ine.add.PTCONT.855658,R DA EIRA,,5320-251,VILAR DE PEREGRINOS,-7.022446048976711,41.788469565677445
pt.ine.add.PTCONT.855659,R PRINCIPAL,,5320-261,VILAR SECO DE LOMBA,-7.152658649505309,41.88227041625215
pt.ine.add.PTCONT.855660,R DO CAMPO,,5320-263,VILAR SECO DE LOMBA,-7.171781533785196,41.878020570046694
pt.ine.add.PTCONT.855661,R DOS MOINHOS,,5320-279,VINHAIS,-7.011711883541677,41.851441374097995
pt.ine.add.PTCONT.855662,R DO FUNDO DO POVO,,5320-279,VINHAIS,-7.014230047450128,41.8513578980945
pt.ine.add.PTCONT.855663,BR DO CALVÁRIO,18,5320-305,VINHAIS,-6.9989146760176535,41.83831520761005
pt.ine.add.PTCONT.855665,R GAGO COUTINHO E SACADURA CABRAL,,5320-333,VINHAIS,-6.998233752943914,41.83665190649397
pt.ine.add.PTCONT.855671,R DE S FRANCISCO,44,5320-321,VINHAIS,-7.007286469584247,41.83324778938151
pt.ine.add.PTCONT.855672,R ARY DOS SANTOS,30,5320-315,VINHAIS,-7.011232996726979,41.83267419423733
pt.ine.add.PTCONT.855673,BR DE ALÉM,,5320-304,VINHAIS,-6.994086502383375,41.828156912611284
pt.ine.add.PTCONT.861444,,,5320-154,SANTALHA,-7.0858977730257635,41.91727909049576
pt.ine.add.PTCONT.939566,,,5320-197,TUIZELO,-7.036820011577748,41.897887603493025
pt.ine.add.PTCONT.856200,R DO BENIGNO,3,5335-101,REBORDELO,-7.159854329047574,41.739756707564915
pt.ine.add.PTCONT.856202,R DA BARRONDA,7,5335-011,AGROCHÃO,-7.02933286335983,41.69267802304207
pt.ine.add.PTCONT.856207,R DO SOUTO,,5320-262,VILAR SECO DE LOMBA,-7.16317191976489,41.89449587395832
pt.ine.add.PTCONT.856216,R DAS EIRAS,,5320-261,VILAR SECO DE LOMBA,-7.15278173343283,41.883675951224575
pt.ine.add.PTCONT.856217,,,5320-051,FRESULFE,-6.927606332394566,41.91075657662866
pt.ine.add.PTCONT.856227,,,5320-274,VINHAIS,-7.035629819598443,41.80545026501836
pt.ine.add.PTCONT.856291,R DA RIGUEIRA,,5335-074,ERVEDOSA VNH,-7.102663245546585,41.72490488333496
pt.ine.add.PTCONT.861445,,,5320-154,SANTALHA,-7.087206473932914,41.91759712236146
pt.ine.add.PTCONT.856855,R DA IGREJA,,5320-242,VILAR DE OSSOS,-7.024796844935148,41.85796960623804
pt.ine.add.PTCONT.856856,BR DO CALVÁRIO,37,5320-305,VINHAIS,-6.999642707567046,41.83935775397549
pt.ine.add.PTCONT.856857,R DA FONTE,,5335-074,ERVEDOSA VNH,-7.10059703829084,41.72441100398508
pt.ine.add.PTCONT.856858,R DAS POÇAS,,5320-113,PENHAS JUNTAS,-7.013297922673093,41.74452599011756
pt.ine.add.PTCONT.856859,R DAS PEREIRAS,16,5335-114,REBORDELO,-7.166767837753023,41.73644781735985
pt.ine.add.PTCONT.856860,R DO CARVALHAL,11,5320-307,VINHAIS,-7.009158446271216,41.823956877470046
pt.ine.add.PTCONT.856861,ESTR PRINCIPAL,,5335-051,CUROPOS,-7.094132486332746,41.80632745415557
pt.ine.add.PTCONT.856862,SIT DAS LAGOAS,5,5320-210,VILA BOA DE OUSILHÃO,-6.927565720996281,41.79621905252838
pt.ine.add.PTCONT.856863,R DAS EIRAS,,5320-252,VILAR DE PEREGRINOS,-7.020923814897916,41.777011753112355
pt.ine.add.PTCONT.856864,R DA FONTE,,5320-083,MONTOUTO,-7.050243436592502,41.94070728271805
pt.ine.add.PTCONT.856865,R DAS EIRAS,,5320-163,SOBREIRO DE BAIXO,-7.056412214291947,41.844882728628
pt.ine.add.PTCONT.856866,,,5320-197,TUIZELO,-7.042705563924049,41.891929607422476
pt.ine.add.PTCONT.856867,R GAGO COUTINHO E SACADURA CABRAL,,5320-333,VINHAIS,-6.9984505741506045,41.83664504567489
pt.ine.add.PTCONT.856868,R DO OUTEIRO,,5320-222,VILA VERDE VNH,-6.957399220980962,41.84446997770696
pt.ine.add.PTCONT.856869,R DO VALE,,5320-252,VILAR DE PEREGRINOS,-7.018139248572356,41.77458990283842
pt.ine.add.PTCONT.856870,R PRINCIPAL,6,5335-031,CANDEDO VNH,-7.092876501073037,41.841554513412234
pt.ine.add.PTCONT.856871,R DO CIMO DO POVO,,5335-053,CUROPOS,-7.11435209697147,41.798495704412325
pt.ine.add.PTCONT.856872,R DA VILARIÇA,,5320-163,SOBREIRO DE BAIXO,-7.047620780326007,41.835022566290625
pt.ine.add.PTCONT.856873,R DA TOURELA,,5320-262,VILAR SECO DE LOMBA,-7.162173112244576,41.898385768946625
pt.ine.add.PTCONT.856874,,,5320-274,VINHAIS,-7.035372709963449,41.80570890047064
pt.ine.add.PTCONT.856875,R DO ARRABALDE,,5320-091,NUNES,-6.986160277906849,41.79609881954926
pt.ine.add.PTCONT.856876,R DO CIMO DA QUINTA,,5320-163,SOBREIRO DE BAIXO,-7.0577149500352885,41.85839961659433
pt.ine.add.PTCONT.856877,R DO FUNDO DE VILA,,5320-170,SOEIRA,-6.921327705426299,41.85333219081993
pt.ine.add.PTCONT.856878,R DAS MOREIRAS,,5335-071,ERVEDOSA VNH,-7.075090616333054,41.70855818680436
pt.ine.add.PTCONT.856879,R DO OIXIDO,,5320-133,QUIRÁS,-7.166169366062964,41.92902989583395
pt.ine.add.PTCONT.856880,R DO CASTANHEIRINHO,,5320-232,VILAR DE LOMBA,-7.179285265444569,41.816510490044635
pt.ine.add.PTCONT.856881,,,5320-154,SANTALHA,-7.085882188417199,41.91749502108623
pt.ine.add.PTCONT.856882,R DO CEMITÉRIO,,5335-134,VALE DAS FONTES,-7.133851514462925,41.72048245172918
pt.ine.add.PTCONT.856883,R DO POÇO,,5320-060,MOFREITA,-6.91272257018893,41.9195392943264
pt.ine.add.PTCONT.856884,,,5320-195,TUIZELO,-7.04152766170774,41.91722594955618
pt.ine.add.PTCONT.856885,,,5320-195,TUIZELO,-7.043628095638283,41.9170478332803
pt.ine.add.PTCONT.856886,,,5320-197,TUIZELO,-7.036986079613083,41.90086019284179
pt.ine.add.PTCONT.856887,TV DA FONTE,9,5320-021,CELAS,-6.921280019298423,41.717257725088764
pt.ine.add.PTCONT.856888,R DO SOUTO,9,5320-021,CELAS,-6.921125188454853,41.71718406579799
pt.ine.add.PTCONT.856889,,,5320-197,TUIZELO,-7.0384502811489895,41.896273605682815
pt.ine.add.PTCONT.856890,R DO CANTO,,5320-041,EDROSA,-6.966300629980827,41.765359957449334
pt.ine.add.PTCONT.856891,,,5335-136,VALE DE JANEIRO,-7.094647586361205,41.77367740733197
pt.ine.add.PTCONT.856892,R DR ÁLVARO LEITE,,5320-332,VINHAIS,-7.01069024333025,41.828599473183175
pt.ine.add.PTCONT.861446,,,5320-197,TUIZELO,-7.036853078701332,41.900885932227084
pt.ine.add.PTCONT.856965,BR DAS LAMAS,,5320-244,VILAR DE OSSOS,-7.043722348480319,41.861157731214426
pt.ine.add.PTCONT.857035,R DE CIMA,56,5320-328,,-7.005657693056656,41.834825365866934
pt.ine.add.PTCONT.857036,R DE S FRANCISCO,9,5320-321,VINHAIS,-7.008559154234912,41.833440320457434
pt.ine.add.PTCONT.857037,BR DOS CHOUPOS,,5320-313,,-6.993431831391706,41.83045522035109
pt.ine.add.PTCONT.857038,R DE S FRANCISCO,9,5320-329,VINHAIS,-7.008559154234912,41.833440320457434
pt.ine.add.PTCONT.857039,R DE S FRANCISCO,9,5320-329,VINHAIS,-7.008559154234912,41.833440320457434
pt.ine.add.PTCONT.857613,,,5320-193,TUIZELO,-7.077657755861256,41.89283239230924
pt.ine.add.PTCONT.857611,R DA IGREJA,,5320-041,EDROSA,-6.966107750793985,41.763395295943184
pt.ine.add.PTCONT.857612,,,5320-193,TUIZELO,-7.075906987564399,41.89305036616765
pt.ine.add.PTCONT.857614,BR DO EIRÓ,109,5320-210,VILA BOA DE OUSILHÃO,-6.926211420177566,41.80619832867765
pt.ine.add.PTCONT.857615,R ARMANDO ALMENDRA,30,5320-320,VINHAIS,-7.011657280766226,41.826988354089444
pt.ine.add.PTCONT.857616,R DO CARVALHAL,8,5320-307,VINHAIS,-7.011162790226421,41.82497582347737
pt.ine.add.PTCONT.857617,LG DA IGREJA,3,5320-022,CELAS,-6.942266648163827,41.703927194629614
pt.ine.add.PTCONT.857618,R DO CANTO,,5320-042,EDROSA,-6.9540527384734085,41.744005284007905
pt.ine.add.PTCONT.857619,,,5320-193,TUIZELO,-7.073913318578983,41.89046611955875
pt.ine.add.PTCONT.857620,R DO MARAGATO,7,5320-330,VINHAIS,-7.006399849515318,41.835066730384334
pt.ine.add.PTCONT.857621,R DO CRUZEIRO,,5320-113,PENHAS JUNTAS,-7.0143840923694984,41.74289797653052
pt.ine.add.PTCONT.857622,,,5320-160,SÃO JOMIL,-7.182807152645346,41.78749524232133
pt.ine.add.PTCONT.857623,BR DA PORTELA,50,5320-210,VILA BOA DE OUSILHÃO,-6.925582353004721,41.804454110040034
pt.ine.add.PTCONT.857624,R DE S JOSÉ,,5320-321,VINHAIS,-7.0085226916492145,41.834835448790336
pt.ine.add.PTCONT.857625,R DIREITA,88,5335-011,AGROCHÃO,-7.030642111479687,41.69268158793896
pt.ine.add.PTCONT.857626,R DOS CABEÇOS,,5320-312,VINHAIS,-7.006139063262185,41.82385526539486
pt.ine.add.PTCONT.857627,R DO SOUTO,23,5335-011,AGROCHÃO,-7.02991749805416,41.69220645941854
pt.ine.add.PTCONT.857628,LG DO FORNO,,5335-051,CUROPOS,-7.093655095828023,41.80236172484796
pt.ine.add.PTCONT.857629,R PRINCIPAL,,5320-112,PENHAS JUNTAS,-6.982728207612727,41.730980156932375
pt.ine.add.PTCONT.857630,R DO LOMBO,1,5335-120,REBORDELO,-7.159667077006337,41.73782840952517
pt.ine.add.PTCONT.857631,AV CAP SOBRINHO ALVES,,5320-010,ALVAREDOS,-7.064930848798903,41.80397086481261
pt.ine.add.PTCONT.857632,R 25 DE ABRIL,,5335-071,ERVEDOSA VNH,-7.0805761232038,41.71183176115599
pt.ine.add.PTCONT.857633,R DO CARRIL,,5320-091,NUNES,-6.984196413263368,41.797600730686725
pt.ine.add.PTCONT.857634,R DO ARRABALDE,,5320-091,NUNES,-6.985872862819612,41.79602392387926
pt.ine.add.PTCONT.857635,R DO ARCO,,5320-262,VILAR SECO DE LOMBA,-7.161862339989647,41.896627539367174
pt.ine.add.PTCONT.857636,R PRINCIPAL,,5335-032,CANDEDO VNH,-7.116771159331371,41.83955367343558
pt.ine.add.PTCONT.857637,R DA PORTELA,34,5335-113,REBORDELO,-7.164247157529177,41.73621050959249
pt.ine.add.PTCONT.857638,R AMÉRICO ELIAS,2,5335-121,,-7.165313439229052,41.73644457927206
pt.ine.add.PTCONT.857639,R DA CUMIEIRA,,5320-131,QUIRÁS,-7.179095103313217,41.97180328068245
pt.ine.add.PTCONT.857640,R DA CRUZ,,5320-140,SANTA CRUZ VNH,-6.951121652011018,41.89832483589331
pt.ine.add.PTCONT.857641,BR DE BAIXO,,5320-100,OUSILHÃO,-6.9547506577595914,41.79259377348983
pt.ine.add.PTCONT.857642,R PRINCIPAL,,5320-261,VILAR SECO DE LOMBA,-7.1496021915353145,41.88282047803836
pt.ine.add.PTCONT.857643,R DAS FREIRAS,1,5320-326,VINHAIS,-7.001497501189742,41.8352166011356
pt.ine.add.PTCONT.857644,,,5320-051,FRESULFE,-6.929276216209432,41.91297082599116
pt.ine.add.PTCONT.857645,,,5320-154,SANTALHA,-7.085027599267369,41.91889169586768
pt.ine.add.PTCONT.857646,R DO POMAR,37,5335-033,CANDEDO VNH,-7.10571902289475,41.818468946361406
pt.ine.add.PTCONT.857647,BR DA VÁRZEA,,5320-243,VILAR DE OSSOS,-7.034941153543508,41.87461474194481
pt.ine.add.PTCONT.857648,TV DA UNIÃO,3,5320-021,CELAS,-6.919701772112137,41.716835921280605
pt.ine.add.PTCONT.857649,,,5320-101,PAÇÓ,-6.940888640578866,41.86344931099748
pt.ine.add.PTCONT.857650,BR DE ALÉM,,5320-279,VINHAIS,-7.016200824351515,41.850206677682
pt.ine.add.PTCONT.857651,R DA PORTELA DOS FRADES,,5320-325,VINHAIS,-7.017348604395507,41.82919553552798
pt.ine.add.PTCONT.857652,R DA CORRIÇA,3,5320-021,CELAS,-6.920489456696249,41.71584487329009
pt.ine.add.PTCONT.857653,BR DO LOMBEIRO DA PONTE,,5320-070,MOIMENTA VNH,-6.981387965592774,41.95084972491511
pt.ine.add.PTCONT.857654,BR PRIMEIRO DE MAIO,1,5320-070,MOIMENTA VNH,-6.972970559955389,41.95080998423378
pt.ine.add.PTCONT.857655,R DA CASTANHEIRA,,5320-242,VILAR DE OSSOS,-7.026500624706284,41.85973263798844
pt.ine.add.PTCONT.857749,BR DA LAGOA,,5320-252,VILAR DE PEREGRINOS,-7.018120986478328,41.77494985456859
pt.ine.add.PTCONT.858142,R DO LOMBO DAS VINHAS,,5335-011,AGROCHÃO,-7.030535818384293,41.696795099078095
pt.ine.add.PTCONT.858143,R DIREITA,,5335-011,AGROCHÃO,-7.031322689560277,41.69292220250165
pt.ine.add.PTCONT.858163,R PRINCIPAL,47,5335-032,CANDEDO VNH,-7.119180425986288,41.83946693034741
pt.ine.add.PTCONT.858164,R DO BAIRRO,1,5320-023,CELAS,-6.959775142670462,41.72022321521406
pt.ine.add.PTCONT.858165,R DO BAIRRO,5,5320-023,CELAS,-6.960043953246966,41.72064011109209
pt.ine.add.PTCONT.858188,R DO SOUTO DO VENTO,,5335-053,CUROPOS,-7.11102615493833,41.79579220200191
pt.ine.add.PTCONT.858189,R PRINCIPAL,,5320-033,EDRAL,-7.141062183509977,41.860896453100544
pt.ine.add.PTCONT.858190,R 25 DE ABRIL,,5335-071,ERVEDOSA VNH,-7.084411924991616,41.713136304025205
pt.ine.add.PTCONT.858191,R DO EMIGRANTE,,5335-071,ERVEDOSA VNH,-7.075431297694496,41.71049704191813
pt.ine.add.PTCONT.858207,,,5320-051,FRESULFE,-6.929754235767884,41.91383112051168
pt.ine.add.PTCONT.858208,,,5320-051,FRESULFE,-6.928883240702184,41.912075409454886
pt.ine.add.PTCONT.858209,R DO CIMO DA QUINTA,,5320-084,MONTOUTO,-7.01146856558789,41.92183386882124
pt.ine.add.PTCONT.858210,R DO SOUTO,,5320-102,PAÇÓ,-6.951117005381615,41.87112661999956
pt.ine.add.PTCONT.858224,,,5320-101,PAÇÓ,-6.936512181258082,41.845604712144045
pt.ine.add.PTCONT.858225,R DO SOUTO,,5320-113,PENHAS JUNTAS,-7.015040014177493,41.741814965610914
pt.ine.add.PTCONT.858226,BR DAS PALHAREGAS,,5320-121,PINHEIRO NOVO,-7.13631885222923,41.96457955608014
pt.ine.add.PTCONT.858227,R DA CABEÇA,,5320-121,PINHEIRO NOVO,-7.13838129277811,41.96227467773102
pt.ine.add.PTCONT.858236,R DO PARDAL,7,5335-122,REBORDELO,-7.162314547425886,41.73683343317035
pt.ine.add.PTCONT.858237,R DAS PEREIRAS,9,5335-114,REBORDELO,-7.166639141242537,41.73621264826275
pt.ine.add.PTCONT.858252,R DA VEIGA,,5320-170,SOEIRA,-6.916397818128143,41.85421638424962
pt.ine.add.PTCONT.858253,R DO FUNDO DE VILA,,5320-170,SOEIRA,-6.921276513746132,41.85285448784711
pt.ine.add.PTCONT.858254,,,5320-198,TUIZELO,-7.05707468749995,41.89370371540061
pt.ine.add.PTCONT.858255,,,5320-193,TUIZELO,-7.078272530633402,41.8913525354699
pt.ine.add.PTCONT.858256,,,5320-194,TUIZELO,-7.069014677231038,41.87054202544971
pt.ine.add.PTCONT.858257,R DO CANTO,5,5335-134,VALE DAS FONTES,-7.108288413051362,41.73349218981336
pt.ine.add.PTCONT.858265,R DO CANTO DA EIRA,,5335-134,VALE DAS FONTES,-7.134260881915226,41.72043199098869
pt.ine.add.PTCONT.858266,BR DO CERDEIRO,,5320-210,VILA BOA DE OUSILHÃO,-6.926564640751016,41.80212361401129
pt.ine.add.PTCONT.858267,R DA CANADA,,5320-221,VILA VERDE VNH,-6.964539157951723,41.85439223358294
pt.ine.add.PTCONT.858268,R DO COUÇO,,5320-222,VILA VERDE VNH,-6.9586282191520805,41.84310507871377
pt.ine.add.PTCONT.858269,R DA AMOREIRA,,5320-222,VILA VERDE VNH,-6.956847610581159,41.8430328366481
pt.ine.add.PTCONT.858283,R DO OUTEIRO,,5320-243,VILAR DE OSSOS,-7.036204777137657,41.8760943209397
pt.ine.add.PTCONT.858284,R DA LAGOA,,5320-252,VILAR DE PEREGRINOS,-7.015236281169051,41.77692053467017
pt.ine.add.PTCONT.858285,TV DA MIMOSA,,5320-262,VILAR SECO DE LOMBA,-7.162178060071782,41.896468153854045
pt.ine.add.PTCONT.858298,R DO LOUREIRO,,5320-279,VINHAIS,-7.013181555170976,41.852788175117276
pt.ine.add.PTCONT.858299,R DE BAIXO,91,5320-327,VINHAIS,-6.999554927298634,41.83409906301199
pt.ine.add.PTCONT.858300,SIT DENTRO DA VILA,,5320-272,VINHAIS,-7.0004091613081645,41.83480973498944
pt.ine.add.PTCONT.858301,BR DO CAMPO,,5320-306,VINHAIS,-7.007105249779838,41.82779011221656
pt.ine.add.PTCONT.858334,R DA PORTELA DOS FRADES,,5320-325,VINHAIS,-7.016143023313465,41.82930085816862
pt.ine.add.PTCONT.858402,EN 316,,5320-279,VINHAIS,-7.013830632748634,41.850093570899574
pt.ine.add.PTCONT.858409,BR DO FUNDO DA VILA,,5320-243,VILAR DE OSSOS,-7.03725715702899,41.872314071761316
pt.ine.add.PTCONT.858418,R ARY DOS SANTOS,,5320-315,VINHAIS,-7.012283021494713,41.831829148308664
pt.ine.add.PTCONT.858419,R DO CIMO DO CAMPO,,5320-132,QUIRÁS,-7.143083931795196,41.911718367712844
pt.ine.add.PTCONT.858423,AV DE S VENÂNCIO,40,5335-101,REBORDELO,-7.158443578783138,41.74004185841976
pt.ine.add.PTCONT.858437,R DO SOALHEIRO,,5320-251,VILAR DE PEREGRINOS,-7.022831029222779,41.7877710372754
pt.ine.add.PTCONT.858444,,,5320-154,SANTALHA,-7.084322870434988,41.91775988211634
pt.ine.add.PTCONT.858445,R DO LOMBO DAS VINHAS,,5335-011,AGROCHÃO,-7.029137174636711,41.696394526703074
pt.ine.add.PTCONT.858453,SIT DAS ALMINHAS,,5320-999,VINHAIS,-7.014525694553742,41.8233250357446
pt.ine.add.PTCONT.858460,R NOVA,9,5320-021,CELAS,-6.921075584753035,41.714068408377216
pt.ine.add.PTCONT.858503,R DO EIRÓ,,5320-309,VINHAIS,-7.000048557770986,41.82727055559509
pt.ine.add.PTCONT.858732,R DA MÃE DE ÁGUA,,5335-011,AGROCHÃO,-7.03397060554885,41.69684601112916
pt.ine.add.PTCONT.858733,R DIREITA,,5335-011,AGROCHÃO,-7.028625505917194,41.69189693812819
pt.ine.add.PTCONT.858734,AV CAP SOBRINHO ALVES,,5320-010,ALVAREDOS,-7.065700291407908,41.80038574115373
pt.ine.add.PTCONT.858771,R PRINCIPAL,,5335-032,CANDEDO VNH,-7.119220761237716,41.839962460188765
pt.ine.add.PTCONT.858772,R PRINCIPAL,3,5335-033,CANDEDO VNH,-7.098412360525192,41.82152746207811
pt.ine.add.PTCONT.858773,R DE S JORGE,,5335-033,CANDEDO VNH,-7.107349806339079,41.8203561845134
pt.ine.add.PTCONT.858810,LG DO FORNO,,5335-051,CUROPOS,-7.09378078617051,41.802029743474854
pt.ine.add.PTCONT.858811,BR DA IGREJA,,5320-032,EDRAL,-7.160490540441553,41.84247112655722
pt.ine.add.PTCONT.858812,,,5320-042,EDROSA,-6.95317004364963,41.74494156275846
pt.ine.add.PTCONT.858813,R DA TABERNA,,5335-074,ERVEDOSA VNH,-7.102385947247263,41.72527337829792
pt.ine.add.PTCONT.858859,R DO CRUZEIRO,,5320-060,MOFREITA,-6.912530166412777,41.91824982438404
pt.ine.add.PTCONT.858860,R DA PONTE,,5320-070,MOIMENTA VNH,-6.9774233811132325,41.949333399114686
pt.ine.add.PTCONT.858861,BR DE BAIXO,,5320-091,NUNES,-6.9859593253654255,41.79522350423442
pt.ine.add.PTCONT.858900,,,5320-101,PAÇÓ,-6.9411456839333985,41.86128224069178
pt.ine.add.PTCONT.858901,R PRINCIPAL,,5320-112,PENHAS JUNTAS,-6.9827541983788235,41.7301971319201
pt.ine.add.PTCONT.858902,R DA ESQUINA,,5320-121,PINHEIRO NOVO,-7.138921032328155,41.96480018664516
pt.ine.add.PTCONT.858938,AV DE S VENÂNCIO,22,5335-101,REBORDELO,-7.162192583951809,41.73934433100956
pt.ine.add.PTCONT.858939,AV DO BRASIL,,5335-102,REBORDELO,-7.161081583654795,41.73888477093362
pt.ine.add.PTCONT.858940,R DO EIRÓ,15,5335-119,REBORDELO,-7.164835633196858,41.73784507310484
pt.ine.add.PTCONT.858941,R DA PORTELA,8,5335-113,REBORDELO,-7.163836492810088,41.736342095920214
pt.ine.add.PTCONT.858976,SIT DO VALE DA BOUÇA,,5320-163,SOBREIRO DE BAIXO,-7.054263213029676,41.83160993849183
pt.ine.add.PTCONT.858977,LG DO PADRÃO,,5320-170,SOEIRA,-6.919924139425218,41.853686497782896
pt.ine.add.PTCONT.858978,R DOS PENEDOS,,5320-180,TRAVANCA VNH,-6.996466867839903,41.89224646703553
pt.ine.add.PTCONT.859016,AV DO SENHOR DOS AFLITOS,14,5335-134,VALE DAS FONTES,-7.108835212341967,41.73009381058762
pt.ine.add.PTCONT.859017,BR DO EIRÓ,73,5320-210,VILA BOA DE OUSILHÃO,-6.925766619555579,41.806175647769756
pt.ine.add.PTCONT.859018,BR DO EIRÓ,65,5320-210,VILA BOA DE OUSILHÃO,-6.9257891293431815,41.805617689441334
pt.ine.add.PTCONT.859019,BR DA TRAPA,,5320-210,VILA BOA DE OUSILHÃO,-6.930954749523611,41.806077011653535
pt.ine.add.PTCONT.859043,EN 103,,5320-222,VILA VERDE VNH,-6.9603591266333025,41.84194336073295
pt.ine.add.PTCONT.859044,R PRINCIPAL,,5320-231,VILAR DE LOMBA,-7.183927361837,41.84444983928618
pt.ine.add.PTCONT.859045,BR DO CALVÁRIO,,5320-243,VILAR DE OSSOS,-7.03715760558433,41.877435873882405
pt.ine.add.PTCONT.859046,BR DO EIRÓ,,5320-252,VILAR DE PEREGRINOS,-7.019971720404509,41.77642632509519
pt.ine.add.PTCONT.859047,R PRINCIPAL,,5320-262,VILAR SECO DE LOMBA,-7.162951839888999,41.895502360636144
pt.ine.add.PTCONT.859048,R DO SOUTO,,5320-262,VILAR SECO DE LOMBA,-7.163889851179117,41.89562732200367
pt.ine.add.PTCONT.859073,BR DO CALVÁRIO,28,5320-305,VINHAIS,-6.998983358403608,41.83919819173154
pt.ine.add.PTCONT.859106,R DR ÁLVARO LEITE,,5320-332,VINHAIS,-7.010349636082865,41.828803216259
pt.ine.add.PTCONT.859107,BR DO CAMPO,,5320-306,VINHAIS,-7.0083469206448195,41.827685237846204
pt.ine.add.PTCONT.859108,BR DO CAMPO,,5320-306,VINHAIS,-7.007204685905578,41.827611024219486
pt.ine.add.PTCONT.859109,R ARMANDO ALMENDRA,,5320-320,VINHAIS,-7.012362739268229,41.82794957328794
pt.ine.add.PTCONT.859110,R DO EIRÓ,,5320-309,VINHAIS,-7.000652825407541,41.827816703604036
pt.ine.add.PTCONT.859111,R DO EIRÓ,,5320-309,VINHAIS,-7.0001294697245315,41.8274604196997
pt.ine.add.PTCONT.859112,R DO CARVALHAL,,5320-307,VINHAIS,-7.010192858108515,41.82330976561369
pt.ine.add.PTCONT.859113,R DO CARVALHAL,,5320-307,VINHAIS,-7.013655183947644,41.822857393832614
pt.ine.add.PTCONT.859159,LG DO PADRÃO,,5320-170,SOEIRA,-6.919358106088158,41.853689519779856
pt.ine.add.PTCONT.859164,SIT DO VALE DAS AMEIXEIRAS,,5335-051,CUROPOS,-7.098959199147423,41.80175236619058
pt.ine.add.PTCONT.859166,R DA LAGOA,,5320-252,VILAR DE PEREGRINOS,-7.017983249920885,41.77526363045542
pt.ine.add.PTCONT.859175,R PRINCIPAL,,5320-112,PENHAS JUNTAS,-6.982560999283146,41.73294119691875
pt.ine.add.PTCONT.859765,EN 206,,5335-011,AGROCHÃO,-7.02989882384732,41.69962503889168
pt.ine.add.PTCONT.859774,R DO MEIO DO LUGAR,,5320-111,PENHAS JUNTAS,-7.063479988732237,41.76313673359793
pt.ine.add.PTCONT.859775,R DO MEIO DO LUGAR,,5320-111,PENHAS JUNTAS,-7.0633230876470785,41.763171285675504
pt.ine.add.PTCONT.859776,R DOS RETORNADOS,8,5335-124,REBORDELO,-7.156479924107491,41.74032229345034
pt.ine.add.PTCONT.859777,R DO CANEIRO,,5320-070,MOIMENTA VNH,-6.977404331131711,41.94972033402813
pt.ine.add.PTCONT.859778,R DIREITA,,5335-011,AGROCHÃO,-7.031082180440839,41.69293790295903
pt.ine.add.PTCONT.859779,R PRINCIPAL,33,5320-022,CELAS,-6.945671114999064,41.703683324356895
pt.ine.add.PTCONT.859780,R DO CRUZEIRO,,5320-113,PENHAS JUNTAS,-7.014759503497643,41.74273957252521
pt.ine.add.PTCONT.859781,R DE S JOSÉ,27,5320-321,VINHAIS,-7.007366826382568,41.83415789334215
pt.ine.add.PTCONT.859782,R DO CENTRO DO POVO,,5320-081,MONTOUTO,-7.002004493204654,41.943042073481685
pt.ine.add.PTCONT.859783,R PROF CLARO,7,5335-126,REBORDELO,-7.163068091328784,41.73947777263924
pt.ine.add.PTCONT.859784,R DO COUÇO,,5320-308,VINHAIS,-7.0090444443173245,41.82565735633453
pt.ine.add.PTCONT.859785,R DA FONTE,,5320-082,MONTOUTO,-7.033925571991753,41.942271779548925
pt.ine.add.PTCONT.859786,R DA GASPARONA,32,5320-324,VINHAIS,-7.004665325622629,41.8351217261502
pt.ine.add.PTCONT.859787,R ARY DOS SANTOS,,5320-315,VINHAIS,-7.011331328961417,41.832558113964
pt.ine.add.PTCONT.859788,BR DA UCHA,,5320-303,VINHAIS,-7.014155371984316,41.83076702865585
pt.ine.add.PTCONT.859789,R DO OUTEIRO,,5335-071,ERVEDOSA VNH,-7.080343128386978,41.712856007515875
pt.ine.add.PTCONT.859790,R 25 DE ABRIL,,5335-071,ERVEDOSA VNH,-7.081199226537299,41.71193650381526
pt.ine.add.PTCONT.859791,R DA LADEIRA,,5335-134,VALE DAS FONTES,-7.10882449374097,41.73228152209975
pt.ine.add.PTCONT.859792,R DA EIRA,26,5335-031,CANDEDO VNH,-7.093558704129785,41.840318255746716
pt.ine.add.PTCONT.859793,R DO OUTEIRO,,5320-222,VILA VERDE VNH,-6.957941428849499,41.84444851793559
pt.ine.add.PTCONT.859794,R PRINCIPAL,65,5335-032,CANDEDO VNH,-7.119397414141226,41.84173764157099
pt.ine.add.PTCONT.859795,R PRINCIPAL,,5320-091,NUNES,-6.984494361945464,41.79506481368814
pt.ine.add.PTCONT.859796,R PRINCIPAL,,5335-053,CUROPOS,-7.111824514331819,41.79476393201195
pt.ine.add.PTCONT.859797,VLA DA MARIA BRANCA,,5320-091,NUNES,-6.985070626834318,41.795133596905664
pt.ine.add.PTCONT.859798,AV DO BRASIL,56,5335-102,REBORDELO,-7.16244689142343,41.732035774666045
pt.ine.add.PTCONT.859799,R DOS ENXERTOS,,5335-134,VALE DAS FONTES,-7.137225680812856,41.72065579915756
pt.ine.add.PTCONT.859800,R PRINCIPAL,,5320-231,VILAR DE LOMBA,-7.183764814984958,41.84241377868968
pt.ine.add.PTCONT.859801,R DA CARREIRA,,5320-232,VILAR DE LOMBA,-7.182231283983802,41.812618516934
pt.ine.add.PTCONT.859802,SIT DENTRO DA VILA,,5320-272,VINHAIS,-7.000449080081237,41.83459405361455
pt.ine.add.PTCONT.859803,BR DA SENHORA DA PENHA DE FRANÇA,8,5335-150,REBORDELO,-7.167328305428706,41.74717548810067
pt.ine.add.PTCONT.859804,R DO JARDIM DE INFÂNCIA,,5335-134,VALE DAS FONTES,-7.134093384362079,41.72115980578406
pt.ine.add.PTCONT.859805,R DO SENHOR DOS AFLITOS,41,5335-033,CANDEDO VNH,-7.106534546509013,41.819403566373154
pt.ine.add.PTCONT.859806,R DO POMARINHO,,5320-140,SANTA CRUZ VNH,-6.950065069534843,41.898115888112045
pt.ine.add.PTCONT.859807,R DA FONTE,,5320-232,VILAR DE LOMBA,-7.183983500417688,41.810499245358706
pt.ine.add.PTCONT.859808,R DO EIRÓ,,5320-052,FRESULFE,-6.917571144292309,41.889538739870716
pt.ine.add.PTCONT.859809,R DO CORGO,,5320-052,FRESULFE,-6.9180007188396555,41.88975935894739
pt.ine.add.PTCONT.859810,R DA CANELHA,,5320-180,TRAVANCA VNH,-6.9945908036726525,41.89136358896813
pt.ine.add.PTCONT.859811,R DA PORTELA,,5335-134,VALE DAS FONTES,-7.136769029791395,41.71987755256325
pt.ine.add.PTCONT.859812,BR DA UCHA,8,5320-303,VINHAIS,-7.011924456880246,41.83168159836686
pt.ine.add.PTCONT.859813,R PRINCIPAL,8,5320-023,CELAS,-6.959292143776424,41.71902984806268
pt.ine.add.PTCONT.859814,,,5320-195,TUIZELO,-7.043796671511438,41.91705843577929
pt.ine.add.PTCONT.859815,R DA FACEIRA,,5320-242,VILAR DE OSSOS,-7.025845374698486,41.86350762224584
pt.ine.add.PTCONT.859816,R DA PORTELA DOS FRADES,,5320-325,VINHAIS,-7.016285884364479,41.829392278846434
pt.ine.add.PTCONT.859817,BR PRIMEIRO DE MAIO,,5320-070,MOIMENTA VNH,-6.972764102283602,41.950888924125515
pt.ine.add.PTCONT.859818,,,5320-153,SANTALHA,-7.103920484160061,41.90365839118284
pt.ine.add.PTCONT.859819,,,5320-198,TUIZELO,-7.0562973310851245,41.893354311990294
pt.ine.add.PTCONT.859886,R DAS EIRAS,,5320-163,SOBREIRO DE BAIXO,-7.0565541114876424,41.84503711206505
pt.ine.add.PTCONT.859888,R DO REGADIO,,5320-261,VILAR SECO DE LOMBA,-7.1505134606566365,41.883890645204836
pt.ine.add.PTCONT.859914,R DO CIMO DA ALDEIA,,5320-082,MONTOUTO,-7.0354935851488785,41.94295300176008
pt.ine.add.PTCONT.859915,R DO PICOTINHO,,5320-091,NUNES,-6.983239924109051,41.790532664195034
pt.ine.add.PTCONT.859916,SIT DENTRO DA VILA,,5320-272,VINHAIS,-6.9998341115183855,41.834651008986974
pt.ine.add.PTCONT.859948,R ARMANDO ALMENDRA,23,5320-320,VINHAIS,-7.011018235957305,41.8263608956524
pt.ine.add.PTCONT.859949,BR DE CIMA,,5320-051,FRESULFE,-6.929676687439061,41.914109400184884
pt.ine.add.PTCONT.859950,BR PRIMEIRO DE MAIO,,5320-070,MOIMENTA VNH,-6.973763134385499,41.95099804990294
pt.ine.add.PTCONT.860642,EN 103,,5335-051,CUROPOS,-7.101318999158746,41.800162012273525
pt.ine.add.PTCONT.860629,R DA AMOREIRA,,5320-070,MOIMENTA VNH,-6.976189595925702,41.9508694786485
pt.ine.add.PTCONT.860630,R DO CABECINHO,6,5320-070,MOIMENTA VNH,-6.977065103343679,41.9504731659028
pt.ine.add.PTCONT.860631,R DAS FREIRAS,20,5320-326,VINHAIS,-7.002229035651363,41.83537685976552
pt.ine.add.PTCONT.860632,R DA BARREIRA,,5320-042,EDROSA,-6.953928427680973,41.74422908937495
pt.ine.add.PTCONT.860633,R DO VALE,,5320-070,MOIMENTA VNH,-6.974758101116799,41.94999976388268
pt.ine.add.PTCONT.860634,R DAS MORARINHAS,,5320-022,CELAS,-6.942441070794006,41.70293863865333
pt.ine.add.PTCONT.860635,R PRINCIPAL,21,5320-022,CELAS,-6.944090944311476,41.70402711621275
pt.ine.add.PTCONT.860636,R DA ESTRADA,,5335-072,ERVEDOSA VNH,-7.015581589387868,41.72097762015307
pt.ine.add.PTCONT.860637,R DO FUNDO DO LUGAR,,5320-113,PENHAS JUNTAS,-7.017612800895789,41.73902194857077
pt.ine.add.PTCONT.860638,R ANTÓNIO CARVALHO,2,5335-105,REBORDELO,-7.161316673133839,41.73923788927648
pt.ine.add.PTCONT.860639,,,5320-191,TUIZELO,-7.0887870024462565,41.87091260214809
pt.ine.add.PTCONT.860640,R PRINCIPAL,,5320-221,VILA VERDE VNH,-6.964900357105254,41.85439590843159
pt.ine.add.PTCONT.860641,BR DO CALVÁRIO,52,5320-305,VINHAIS,-6.997784517525624,41.837547778828316
pt.ine.add.PTCONT.860643,R PRINCIPAL,,5320-112,PENHAS JUNTAS,-6.982713690708051,41.733140797916285
pt.ine.add.PTCONT.860644,AV DO BRASIL,2,5335-102,REBORDELO,-7.161790170574074,41.738926776751754
pt.ine.add.PTCONT.860645,AV DO BRASIL,2,5335-102,REBORDELO,-7.161790170574074,41.738926776751754
pt.ine.add.PTCONT.860646,LG DA CAPELA,,5320-221,VILA VERDE VNH,-6.9645499732179035,41.85379813997502
pt.ine.add.PTCONT.860647,R DO CARVALHAL,,5320-307,VINHAIS,-7.0105325761587185,41.82384427220338
pt.ine.add.PTCONT.860648,R DO CONCELHO,,5320-222,VILA VERDE VNH,-6.957194898669181,41.84379265343498
pt.ine.add.PTCONT.860649,QTA DA AGRELA,,5320-275,VINHAIS,-7.018531195477306,41.83943457877843
pt.ine.add.PTCONT.860650,R DO FUNDO DA QUINTA,,5320-084,MONTOUTO,-7.013356049473423,41.92143815461762
pt.ine.add.PTCONT.860651,AV DO BRASIL,,5335-102,REBORDELO,-7.160134531885518,41.73712110611134
pt.ine.add.PTCONT.860652,R PRINCIPAL,,5335-032,CANDEDO VNH,-7.119150097235332,41.83986280160472
pt.ine.add.PTCONT.860653,R PRINCIPAL,,5335-032,CANDEDO VNH,-7.117680668227658,41.8429469050899
pt.ine.add.PTCONT.860654,R DE BAIXO,,5320-327,VINHAIS,-7.000130606526471,41.834221784109616
pt.ine.add.PTCONT.860655,R 25 DE ABRIL,,5335-071,ERVEDOSA VNH,-7.079367477112115,41.71079430270733
pt.ine.add.PTCONT.860656,R PRINCIPAL,,5320-091,NUNES,-6.985212725448573,41.795261061574976
pt.ine.add.PTCONT.860657,AV DO BRASIL,66,5335-102,REBORDELO,-7.1646341802003475,41.73045163767394
pt.ine.add.PTCONT.860658,R DE S JORGE,94,5335-033,CANDEDO VNH,-7.107901654997824,41.820469149754864
pt.ine.add.PTCONT.860659,R DO CANTO,,5320-033,EDRAL,-7.140821484872559,41.86088537047496
pt.ine.add.PTCONT.860660,LG DA IGREJA,,5335-134,VALE DAS FONTES,-7.134357312490529,41.721189110216116
pt.ine.add.PTCONT.860661,R DE BAIXO,,5320-327,VINHAIS,-7.000955878652271,41.83452702556351
pt.ine.add.PTCONT.860662,R DO CAMPO,,5320-032,EDRAL,-7.17023683257203,41.85412231266273
pt.ine.add.PTCONT.860663,R DO EMIGRANTE,,5335-071,ERVEDOSA VNH,-7.0764782446610495,41.71039863385724
pt.ine.add.PTCONT.860664,R DA CANCELA,,5320-133,QUIRÁS,-7.1676219133432415,41.932643333576664
pt.ine.add.PTCONT.860665,R DA ABADIA,,5320-261,VILAR SECO DE LOMBA,-7.151537136733934,41.88234186319976
pt.ine.add.PTCONT.860666,R DE S FRANCISCO,31,5320-321,VINHAIS,-7.007304389419605,41.833599087187366
pt.ine.add.PTCONT.860667,R JOSÉ MORAIS SARMENTO,,5320-334,VINHAIS,-7.009247063971611,41.83127729864237
pt.ine.add.PTCONT.860668,BR DA IGREJA,,5320-032,EDRAL,-7.160338285504917,41.839804898860834
pt.ine.add.PTCONT.860669,ESTR PRINCIPAL,,5320-102,PAÇÓ,-6.947094297270951,41.87110314930387
pt.ine.add.PTCONT.860670,ESTR PRINCIPAL,,5320-102,PAÇÓ,-6.947458582740008,41.870944856160726
pt.ine.add.PTCONT.860671,R DA PORTELA,,5335-134,VALE DAS FONTES,-7.136470224558157,41.72055021222449
pt.ine.add.PTCONT.860672,R DA PORTELA,,5335-134,VALE DAS FONTES,-7.136456122266175,41.720685140098084
pt.ine.add.PTCONT.860673,R PRINCIPAL,,5320-263,VILAR SECO DE LOMBA,-7.172128687089402,41.87816752552689
pt.ine.add.PTCONT.860674,R DO CALVÁRIO,,5320-032,EDRAL,-7.157555480312445,41.843877736658115
pt.ine.add.PTCONT.860675,,,5320-154,SANTALHA,-7.0844490755883545,41.91888641344975
pt.ine.add.PTCONT.860676,R DO LOMBO,,5320-180,TRAVANCA VNH,-6.999047839267405,41.892109932057636
pt.ine.add.PTCONT.860677,BR DA UCHA,32,5320-303,VINHAIS,-7.012897061929281,41.83113289436311
pt.ine.add.PTCONT.860678,,,5320-154,SANTALHA,-7.083960049726224,41.91636109765373
pt.ine.add.PTCONT.860679,R DO CIMO DO POVO,,5320-279,VINHAIS,-7.012445430691039,41.8542575031274
pt.ine.add.PTCONT.860680,R DO POULO,,5320-279,VINHAIS,-7.016703889856145,41.85451505407604
pt.ine.add.PTCONT.860681,R DA PORTELA DOS FRADES,,5320-325,VINHAIS,-7.014030894014022,41.828929175345245
pt.ine.add.PTCONT.860682,R DA PORTELA DOS FRADES,,5320-325,VINHAIS,-7.014030894014022,41.828929175345245
pt.ine.add.PTCONT.860683,,,5335-136,VALE DE JANEIRO,-7.095034094552973,41.7750674012311
pt.ine.add.PTCONT.860684,,,5320-198,TUIZELO,-7.0522688619164695,41.89358655503024
pt.ine.add.PTCONT.860685,R DA FACEIRA,,5320-242,VILAR DE OSSOS,-7.024577846268192,41.8587957777128
pt.ine.add.PTCONT.860745,R DA CALE,,5320-102,PAÇÓ,-6.9508843721063425,41.87133129550094
pt.ine.add.PTCONT.860766,R DA IGREJA,82,5335-033,CANDEDO VNH,-7.10637547032897,41.82032046940932
pt.ine.add.PTCONT.860769,BR DO FUNDO DA VILA,,5320-243,VILAR DE OSSOS,-7.0372236402982775,41.872160699492966
pt.ine.add.PTCONT.860823,R DA IGREJA,,5335-051,CUROPOS,-7.094015768944499,41.8016357281992
pt.ine.add.PTCONT.860824,R DA CAPELA,,5320-165,SOBREIRO DE BAIXO,-7.0388097897013076,41.83636144915771
pt.ine.add.PTCONT.860825,R DO LOMBO,13,5335-120,REBORDELO,-7.160126589629769,41.73685093899388
pt.ine.add.PTCONT.860826,R PRINCIPAL,,5320-231,VILAR DE LOMBA,-7.18416029229717,41.844982951209424
pt.ine.add.PTCONT.860827,QTA DA TAIPA,,5320-311,VINHAIS,-7.006441417419059,41.830637596944676
pt.ine.add.PTCONT.861415,R DO CANEIRO,40,5320-070,MOIMENTA VNH,-6.976332136857584,41.948989299479976
pt.ine.add.PTCONT.861416,R PROF CLARO,17,5335-126,REBORDELO,-7.162260902595749,41.7395970014253
pt.ine.add.PTCONT.861417,,,5320-193,TUIZELO,-7.0721128644972096,41.892961352902255
pt.ine.add.PTCONT.861418,TV DO FORTE,,5320-070,MOIMENTA VNH,-6.975043582236108,41.95021871473891
pt.ine.add.PTCONT.861419,R DO SOUTO,3,5335-011,AGROCHÃO,-7.030466573390961,41.69240980311169
pt.ine.add.PTCONT.861420,R DO CIMO DA ALDEIA,,5320-082,MONTOUTO,-7.035429285943009,41.94318646435805
pt.ine.add.PTCONT.861421,,,5320-191,TUIZELO,-7.087926611237626,41.870490631838535
pt.ine.add.PTCONT.861422,SIT DA DEVESA,6,5320-210,VILA BOA DE OUSILHÃO,-6.9272251238440035,41.79770099842531
pt.ine.add.PTCONT.861423,R DO CIMO DO LOMBO,5,5335-120,REBORDELO,-7.15935711708498,41.73686242693306
pt.ine.add.PTCONT.861424,R DA CORUJEIRA,11,5320-323,VINHAIS,-7.0025722340849805,41.835713354300005
pt.ine.add.PTCONT.861425,AV DO BRASIL,10,5335-102,REBORDELO,-7.160586900460824,41.73741304250419
pt.ine.add.PTCONT.861426,CM 1015,,5320-091,NUNES,-6.985246185905401,41.79743116239615
pt.ine.add.PTCONT.861427,R DA MIMOSA,,5320-262,VILAR SECO DE LOMBA,-7.161698749395726,41.89708531288
pt.ine.add.PTCONT.861428,,,5320-274,VINHAIS,-7.035934744174366,41.80521009208035
pt.ine.add.PTCONT.861429,R PRINCIPAL,,5335-053,CUROPOS,-7.115612558966847,41.79715639311439
pt.ine.add.PTCONT.861430,TV DA MIMOSA,,5320-262,VILAR SECO DE LOMBA,-7.160979748876295,41.896025867096085
pt.ine.add.PTCONT.861431,,,5320-273,VINHAIS,-7.005729610633617,41.802594781562135
pt.ine.add.PTCONT.861432,R DA ESTALAGEM DE BAIXO,,5335-053,CUROPOS,-7.113007095937809,41.79150626813811
pt.ine.add.PTCONT.861433,R DO LOMBEIRO,,5335-071,ERVEDOSA VNH,-7.07884809722422,41.710960602098716
pt.ine.add.PTCONT.861434,R DA FONTE,,5320-170,SOEIRA,-6.9116950656573195,41.855814023578866
pt.ine.add.PTCONT.861435,R DAS EIRAS,,5320-261,VILAR SECO DE LOMBA,-7.152619351825535,41.88405269514454
pt.ine.add.PTCONT.861436,R PRINCIPAL,,5320-033,EDRAL,-7.13911265269829,41.8607985676173
pt.ine.add.PTCONT.861437,R DO CAMPO,,5320-032,EDRAL,-7.170173118012825,41.85435586042503
pt.ine.add.PTCONT.861438,R DO CAMPO,,5320-032,EDRAL,-7.169389792399596,41.854394305631864
pt.ine.add.PTCONT.861439,R DO FORNO,,5320-034,EDRAL,-7.18579752314113,41.85561119649888
pt.ine.add.PTCONT.861440,R DO CEMITÉRIO,,5335-134,VALE DAS FONTES,-7.132962079912539,41.72049272001024
pt.ine.add.PTCONT.861441,R DA FONTE,,5320-232,VILAR DE LOMBA,-7.1837854594136195,41.81005645081473
pt.ine.add.PTCONT.861442,BR DA UCHA,21,5320-303,VINHAIS,-7.012270728525604,41.83115379309345
pt.ine.add.PTCONT.861443,R DA CARREIRA,,5320-132,QUIRÁS,-7.139882805835477,41.91061935807714
pt.ine.add.PTCONT.861447,BR DA VÁRZEA,,5320-243,VILAR DE OSSOS,-7.0353071520973325,41.87575262931401
pt.ine.add.PTCONT.861448,R DOS MOINHOS,,5320-279,VINHAIS,-7.011870599593976,41.851316880299294
pt.ine.add.PTCONT.861449,,,5320-101,PAÇÓ,-6.939788537857623,41.861727302350864
pt.ine.add.PTCONT.861450,R DOS RETORNADOS,27,5335-124,REBORDELO,-7.154558598526239,41.740188902582545
pt.ine.add.PTCONT.861451,,,5320-153,SANTALHA,-7.103865200375216,41.904099045428026
pt.ine.add.PTCONT.861452,,,5320-198,TUIZELO,-7.050794838671976,41.89738996512757
pt.ine.add.PTCONT.861453,R DA PONTE,,5320-070,MOIMENTA VNH,-6.97882733182199,41.949725647698365
pt.ine.add.PTCONT.861454,,,5320-101,PAÇÓ,-6.942042268051683,41.86229088372932
pt.ine.add.PTCONT.861455,R DA PORTELA DOS FRADES,,5320-325,VINHAIS,-7.016649774344082,41.82854051823797
pt.ine.add.PTCONT.861536,R PRINCIPAL,,5320-262,VILAR SECO DE LOMBA,-7.163101113827707,41.895989788422284
pt.ine.add.PTCONT.861541,BR DO FUNDO DA VILA,,5320-243,VILAR DE OSSOS,-7.037380053443794,41.87217119514399
pt.ine.add.PTCONT.861548,R DO TORNO,,5320-070,MOIMENTA VNH,-6.975244011267246,41.95180525443763
pt.ine.add.PTCONT.861549,EN 206,,5320-041,EDROSA,-6.964854627954522,41.76485908767044
pt.ine.add.PTCONT.861557,R DOS RETORNADOS,22,5335-124,REBORDELO,-7.1552934186974415,41.740087118755575
pt.ine.add.PTCONT.861647,R DO CERRADO,,5320-121,PINHEIRO NOVO,-7.139000958079603,41.96431471815622
pt.ine.add.PTCONT.861648,R DO FUNDO,,5320-153,SANTALHA,-7.10508607295684,41.903119646203734
pt.ine.add.PTCONT.861650,R DE CIMA,,5320-328,,-7.007129615081056,41.834641737039334
pt.ine.add.PTCONT.861651,R DE CIMA,,5320-328,,-7.007129615081056,41.834641737039334
pt.ine.add.PTCONT.861652,R DE CIMA,,5320-328,,-7.007129615081056,41.834641737039334
pt.ine.add.PTCONT.861653,R DE CIMA,,5320-328,,-7.007129615081056,41.834641737039334
pt.ine.add.PTCONT.861654,R DE CIMA,,5320-328,,-7.007129615081056,41.834641737039334
pt.ine.add.PTCONT.861655,R DE CIMA,,5320-328,,-7.007129615081056,41.834641737039334
pt.ine.add.PTCONT.862231,R DO VALE,,5335-011,AGROCHÃO,-7.030425469454571,41.69270651935293
pt.ine.add.PTCONT.862226,,,5320-152,SANTALHA,-7.111510784334477,41.87884166561364
pt.ine.add.PTCONT.862227,R DO VALE DO FALGAR,,5320-113,PENHAS JUNTAS,-7.01096585798072,41.745898742530116
pt.ine.add.PTCONT.862228,,,5320-152,SANTALHA,-7.113272218096429,41.87792100013947
pt.ine.add.PTCONT.862229,AV PADRE FIRMINO MARTINS,43,5320-301,VINHAIS,-7.009872667855561,41.834740621956605
pt.ine.add.PTCONT.862230,R DA IGREJA,1,5335-111,REBORDELO,-7.163811254894311,41.73961909450611
pt.ine.add.PTCONT.862232,R DO CALVÁRIO,,5335-051,CUROPOS,-7.095160626575107,41.80376183285338
pt.ine.add.PTCONT.862233,R DO FUNDO DO LUGAR,,5320-113,PENHAS JUNTAS,-7.01714547754792,41.73893638084309
pt.ine.add.PTCONT.862234,TV DOS CAIXEIROS,1,5335-115,REBORDELO,-7.163435948223846,41.73979599419034
pt.ine.add.PTCONT.862235,BR DA UCHA,,5320-303,VINHAIS,-7.013777285591395,41.83035820326217
pt.ine.add.PTCONT.862236,BR DA NOGUEIRA,,5335-053,CUROPOS,-7.116303327605332,41.79912521211136
pt.ine.add.PTCONT.862237,R DO FUNDO DA QUINTA,,5320-084,MONTOUTO,-7.013476577192985,41.92143933003865
pt.ine.add.PTCONT.862238,R DO POULO,,5320-163,SOBREIRO DE BAIXO,-7.053862446541985,41.83468524996255
pt.ine.add.PTCONT.862239,R DA IGREJA,,5320-262,VILAR SECO DE LOMBA,-7.16063443784526,41.89575285059641
pt.ine.add.PTCONT.862240,R PRINCIPAL,11,5335-032,CANDEDO VNH,-7.117250173224347,41.83895469965316
pt.ine.add.PTCONT.862241,,,5320-271,VINHAIS,-7.045762411181662,41.786901000950444
pt.ine.add.PTCONT.862242,R PRINCIPAL,,5335-053,CUROPOS,-7.110627594686961,41.79513141966286
pt.ine.add.PTCONT.862243,CRZT DAS PALAS,,5335-052,CUROPOS,-7.130662590183556,41.76867639204314
pt.ine.add.PTCONT.862244,R DA FONTAÍNHA,,5320-091,NUNES,-6.982404208047169,41.79286512381818
pt.ine.add.PTCONT.862245,R PRINCIPAL,,5320-231,VILAR DE LOMBA,-7.184289594759594,41.844380807023036
pt.ine.add.PTCONT.862246,R DO CARRIL,85,5335-033,CANDEDO VNH,-7.107161246538256,41.82085867874111
pt.ine.add.PTCONT.862247,R PRINCIPAL,,5335-033,CANDEDO VNH,-7.101008457464027,41.82175789278681
pt.ine.add.PTCONT.862248,R DA EIRA DA CANCELA,,5335-071,ERVEDOSA VNH,-7.080488708249325,41.710561489144574
pt.ine.add.PTCONT.862249,LG DO PADRÃO,,5320-170,SOEIRA,-6.9193782708086635,41.853896803505506
pt.ine.add.PTCONT.862250,R DE BAIXO,,5320-327,VINHAIS,-7.001090162791272,41.83510454938937
pt.ine.add.PTCONT.862251,R DO POMAR,33,5335-033,CANDEDO VNH,-7.104801076929188,41.819424072838004
pt.ine.add.PTCONT.862252,R DOS ENXERTOS,,5335-134,VALE DAS FONTES,-7.136889381410551,41.72064388056718
pt.ine.add.PTCONT.862253,R DO TEMPORÃO,,5320-232,VILAR DE LOMBA,-7.180405418341157,41.810766730348035
pt.ine.add.PTCONT.862254,R 25 DE ABRIL,61,5335-033,CANDEDO VNH,-7.105863469092934,41.81997377041482
pt.ine.add.PTCONT.862255,BR DE CIMA,,5320-100,OUSILHÃO,-6.956950458706092,41.789402184429406
pt.ine.add.PTCONT.862256,,,5320-154,SANTALHA,-7.086131860836159,41.919919112747884
pt.ine.add.PTCONT.862257,R PRINCIPAL,,5320-263,VILAR SECO DE LOMBA,-7.173029355703598,41.87996667904592
pt.ine.add.PTCONT.862258,R NOVA,,5320-335,VINHAIS,-7.004895717313149,41.83365647946396
pt.ine.add.PTCONT.862259,R DO CASTELO,,5320-102,PAÇÓ,-6.9525653684849305,41.87031323789057
pt.ine.add.PTCONT.862260,,,5320-154,SANTALHA,-7.084628041763137,41.916790342000695
pt.ine.add.PTCONT.862261,BR DA IGREJA,,5320-032,EDRAL,-7.160511316207007,41.83950925959191
pt.ine.add.PTCONT.862262,BR DA IGREJA,,5320-032,EDRAL,-7.159721281581566,41.83841318272647
pt.ine.add.PTCONT.862263,R DAS PASSAIS,11,5335-106,REBORDELO,-7.164049583513038,41.740557450693665
pt.ine.add.PTCONT.862264,R DA FONTAÍNHA,15,5335-109,REBORDELO,-7.165774188249961,41.73858224842393
pt.ine.add.PTCONT.862265,,,5320-153,SANTALHA,-7.104760213358667,41.90389999430437
pt.ine.add.PTCONT.862266,R DO CANTO,,5320-279,VINHAIS,-7.015051217662694,41.85191508508852
pt.ine.add.PTCONT.862267,,,5320-277,VINHAIS,-6.992573796350311,41.828610063739674
pt.ine.add.PTCONT.862268,,,5335-136,VALE DE JANEIRO,-7.095214769632448,41.775051027223796
pt.ine.add.PTCONT.862269,BR DO LOUSEDO,,5320-310,VINHAIS,-7.013079360187683,41.828271673870695
pt.ine.add.PTCONT.862341,LG DE STA LUZIA,,5335-072,ERVEDOSA VNH,-7.0164079783801165,41.72044545635348
pt.ine.add.PTCONT.862342,SIT DO VALE DA BOUÇA,,5320-163,SOBREIRO DE BAIXO,-7.054454278752594,41.831701764578725
pt.ine.add.PTCONT.862346,R PRINCIPAL,63,5335-033,CANDEDO VNH,-7.1061623076541665,41.82010248729309
pt.ine.add.PTCONT.862363,R DO POULO,,5320-163,SOBREIRO DE BAIXO,-7.053886128425639,41.83399223022201
pt.ine.add.PTCONT.862366,R DE BAIXO,31,5320-327,VINHAIS,-7.000867974526739,41.834733230942625
pt.ine.add.PTCONT.862368,R DO ESCAPE,,5320-163,SOBREIRO DE BAIXO,-7.058068900822275,41.84373684409679
pt.ine.add.PTCONT.862402,LG DA IGREJA,2,5320-022,CELAS,-6.943307356647746,41.70417206133425
pt.ine.add.PTCONT.862403,,,5320-042,EDROSA,-6.953666960258675,41.74472158403162
pt.ine.add.PTCONT.862404,R DE TRÁS DO HOSPITAL,,5320-329,VINHAIS,-7.012925892051356,41.830169839774165
pt.ine.add.PTCONT.862405,R DA CAPELA,,5320-242,VILAR DE OSSOS,-7.025249190321582,41.86036879526095
pt.ine.add.PTCONT.862986,,,5320-274,VINHAIS,-7.035003587630258,41.80548029262485
pt.ine.add.PTCONT.862924,R DIREITA,,5335-011,AGROCHÃO,-7.031837159333104,41.69374643916154
pt.ine.add.PTCONT.862974,R DO BARREIRO,,5320-041,EDROSA,-6.9645438212012385,41.76475689110784
pt.ine.add.PTCONT.862975,R DA FACEIRA,,5320-242,VILAR DE OSSOS,-7.02515029781744,41.859818652236754
pt.ine.add.PTCONT.862976,BR DO CAMPO,,5320-306,VINHAIS,-7.008749215403542,41.82670783436422
pt.ine.add.PTCONT.862977,BR DA TRAPA,171 A,5320-210,VILA BOA DE OUSILHÃO,-6.931165750741021,41.806376323651634
pt.ine.add.PTCONT.862978,R DA NOGUEIRA,,5320-081,MONTOUTO,-7.001636939986925,41.94268733596395
pt.ine.add.PTCONT.862979,R DO CENTRO DO POVO,,5320-082,MONTOUTO,-7.034103950203235,41.94241753488114
pt.ine.add.PTCONT.862980,,,5320-160,SÃO JOMIL,-7.183013825520349,41.78816319291954
pt.ine.add.PTCONT.862981,SIT DE CAMPELO,4,5320-210,VILA BOA DE OUSILHÃO,-6.9288745551052875,41.79507137400719
pt.ine.add.PTCONT.862982,R DAS EIRAS,,5320-252,VILAR DE PEREGRINOS,-7.019501042288359,41.77721404682194
pt.ine.add.PTCONT.862983,TV DO EIRÓ,,5335-011,AGROCHÃO,-7.0288301359558245,41.69187189466986
pt.ine.add.PTCONT.862984,R DAS EIRAS,,5320-163,SOBREIRO DE BAIXO,-7.056635665325665,41.845199932865306
pt.ine.add.PTCONT.862985,R DO OUTEIRO,,5335-071,ERVEDOSA VNH,-7.080965678682205,41.71225848583673
pt.ine.add.PTCONT.862987,R DO PARDAL,2,5335-122,REBORDELO,-7.162133723537774,41.73686791851533
pt.ine.add.PTCONT.862988,R DA IGREJA,,5320-262,VILAR SECO DE LOMBA,-7.160788505914533,41.89671748545124
pt.ine.add.PTCONT.862989,R DA IGREJA,,5320-262,VILAR SECO DE LOMBA,-7.1612857778853645,41.896505621066765
pt.ine.add.PTCONT.862990,R PRINCIPAL,,5335-032,CANDEDO VNH,-7.118955874405401,41.83843858745646
pt.ine.add.PTCONT.862991,AV DO BRASIL,44,5335-102,REBORDELO,-7.161875135030076,41.73249011322281
pt.ine.add.PTCONT.862992,BR DO CABOUÇO,,5320-170,SOEIRA,-6.910743562647343,41.85582190563148
pt.ine.add.PTCONT.862993,SIT DENTRO DA VILA,,5320-272,VINHAIS,-7.000004812942694,41.83521088713288
pt.ine.add.PTCONT.862994,R NOVA,,5320-170,SOEIRA,-6.921448903084801,41.854566890255086
pt.ine.add.PTCONT.862995,R DA AZINHEIRA,,5320-170,SOEIRA,-6.918763515416523,41.8545655347106
pt.ine.add.PTCONT.862996,R DO CABANCO,,5320-232,VILAR DE LOMBA,-7.184495855016267,41.81084560027816
pt.ine.add.PTCONT.862997,ESTR PRINCIPAL,,5320-232,VILAR DE LOMBA,-7.180879386614385,41.81451599975929
pt.ine.add.PTCONT.862998,R NOVA,,5320-170,SOEIRA,-6.920112521338123,41.85391356447894
pt.ine.add.PTCONT.862999,R PRINCIPAL,,5320-132,QUIRÁS,-7.145903937533064,41.91330917998739
pt.ine.add.PTCONT.863000,,,5320-154,SANTALHA,-7.086426717911947,41.91957968606583
pt.ine.add.PTCONT.863001,R DO JARDIM DE INFÂNCIA,,5335-134,VALE DAS FONTES,-7.134134033002956,41.720863048811374
pt.ine.add.PTCONT.863002,BR DE STO ANTÓNIO,,5320-032,EDRAL,-7.159205621146055,41.839867325200736
pt.ine.add.PTCONT.863003,R DO CIMO DO POVO,,5320-052,FRESULFE,-6.917352773518392,41.88961745510896
pt.ine.add.PTCONT.863004,,,5320-052,FRESULFE,-6.916247924294097,41.88942569136289
pt.ine.add.PTCONT.863005,R DE S MAMEDE,6,5320-180,TRAVANCA VNH,-6.997328599429177,41.891894872394964
pt.ine.add.PTCONT.863006,,,5320-197,TUIZELO,-7.038743250929393,41.893935605479335
pt.ine.add.PTCONT.863007,BR DO FUNDO DA VILA,,5320-243,VILAR DE OSSOS,-7.036975846725713,41.87256347323558
pt.ine.add.PTCONT.863008,,,5320-198,TUIZELO,-7.055254388735926,41.89590139453313
pt.ine.add.PTCONT.863009,BR DO CAMPO,,5320-306,VINHAIS,-7.007370812001488,41.82774769974315
pt.ine.add.PTCONT.863082,R DO SOUTO,,5320-336,VINHAIS,-7.004707462730882,41.8354642590304
pt.ine.add.PTCONT.863084,R DE ALENDE,,5320-134,QUIRÁS,-7.165018810560731,41.95089753889723
pt.ine.add.PTCONT.863108,R DO FUNDO DO POVO,,5335-051,CUROPOS,-7.093060983181544,41.801897183417964
pt.ine.add.PTCONT.863221,R ARMANDO ALMENDRA,4,5320-320,VINHAIS,-7.012687586316201,41.82933922644208
pt.ine.add.PTCONT.863222,R ARMANDO ALMENDRA,4,5320-320,VINHAIS,-7.012687586316201,41.82933922644208
pt.ine.add.PTCONT.863223,BR DA PORTELA DA VILA,,5320-302,VINHAIS,-7.01110665367893,41.83921823518728
pt.ine.add.PTCONT.863242,R DA UCHA,,5320-315,VINHAIS,-7.011517593236997,41.831542578784244
pt.ine.add.PTCONT.863264,,,5320-273,VINHAIS,-7.005611989217213,41.80244057302944
pt.ine.add.PTCONT.863436,R DIREITA,126,5335-011,AGROCHÃO,-7.028561452126042,41.69213040965172
pt.ine.add.PTCONT.863470,R PRINCIPAL,,5335-033,CANDEDO VNH,-7.106425188800793,41.8202218788032
pt.ine.add.PTCONT.863471,LG DA IGREJA,5,5320-022,CELAS,-6.942685399364934,41.70402156668657
pt.ine.add.PTCONT.863506,R DO CALVÁRIO,,5320-032,EDRAL,-7.158749620704603,41.84294254127991
pt.ine.add.PTCONT.863507,R DO POULO,,5320-041,EDROSA,-6.965824867044995,41.76573325944908
pt.ine.add.PTCONT.863508,R DA BARREIRA,,5320-042,EDROSA,-6.954207507013266,41.744087901466074
pt.ine.add.PTCONT.863509,BR DAS CHABOLAS,,5335-074,ERVEDOSA VNH,-7.099318739097487,41.725434892618544
pt.ine.add.PTCONT.863510,BR DAS CHABOLAS,,5335-074,ERVEDOSA VNH,-7.098038041057779,41.72510824625226
pt.ine.add.PTCONT.863511,BC DO NEGRILHO,,5335-071,ERVEDOSA VNH,-7.08095178099797,41.71163712803129
pt.ine.add.PTCONT.863512,R DO EMIGRANTE,,5335-071,ERVEDOSA VNH,-7.07455667294426,41.710344934482364
pt.ine.add.PTCONT.863549,R 25 DE ABRIL,,5335-071,ERVEDOSA VNH,-7.0789040947329775,41.710474935366086
pt.ine.add.PTCONT.863550,R DAS MOREIRAS,,5335-071,ERVEDOSA VNH,-7.074668678607048,41.70864433444761
pt.ine.add.PTCONT.863551,BR DE BAIXO,,5320-051,FRESULFE,-6.927328495636392,41.9107896710991
pt.ine.add.PTCONT.863552,R DO BOQUEIRO,1,5320-070,MOIMENTA VNH,-6.975806348273232,41.95138778646879
pt.ine.add.PTCONT.863553,R DO CABECINHO,,5320-070,MOIMENTA VNH,-6.976775709262678,41.95047025132613
pt.ine.add.PTCONT.863554,R DO EIRÓ,,5320-085,MONTOUTO,-6.989662827154018,41.92782183015538
pt.ine.add.PTCONT.863577,SIT DA TORRE,,5320-100,OUSILHÃO,-6.959441190190983,41.79201157297615
pt.ine.add.PTCONT.863578,R DO CANELO,,5320-111,PENHAS JUNTAS,-7.063115400890369,41.76336742317421
pt.ine.add.PTCONT.863579,R DO FONTÃO,,5320-131,QUIRÁS,-7.176924591138132,41.97173120430828
pt.ine.add.PTCONT.863620,R PROF CLARO,4,5335-126,REBORDELO,-7.162345986670982,41.73953469706205
pt.ine.add.PTCONT.863621,R DO CEMITÉRIO,,5320-140,SANTA CRUZ VNH,-6.951157988256266,41.89962164385706
pt.ine.add.PTCONT.863622,EM 505 1,,5320-140,SANTA CRUZ VNH,-6.950889893453885,41.89717006397386
pt.ine.add.PTCONT.863623,,,5320-154,SANTALHA,-7.083952560711999,41.919025925959296
pt.ine.add.PTCONT.863624,,,5320-153,SANTALHA,-7.104438512633297,41.90216852554021
pt.ine.add.PTCONT.863662,R DO CIMO,,5320-163,SOBREIRO DE BAIXO,-7.084906290372852,41.85039515519889
pt.ine.add.PTCONT.863663,R PRINCIPAL,,5320-163,SOBREIRO DE BAIXO,-7.036145185503235,41.827431920114215
pt.ine.add.PTCONT.863708,AV DO SENHOR DOS AFLITOS,,5335-134,VALE DAS FONTES,-7.110371880335539,41.73096281474316
pt.ine.add.PTCONT.863709,BR ASSEARAS,,5335-134,VALE DAS FONTES,-7.092825197200085,41.72939176643527
pt.ine.add.PTCONT.863710,BR DO CAMPO,,5320-210,VILA BOA DE OUSILHÃO,-6.932588316366886,41.80558992109206
pt.ine.add.PTCONT.863711,BR DO CASAL,158,5320-210,VILA BOA DE OUSILHÃO,-6.926750954854881,41.80373713462011
pt.ine.add.PTCONT.863712,BR DO CASAL,148,5320-210,VILA BOA DE OUSILHÃO,-6.926219424677264,41.80384859178341
pt.ine.add.PTCONT.863713,BR DO CARRIL,19,5320-210,VILA BOA DE OUSILHÃO,-6.925971316995335,41.80296367605707
pt.ine.add.PTCONT.863714,BR DO CERDEIRO,12,5320-210,VILA BOA DE OUSILHÃO,-6.92624121772477,41.80268741464521
pt.ine.add.PTCONT.863715,R DO VALE,,5320-222,VILA VERDE VNH,-6.952220416930558,41.843894663803084
pt.ine.add.PTCONT.863754,R DO COUÇO,,5320-222,VILA VERDE VNH,-6.958654434998847,41.84298830650735
pt.ine.add.PTCONT.863755,R DO COUÇO,,5320-222,VILA VERDE VNH,-6.958575438830454,41.84269939941434
pt.ine.add.PTCONT.863756,R DA CALÇADA,,5320-242,VILAR DE OSSOS,-7.026785486755459,41.8592762245368
pt.ine.add.PTCONT.863757,LG DO TERREIRO,,5320-242,VILAR DE OSSOS,-7.02523303261662,41.85990948140276
pt.ine.add.PTCONT.863814,R DO POULO,,5320-279,VINHAIS,-7.016003073321641,41.85395904981327
pt.ine.add.PTCONT.863815,SIT DENTRO DA VILA,19,5320-272,VINHAIS,-7.000577354221359,41.834829399914454
pt.ine.add.PTCONT.863847,BR DO CAMPO,,5320-306,VINHAIS,-7.007345795361951,41.827801473381896
pt.ine.add.PTCONT.863872,BR DO CANTO,118,5320-210,VILA BOA DE OUSILHÃO,-6.926106319875792,41.80538694128804
pt.ine.add.PTCONT.863880,R DA URZE,,5320-070,MOIMENTA VNH,-6.974701726122882,41.949116906400285
pt.ine.add.PTCONT.863882,R DE S JOSÉ,3,5320-321,VINHAIS,-7.009583737331888,41.832676078534746
pt.ine.add.PTCONT.863886,R DA CASTANHEIRA,,5320-113,PENHAS JUNTAS,-7.010168115748502,41.74476553977849
pt.ine.add.PTCONT.863899,R DA CRUZ,114,5335-033,CANDEDO VNH,-7.1075461198731595,41.81936758710299
pt.ine.add.PTCONT.863907,BR DE BAIXO,,5320-100,OUSILHÃO,-6.955152047949783,41.791697572865466
pt.ine.add.PTCONT.863908,EN 316,,5320-279,VINHAIS,-7.013824086122669,41.84977839827074
pt.ine.add.PTCONT.863910,R DOS CABEÇOS,,5320-312,VINHAIS,-7.003442064369521,41.821848078136426
pt.ine.add.PTCONT.863957,R DO BECO,,5335-032,CANDEDO VNH,-7.118714222204246,41.83925574097803
pt.ine.add.PTCONT.863986,R DO TOURAL,39,5320-311,VINHAIS,-7.00775436020409,41.82990320871839
pt.ine.add.PTCONT.864363,R DA FONTE,,5320-010,ALVAREDOS,-7.065615413546097,41.80259973962784
pt.ine.add.PTCONT.864378,R DA FIGUEIRA,17,5335-031,CANDEDO VNH,-7.09280462906516,41.840788594777166
pt.ine.add.PTCONT.864379,R PRINCIPAL,57,5335-033,CANDEDO VNH,-7.106238683375188,41.81984207776626
pt.ine.add.PTCONT.864380,LG DO POÇO,15,5320-024,CELAS,-6.90116890926735,41.723310126538316
pt.ine.add.PTCONT.864381,R PRINCIPAL,18,5320-024,CELAS,-6.900269146957758,41.7232284495023
pt.ine.add.PTCONT.864382,R DA FONTAÍNHA,4,5320-023,CELAS,-6.958668724261458,41.72158941379455
pt.ine.add.PTCONT.864383,R NOVA,15,5320-021,CELAS,-6.9214718631268735,41.71408159112605
pt.ine.add.PTCONT.864396,R PRINCIPAL,6,5320-022,CELAS,-6.941877666557541,41.70482349299732
pt.ine.add.PTCONT.864397,R PRINCIPAL,6,5320-022,CELAS,-6.941877666557541,41.70482349299732
pt.ine.add.PTCONT.864398,BR DE ALÉM,,5320-022,CELAS,-6.940646581814663,41.70122740851271
pt.ine.add.PTCONT.864399,R PRINCIPAL,,5320-033,EDRAL,-7.139559037956917,41.860748411560266
pt.ine.add.PTCONT.864414,R DO OUTEIRO,,5320-091,NUNES,-6.981682224465155,41.79421736962703
pt.ine.add.PTCONT.864431,R DA CAPELA,,5320-113,PENHAS JUNTAS,-7.015036422214484,41.742022005937166
pt.ine.add.PTCONT.864432,R PRINCIPAL,,5320-112,PENHAS JUNTAS,-6.982546507152306,41.73105936702098
pt.ine.add.PTCONT.864433,R PRINCIPAL,,5320-112,PENHAS JUNTAS,-6.983174626902459,41.73021034384645
pt.ine.add.PTCONT.864434,R PRINCIPAL,,5320-122,PINHEIRO NOVO,-7.115864302345272,41.95824209401388
pt.ine.add.PTCONT.864451,AV DOS CORREIOS,4,5335-103,REBORDELO,-7.162523474625497,41.73892397036982
pt.ine.add.PTCONT.864452,R DO CANO,1,5335-116,REBORDELO,-7.162033097961011,41.73716417796362
pt.ine.add.PTCONT.864453,R DO POÇO,5,5335-121,,-7.164999871344856,41.73651396426041
pt.ine.add.PTCONT.864454,AV DO BRASIL,24,5335-102,REBORDELO,-7.160598580979897,41.736638855098505
pt.ine.add.PTCONT.864455,,,5320-151,SANTALHA,-7.109140362856943,41.924673146016104
pt.ine.add.PTCONT.864456,,,5320-153,SANTALHA,-7.1045636019168885,41.903385059026306
pt.ine.add.PTCONT.864477,BR DE ALÉM,,5320-163,SOBREIRO DE BAIXO,-7.04990371519883,41.83385570511581
pt.ine.add.PTCONT.864478,,,5320-195,TUIZELO,-7.041368013914907,41.91952020041607
pt.ine.add.PTCONT.864479,,,5320-193,TUIZELO,-7.0759331612587655,41.89292456424025
pt.ine.add.PTCONT.864480,,,5320-193,TUIZELO,-7.074072608652405,41.89030553354949
pt.ine.add.PTCONT.864481,AV DO SENHOR DOS AFLITOS,17,5335-134,VALE DAS FONTES,-7.108185415410758,41.730898315063
pt.ine.add.PTCONT.864482,R PRINCIPAL,,5335-134,VALE DAS FONTES,-7.107100086380935,41.73263527254307
pt.ine.add.PTCONT.864497,TV JOSÉ ALBERTO GARCIA,,5335-134,VALE DAS FONTES,-7.135255429641109,41.72139498683367
pt.ine.add.PTCONT.864498,R PRINCIPAL,,5320-221,VILA VERDE VNH,-6.964455129251248,41.85371614707698
pt.ine.add.PTCONT.864499,R DO JOGO DOS PAUS,,5320-222,VILA VERDE VNH,-6.958322333139293,41.843372043113426
pt.ine.add.PTCONT.864518,BR DA VÁRZEA,,5320-243,VILAR DE OSSOS,-7.03465253804103,41.87388273207855
pt.ine.add.PTCONT.864519,R DA MINA,,5320-242,VILAR DE OSSOS,-7.0269627508455255,41.85877375849372
pt.ine.add.PTCONT.864520,LG DA CRUZ,,5320-242,VILAR DE OSSOS,-7.0261471508053255,41.8592790763836
pt.ine.add.PTCONT.864521,R DO SOUTINHO,,5320-252,VILAR DE PEREGRINOS,-7.017144463874787,41.77716416819397
pt.ine.add.PTCONT.864522,R DO VALE,,5320-252,VILAR DE PEREGRINOS,-7.015860543782963,41.774216637809836
pt.ine.add.PTCONT.864523,BR DA LAGOA,,5320-252,VILAR DE PEREGRINOS,-7.017928269365667,41.77496599034626
pt.ine.add.PTCONT.864524,R PRINCIPAL,,5320-263,VILAR SECO DE LOMBA,-7.173035606752978,41.88035386519891
pt.ine.add.PTCONT.864539,R DAS EIRAS,,5320-263,VILAR SECO DE LOMBA,-7.173384065996876,41.8796095194887
pt.ine.add.PTCONT.864540,R DA POÇA,,5320-279,VINHAIS,-7.0145467293564225,41.85322462591985
pt.ine.add.PTCONT.864541,BR DO CALVÁRIO,14,5320-305,VINHAIS,-6.998855195974731,41.83963807893337
pt.ine.add.PTCONT.864542,LG DO ARRABALDE,,5320-318,VINHAIS,-7.00069594896642,41.83561384136174
pt.ine.add.PTCONT.864555,BR DA UCHA,,5320-303,VINHAIS,-7.013631916393782,41.830410805255966
pt.ine.add.PTCONT.864556,R DA PORTELA DOS FRADES,2,5320-325,VINHAIS,-7.014523529870997,41.829672231871804
pt.ine.add.PTCONT.864557,R DA PORTELA DOS FRADES,2,5320-325,VINHAIS,-7.014523529870997,41.829672231871804
pt.ine.add.PTCONT.864558,R DA PORTELA DOS FRADES,2,5320-325,VINHAIS,-7.014523529870997,41.829672231871804
pt.ine.add.PTCONT.864559,R DA PORTELA DOS FRADES,2,5320-325,VINHAIS,-7.014523529870997,41.829672231871804
