id,street,house,postcode,city,lon,lat
pt.ine.add.PTCONT.460752,R COMEND JOÃO PEREIRA MAGALHÃES,318,4815-400,VIZELA,-8.313325496262198,41.3721613715731
pt.ine.add.PTCONT.460753,R BOAVISTA,118,4815-405,VIZELA,-8.316938239965982,41.36470030219676
pt.ine.add.PTCONT.460754,TV PADIM,4800,4815-535,VIZELA,-8.30252514218077,41.37879574908624
pt.ine.add.PTCONT.460755,TV PADIM,3120,4815-535,VIZELA,-8.302912480280105,41.380641005390146
pt.ine.add.PTCONT.460756,R CMDT EDUARDO PEREIRA,14,4815-657,VIZELA,-8.303906161970287,41.376623734431455
pt.ine.add.PTCONT.460757,BC PONTE NOVA,32,4815-725,SANTO ADRIÃO VIZELA,-8.281971758409444,41.371846039124044
pt.ine.add.PTCONT.460758,R ALFAXIM,630,4815-665,SANTO ADRIÃO VIZELA,-8.292216499327143,41.36243209691366
pt.ine.add.PTCONT.460759,R ALFAXIM,,4815-665,SANTO ADRIÃO VIZELA,-8.287709582162112,41.36189799582368
pt.ine.add.PTCONT.460898,R FRANCISCO COSTA,325,4815-432,VIZELA,-8.310953678797679,41.3746771898733
pt.ine.add.PTCONT.460899,R 1 DE MAIO,31 A,4815-564,VIZELA,-8.315665577503685,41.37118524608548
pt.ine.add.PTCONT.460900,R 1 DE MAIO,8,4815-564,VIZELA,-8.31563996033024,41.37057301144289
pt.ine.add.PTCONT.460901,R S JOSE,340,4815-442,VIZELA,-8.308714075275516,41.36863891341836
pt.ine.add.PTCONT.460902,R SOUTO,394,4815-424,VIZELA,-8.310936759327639,41.36846442330449
pt.ine.add.PTCONT.460903,R SAUDADE,1067,4815-413,VIZELA,-8.305220053000005,41.36715852317572
pt.ine.add.PTCONT.460904,R VEIGAS,263,4815-491,VIZELA,-8.312049254505212,41.386245674441106
pt.ine.add.PTCONT.460905,TV LAGE,348,4815-524,VIZELA,-8.320247210684446,41.38080320543295
pt.ine.add.PTCONT.460906,R BELOS ARES,355,4815-092,ÍNFIAS VIZ,-8.321784414852265,41.391497475647284
pt.ine.add.PTCONT.460907,R AGRA,103,4815-574,SÃO PAIO VIZELA,-8.261994486865754,41.388131437615996
pt.ine.add.PTCONT.460908,CC S DOMINGOS,51,4815-743,SÃO PAIO VIZELA,-8.265580289773306,41.38174350895854
pt.ine.add.PTCONT.460909,CC S DOMINGOS,69,4815-743,SÃO PAIO VIZELA,-8.265365066110224,41.38172574845074
pt.ine.add.PTCONT.461017,PC MUNICIPIO,591,4815-013,VIZELA,-8.310257997344305,41.378207846505084
pt.ine.add.PTCONT.461018,PC MUNICIPIO,591,4815-013,VIZELA,-8.310257997344305,41.378207846505084
pt.ine.add.PTCONT.461019,PC MUNICIPIO,591,4815-013,VIZELA,-8.310257997344305,41.378207846505084
pt.ine.add.PTCONT.461020,PC MUNICIPIO,591,4815-013,VIZELA,-8.310257997344305,41.378207846505084
pt.ine.add.PTCONT.461021,PC MUNICIPIO,591,4815-013,VIZELA,-8.310257997344305,41.378207846505084
pt.ine.add.PTCONT.461022,PC MUNICIPIO,591,4815-013,VIZELA,-8.310257997344305,41.378207846505084
pt.ine.add.PTCONT.461023,PC MUNICIPIO,591 BL 3,4815-013,VIZELA,-8.310257997344305,41.378207846505084
pt.ine.add.PTCONT.461024,PC MUNICIPIO,591,4815-013,VIZELA,-8.310257997344305,41.378207846505084
pt.ine.add.PTCONT.461025,PC MUNICIPIO,591,4815-013,VIZELA,-8.310257997344305,41.378207846505084
pt.ine.add.PTCONT.461026,R DR PEREIRA DE FREITAS,352,4815-509,VIZELA,-8.312552876133264,41.37808723838467
pt.ine.add.PTCONT.461027,LAD ROJAL,76,4815-269,TAGILDE,-8.267891944233497,41.37806717763023
pt.ine.add.PTCONT.461028,LAD ROJAL,76,4815-269,TAGILDE,-8.267891944233497,41.37806717763023
pt.ine.add.PTCONT.461029,CC QUINTAES,118,4815-595,TAGILDE,-8.27578988947249,41.37633788438003
pt.ine.add.PTCONT.461030,VLA CANEIROS,,4815-427,TAGILDE,-8.277038890416085,41.373545075343586
pt.ine.add.PTCONT.461031,RUELA DO BACELO,131,4815-599,TAGILDE,-8.286932283173837,41.371848519483265
pt.ine.add.PTCONT.461032,R LAGOAS,,4815-687,SANTO ADRIÃO VIZELA,-8.288437335607814,41.37141430354301
pt.ine.add.PTCONT.461292,TV AGOSTINHO DE LIMA,21,4815-448,VIZELA,-8.312220060649684,41.374423112605335
pt.ine.add.PTCONT.461306,TV CARVALHINHOS,5,4815-546,VIZELA,-8.31467464469173,41.38019985853942
pt.ine.add.PTCONT.461408,R NOVA DOS CASAIS,1127,4815-436,VIZELA,-8.316750251155987,41.37010303447945
pt.ine.add.PTCONT.461434,R LAGE,262,4815-483,VIZELA,-8.317413732112552,41.38072674215105
pt.ine.add.PTCONT.461522,R BOUCO,167,4815-673,SANTO ADRIÃO VIZELA,-8.283309937690946,41.371601191000764
pt.ine.add.PTCONT.461678,R BOUCO,167,4815-673,SANTO ADRIÃO VIZELA,-8.283309937690946,41.371601191000764
pt.ine.add.PTCONT.461743,CC MONTE,78,4620-592,SANTA EULÁLIA VIZ,-8.284618223160944,41.35332122763222
pt.ine.add.PTCONT.461744,TV MONTE,333,4620-592,SANTA EULÁLIA VIZ,-8.286448038061032,41.35396709775094
pt.ine.add.PTCONT.461745,R SÁ,1016,4620-569,SANTA EULÁLIA VIZ,-8.296134725514964,41.36170628806981
pt.ine.add.PTCONT.461746,CC POUSADA,118,4620-596,SANTA EULÁLIA VIZ,-8.288929537860058,41.35727726387431
pt.ine.add.PTCONT.461747,TV IMPEDIDOS,11,4620-557,SANTA EULÁLIA VIZ,-8.312049086727765,41.35564991850829
pt.ine.add.PTCONT.461748,R NOVA DE PENABESTEIRA,360,4620-557,SANTA EULÁLIA VIZ,-8.310308101530376,41.3526182390534
pt.ine.add.PTCONT.461749,R NOVA DE PENABESTEIRA,360,4620-557,SANTA EULÁLIA VIZ,-8.310308101530376,41.3526182390534
pt.ine.add.PTCONT.461750,R CARREIRA CHÃ,179,4620-537,SANTA EULÁLIA VIZ,-8.307931140894965,41.352991041408785
pt.ine.add.PTCONT.461752,R VINHA,190,4620-581,SANTA EULÁLIA VIZ,-8.293501725686207,41.35531709885365
pt.ine.add.PTCONT.464155,R CARREIRA CHA,1269,4620-537,SANTA EULÁLIA VIZ,-8.307782164932837,41.35984336592854
pt.ine.add.PTCONT.464157,R BARROCAS,104,4815-415,VIZELA,-8.315472688305805,41.37487721029646
pt.ine.add.PTCONT.464158,TV AGOSTINHO DE LIMA,169,4815-448,VIZELA,-8.31226634281523,41.37386478987668
pt.ine.add.PTCONT.464159,R VENDA NOVA,100,4815-447,VIZELA,-8.312498459332936,41.371334291433826
pt.ine.add.PTCONT.464162,LG PRESEPIO,154,4815-568,VIZELA,-8.314793192501169,41.37124965502278
pt.ine.add.PTCONT.464165,R S ROMÃO,37,4815-455,VIZELA,-8.316203330919851,41.371139371524116
pt.ine.add.PTCONT.464170,R AMARO DE SOUSA,338,4815-565,VIZELA,-8.319869900877634,41.370098013950674
pt.ine.add.PTCONT.464171,R PENAS DE GALO,213,4815-515,VIZELA,-8.310651693547547,41.38670704442834
pt.ine.add.PTCONT.464172,R FUNDOGOS,2464,4815-494,VIZELA,-8.30373643259609,41.384862676841564
pt.ine.add.PTCONT.464174,R FUNDOGOS,2464,4815-494,VIZELA,-8.30373643259609,41.384862676841564
pt.ine.add.PTCONT.464175,R FORMIGOSA,31,4815-409,VIZELA,-8.314804497284563,41.36672059940878
pt.ine.add.PTCONT.464181,R PESO,236,4620-559,SANTA EULÁLIA VIZ,-8.294453979764318,41.35863827010248
pt.ine.add.PTCONT.464182,CC PESO,236,4620-559,SANTA EULÁLIA VIZ,-8.294453979764318,41.35863827010248
pt.ine.add.PTCONT.464183,R PESO,236,4620-559,SANTA EULÁLIA VIZ,-8.294453979764318,41.35863827010248
pt.ine.add.PTCONT.464184,R PESO,236,4620-559,SANTA EULÁLIA VIZ,-8.294453979764318,41.35863827010248
pt.ine.add.PTCONT.464185,R AIDRINHO,625,4815-497,VIZELA,-8.308813232138867,41.383279332187044
pt.ine.add.PTCONT.464186,R AIDRINHO,625,4815-497,VIZELA,-8.308813232138867,41.383279332187044
pt.ine.add.PTCONT.464187,R LAGE,1751,4815-483,VIZELA,-8.319308007784048,41.382632547247894
pt.ine.add.PTCONT.464188,TV LAGE,10,4815-524,VIZELA,-8.318660954642457,41.38211135867621
pt.ine.add.PTCONT.464189,R LAGOAS,108,4815-687,SANTO ADRIÃO VIZELA,-8.288653367862079,41.37178317774664
pt.ine.add.PTCONT.464190,R FURNA,79,4815-670,SANTO ADRIÃO VIZELA,-8.28122097803937,41.362302708316406
pt.ine.add.PTCONT.464191,R TEIXUGUEIRAS,297,4815-490,VIZELA,-8.314772485920189,41.380992059029005
pt.ine.add.PTCONT.464192,R MIGUEL BASTOS MIRANDA,60,4815-669,SANTO ADRIÃO VIZELA,-8.279409176446515,41.3591085823048
pt.ine.add.PTCONT.464193,TV ESTANCA RIO,T96,4815-541,VIZELA,-8.316790368720223,41.38011546459238
pt.ine.add.PTCONT.464194,TV ESTANCA RIO,T96,4815-541,VIZELA,-8.316790368720223,41.38011546459238
pt.ine.add.PTCONT.464195,R DR PEREIRA DE FREITAS,16,4815-509,VIZELA,-8.31350115977137,41.37949938941121
pt.ine.add.PTCONT.464196,R PARAISO,325 A,4815-088,ÍNFIAS VIZ,-8.314389407515787,41.393715346848694
pt.ine.add.PTCONT.464197,R PARAISO,325,4815-088,ÍNFIAS VIZ,-8.314389407515787,41.393715346848694
pt.ine.add.PTCONT.464198,R PARAISO,303 B,4815-088,ÍNFIAS VIZ,-8.314389407515787,41.393715346848694
pt.ine.add.PTCONT.464199,R TRANCOSA,59,4815-629,TAGILDE,-8.277504732027907,41.373391422979175
pt.ine.add.PTCONT.464200,R TRANCOSA,41,4815-629,TAGILDE,-8.277504732027907,41.373391422979175
pt.ine.add.PTCONT.464201,R OUTEIRO,174,4815-666,SANTO ADRIÃO VIZELA,-8.290338000472108,41.36154327637068
pt.ine.add.PTCONT.464202,BC TOJAL,50,4815-634,SÃO PAIO VIZELA,-8.255857900839661,41.392820238020086
pt.ine.add.PTCONT.464203,R LAGE,499,4815-483,VIZELA,-8.318262765979762,41.380815419523636
pt.ine.add.PTCONT.464204,R PORTELAS,530,4815-623,TAGILDE,-8.274820032251197,41.38111122305091
pt.ine.add.PTCONT.464205,PCT DR ARMENIO CALDAS,,4815-653,VIZELA,-8.303833026001675,41.37608360053592
pt.ine.add.PTCONT.464206,PCT DR ARMENIO CALDAS,,4815-653,VIZELA,-8.303833026001675,41.37608360053592
pt.ine.add.PTCONT.464207,PCT DR ARMENIO CALDAS,,4815-653,VIZELA,-8.303833026001675,41.37608360053592
pt.ine.add.PTCONT.464208,PCT DR ARMENIO CALDAS,,4815-653,VIZELA,-8.303833026001675,41.37608360053592
pt.ine.add.PTCONT.464209,PCT DR ARMENIO CALDAS,,4815-653,VIZELA,-8.303833026001675,41.37608360053592
pt.ine.add.PTCONT.464210,TV 24 DE JUNHO,84,4815-561,ÍNFIAS VIZ,-8.305428112352853,41.39164918829212
pt.ine.add.PTCONT.464211,VLA PEDREIRA,362/339,4815-617,TAGILDE,-8.28912456135262,41.36888323559772
pt.ine.add.PTCONT.464212,VLA PEDREIRA,339,4815-617,TAGILDE,-8.28912456135262,41.36888323559772
pt.ine.add.PTCONT.464213,VLA PEDREIRA,339,4815-617,TAGILDE,-8.28912456135262,41.36888323559772
pt.ine.add.PTCONT.464214,R PEDREIRA,339,4815-617,TAGILDE,-8.28912456135262,41.36888323559772
pt.ine.add.PTCONT.464215,VLA PEDREIRA,339,4815-617,TAGILDE,-8.28912456135262,41.36888323559772
pt.ine.add.PTCONT.464216,VLA PEDREIRA,312,4815-617,TAGILDE,-8.28912456135262,41.36888323559772
pt.ine.add.PTCONT.464217,VLA PEDREIRA,362/339,4815-617,TAGILDE,-8.28912456135262,41.36888323559772
pt.ine.add.PTCONT.464218,R PEDREIRAS,312,4815-601,TAGILDE,-8.28912456135262,41.36888323559772
pt.ine.add.PTCONT.464219,VLA PEDREIRA,213,4815-617,TAGILDE,-8.28912456135262,41.36888323559772
pt.ine.add.PTCONT.464220,R NOVA,209,4815-755,TAGILDE,-8.257546705156194,41.394331098747024
pt.ine.add.PTCONT.464221,R 26 DE JUNHO,,4815-587,SÃO PAIO VIZELA,-8.259147798262294,41.393726087140436
pt.ine.add.PTCONT.464222,R 26 DE JUNHO,,4815-587,SÃO PAIO VIZELA,-8.259147798262294,41.393726087140436
pt.ine.add.PTCONT.464223,R 26 JUNHO,2610,4815-587,SÃO PAIO VIZELA,-8.259147798262294,41.393726087140436
pt.ine.add.PTCONT.464224,R MONSENHOR JOSE DE SOUSA MONTEIRO,491,4815-484,VIZELA,-8.309704237599753,41.38119803716724
pt.ine.add.PTCONT.464225,R DR ABILIO TORRES,584,4815-552,VIZELA,-8.31081776008391,41.37744164024284
pt.ine.add.PTCONT.464226,R DR ABILIO TORRES,584,4815-552,VIZELA,-8.31081776008391,41.37744164024284
pt.ine.add.PTCONT.464227,R PE DO MONTE,199,4815-089,ÍNFIAS VIZ,-8.308813803563465,41.392373393582915
pt.ine.add.PTCONT.464228,R 26 DE JUNHO,,4815-587,SÃO PAIO VIZELA,-8.259147798262294,41.393726087140436
pt.ine.add.PTCONT.464229,R 26 DE JUNHO,,4815-587,SÃO PAIO VIZELA,-8.259147798262294,41.393726087140436
pt.ine.add.PTCONT.464230,R ANTONIO PEREIRA DA SILVA,683,4815-476,VIZELA,-8.307930839931547,41.37967005925956
pt.ine.add.PTCONT.464231,R ANTONIO PEREIRA SILVA,685,4815-476,VIZELA,-8.307930839931547,41.37967005925956
pt.ine.add.PTCONT.464232,PC REPUBLICA,108,4815-475,VIZELA,-8.308652192161626,41.37674264905018
pt.ine.add.PTCONT.464233,R VILA CORNEIRA,72,4815-632,TAGILDE,-8.267945076456467,41.37485267235352
pt.ine.add.PTCONT.464234,R BOUCA,141,4815-576,SÃO PAIO VIZELA,-8.256214585690937,41.3917483788566
pt.ine.add.PTCONT.464328,R FURNA,112,4815-670,SANTO ADRIÃO VIZELA,-8.280970571908103,41.362555144091715
pt.ine.add.PTCONT.464376,R SOUTO,159,4815-596,TAGILDE,-8.281277358705614,41.376619079100585
pt.ine.add.PTCONT.464411,R INDEPENDÊNCIA,245,4815-601,TAGILDE,-8.288384043007378,41.36910933845992
pt.ine.add.PTCONT.464412,PCT DR ARMENIO CALDAS,,4815-653,VIZELA,-8.303833026001675,41.37608360053592
pt.ine.add.PTCONT.464501,TV SUB-QUINTÃO,487,4815-662,VIZELA,-8.309462237606843,41.384547907367214
pt.ine.add.PTCONT.464502,R CHÃO,,4815-609,TAGILDE,-8.268976325750467,41.3764091589237
pt.ine.add.PTCONT.464644,TV LAGINHA,250,4815-525,VIZELA,-8.316916505527548,41.38245631145207
pt.ine.add.PTCONT.464647,TV LAGINHA,250,4815-525,VIZELA,-8.316916505527548,41.38245631145207
pt.ine.add.PTCONT.464681,R 26 DE JUNHO,,4815-587,SÃO PAIO VIZELA,-8.259147798262294,41.393726087140436
pt.ine.add.PTCONT.464776,R SENHORA DE FÁTIMA,41,4620-557,SANTA EULÁLIA VIZ,-8.308196974596502,41.3540891345499
pt.ine.add.PTCONT.464782,AZ PORTELAS,380,4620-562,SANTA EULÁLIA VIZ,-8.306775442011872,41.36326643358702
pt.ine.add.PTCONT.466877,R SOUTO,287,4815-424,VIZELA,-8.31071059445384,41.368806926538916
pt.ine.add.PTCONT.466878,R FUNDOGOS,2269,4815-494,VIZELA,-8.303473813471117,41.385016134405454
pt.ine.add.PTCONT.466879,R BACELO,17,4815-499,VIZELA,-8.310362969545478,41.38164722598073
pt.ine.add.PTCONT.466880,R AIDRINHO,,4815-497,VIZELA,-8.308739200015507,41.38242406236562
pt.ine.add.PTCONT.466882,TV PADIM,4078,4815-535,VIZELA,-8.302393458285605,41.37872391058458
pt.ine.add.PTCONT.466883,R CHARCA,212,4815-406,VIZELA,-8.317816544545947,41.36676082472587
pt.ine.add.PTCONT.466885,R CRUZ DE VILAR,332,4815-404,VIZELA,-8.317344950606184,41.373298520553824
pt.ine.add.PTCONT.466886,R RIO DE VIZELA,1120,4815-423,VIZELA,-8.311846249426095,41.37323516002712
pt.ine.add.PTCONT.466893,TV PADIM,210,4815-535,VIZELA,-8.302046551455847,41.37863438001782
pt.ine.add.PTCONT.466899,R AMARO SOUSA,318,4815-565,VIZELA,-8.319594372156143,41.3698823635865
pt.ine.add.PTCONT.466900,R AMARO SOUSA,308,4815-565,VIZELA,-8.319594372156143,41.3698823635865
pt.ine.add.PTCONT.466901,R ELISA TORRES SOARES,27,4815-430,VIZELA,-8.307124355370554,41.36862332013359
pt.ine.add.PTCONT.466907,CC PULO,137,4620-563,SANTA EULÁLIA VIZ,-8.297522551123116,41.35279928783291
pt.ine.add.PTCONT.466908,R NOVA DOS CASAIS,26,4815-436,VIZELA,-8.312917508672456,41.36724579834986
pt.ine.add.PTCONT.466909,R NOVA,56,4815-436,VIZELA,-8.312917508672456,41.36724579834986
pt.ine.add.PTCONT.466910,R SUB-QUINTÃO,71,4815-662,VIZELA,-8.30956681721935,41.38343124757321
pt.ine.add.PTCONT.466913,AV BOMBEIROS VOLUNTARIOS,,4815-394,VIZELA,-8.31286654205589,41.376024823982284
pt.ine.add.PTCONT.466914,AV BOMBEIROS VOLUNTARIOS,,4815-394,VIZELA,-8.31286654205589,41.376024823982284
pt.ine.add.PTCONT.466915,AV BOMBEIROS VOLUNTARIOS,,4815-394,VIZELA,-8.31286654205589,41.376024823982284
pt.ine.add.PTCONT.466916,TV ARCAS,125,4815-106,ÍNFIAS VIZ,-8.320445753239888,41.395830592663415
pt.ine.add.PTCONT.466917,TV ARCAS,125 A,4815-106,ÍNFIAS VIZ,-8.320445753239888,41.395830592663415
pt.ine.add.PTCONT.466918,TV ARCAS,93,4815-106,ÍNFIAS VIZ,-8.320445753239888,41.395830592663415
pt.ine.add.PTCONT.466919,TV ARCAS,103,4815-106,ÍNFIAS VIZ,-8.320445753239888,41.395830592663415
pt.ine.add.PTCONT.466920,TV BOM VIVER,18,4815-634,SÃO PAIO VIZELA,-8.262829421345696,41.387131052662795
pt.ine.add.PTCONT.466921,R S PAIO,1480,4815-582,SÃO PAIO VIZELA,-8.262829421345696,41.387131052662795
pt.ine.add.PTCONT.466922,PCT 19 DE MARCO,204,4815-646,VIZELA,-8.303753091305781,41.377515361401095
pt.ine.add.PTCONT.466923,PCT 19 MARCO,48,4815-646,VIZELA,-8.303753091305781,41.377515361401095
pt.ine.add.PTCONT.466924,PCT 19 DE MARCO,204,4815-646,VIZELA,-8.303753091305781,41.377515361401095
pt.ine.add.PTCONT.466925,PCT 19 DE MARCO,204,4815-646,VIZELA,-8.303753091305781,41.377515361401095
pt.ine.add.PTCONT.466926,PCT 19 DE MARCO,204,4815-646,VIZELA,-8.303753091305781,41.377515361401095
pt.ine.add.PTCONT.466927,R BRITELO,1243,4815-682,SANTO ADRIÃO VIZELA,-8.283063690716261,41.35805940650224
pt.ine.add.PTCONT.466928,R BRITELO,1243,4815-682,SANTO ADRIÃO VIZELA,-8.283063690716261,41.35805940650224
pt.ine.add.PTCONT.466929,PCT 19 DE MARCO,204,4815-646,VIZELA,-8.303753091305781,41.377515361401095
pt.ine.add.PTCONT.466930,PCT 19 DE MARCO,204,4815-646,VIZELA,-8.303753091305781,41.377515361401095
pt.ine.add.PTCONT.466931,PCT 19 DE MARCO,204,4815-646,VIZELA,-8.303753091305781,41.377515361401095
pt.ine.add.PTCONT.466932,PCT 19 DE MARCO,204,4815-646,VIZELA,-8.303753091305781,41.377515361401095
pt.ine.add.PTCONT.466933,PCT 19 DE MARCO,204,4815-646,VIZELA,-8.303753091305781,41.377515361401095
pt.ine.add.PTCONT.466934,TV LAPA,142,4815-526,VIZELA,-8.314063518917086,41.388304445745185
pt.ine.add.PTCONT.466935,TV LARGO DAS TEIXUGUEIRAS,334,4815-543,VIZELA,-8.316901128119646,41.381240791839986
pt.ine.add.PTCONT.466936,R SAUDADE,195,4815-673,SANTO ADRIÃO VIZELA,-8.282920687828192,41.36865737361699
pt.ine.add.PTCONT.466937,R FLORES,94,4815-666,SANTO ADRIÃO VIZELA,-8.293625313790473,41.36184487644417
pt.ine.add.PTCONT.466938,TV LAPA,142,4815-526,VIZELA,-8.314063518917086,41.388304445745185
pt.ine.add.PTCONT.466939,AV ENG SA E MELO,290,4815-511,VIZELA,-8.31272236456908,41.37886132110473
pt.ine.add.PTCONT.466940,AV ENG SA E MELO,278,4815-511,VIZELA,-8.31272236456908,41.37886132110473
pt.ine.add.PTCONT.466941,AV ENG SA E MELO,210,4815-511,VIZELA,-8.31272236456908,41.37886132110473
pt.ine.add.PTCONT.466942,AV ENG SA E MELO,210,4815-511,VIZELA,-8.31272236456908,41.37886132110473
pt.ine.add.PTCONT.466943,AV ENG SA E MELO,210,4815-511,VIZELA,-8.31272236456908,41.37886132110473
pt.ine.add.PTCONT.466944,R BACELO,1332,4815-499,VIZELA,-8.312273000813565,41.385002770802025
pt.ine.add.PTCONT.466945,BC OUZAO,39,4815-615,TAGILDE,-8.27467526731317,41.38050813089158
pt.ine.add.PTCONT.466946,R INDEPENDENCIA,372,4815-601,TAGILDE,-8.287584076195573,41.36947057714727
pt.ine.add.PTCONT.466947,BC S CRAU,56,4815-617,TAGILDE,-8.28846959561605,41.36990157956792
pt.ine.add.PTCONT.466948,R CASAS,325,4815-479,VIZELA,-8.309379223398048,41.380370164439
pt.ine.add.PTCONT.466949,R CASAS,327,4815-479,VIZELA,-8.309379223398048,41.380370164439
pt.ine.add.PTCONT.466950,R CASAS DO SENHOR,323,4815-479,VIZELA,-8.309379223398048,41.380370164439
pt.ine.add.PTCONT.466951,R CASAS,329,4815-479,VIZELA,-8.309379223398048,41.380370164439
pt.ine.add.PTCONT.466952,R NSA SRA TOCHA,327,4815-668,SANTO ADRIÃO VIZELA,-8.283865389356423,41.363676896155695
pt.ine.add.PTCONT.466953,R N SENHORA DA TOCHA,325,4815-668,SANTO ADRIÃO VIZELA,-8.283865389356423,41.363676896155695
pt.ine.add.PTCONT.467088,AV BOMBEIROS VOLUNTARIOS,,4815-394,VIZELA,-8.31286654205589,41.376024823982284
pt.ine.add.PTCONT.467125,R PORTELAS,790,4815-623,TAGILDE,-8.273413980899338,41.38325590579423
pt.ine.add.PTCONT.467149,R TRANCOSA,134 A,4815-629,TAGILDE,-8.278187250887633,41.37392180327242
pt.ine.add.PTCONT.467231,R PÓVOA,278,4815-594,TAGILDE,-8.27515004772753,41.3734483777307
pt.ine.add.PTCONT.467232,CC PÓVOA,265,4815-594,TAGILDE,-8.27515004772753,41.3734483777307
pt.ine.add.PTCONT.467341,R LIBERDADE,224,4815-410,VIZELA,-8.320327432639838,41.371258792741656
pt.ine.add.PTCONT.467342,R LIBERDADE,224,4815-410,VIZELA,-8.320327432639838,41.371258792741656
pt.ine.add.PTCONT.467343,R VISTA ALEGRE,340,4815-519,VIZELA,-8.316365186897302,41.3777030609474
pt.ine.add.PTCONT.467344,R VISTA ALEGRE,340,4815-519,VIZELA,-8.316365186897302,41.3777030609474
pt.ine.add.PTCONT.467345,R VISTA ALEGRE,340,4815-519,VIZELA,-8.316365186897302,41.3777030609474
pt.ine.add.PTCONT.467346,R VISTA ALEGRE,340,4815-519,VIZELA,-8.316365186897302,41.3777030609474
pt.ine.add.PTCONT.467347,R VISTA ALEGRE,340,4815-519,VIZELA,-8.316365186897302,41.3777030609474
pt.ine.add.PTCONT.467348,R VISTA ALEGRE,340,4815-519,VIZELA,-8.316365186897302,41.3777030609474
pt.ine.add.PTCONT.467441,TV ESCOLAS DO MONTE,41,4620-592,SANTA EULÁLIA VIZ,-8.286277702256607,41.35267073741601
pt.ine.add.PTCONT.467442,R IMPEDIDOS,105,4620-557,SANTA EULÁLIA VIZ,-8.310650858435128,41.3556250717924
pt.ine.add.PTCONT.467443,R VILA POUCA,293,4620-580,SANTA EULÁLIA VIZ,-8.297478761982159,41.35439307190737
pt.ine.add.PTCONT.467444,R DEVESINHA,201,4620-541,SANTA EULÁLIA VIZ,-8.301404054115174,41.356620408975836
pt.ine.add.PTCONT.467445,R SOUTO,828,4620-602,SANTA EULÁLIA VIZ,-8.289611939188077,41.352801312839986
pt.ine.add.PTCONT.467446,R IMPEDIDOS,N 65,4620-557,SANTA EULÁLIA VIZ,-8.311080299479604,41.355345282252934
pt.ine.add.PTCONT.467447,LAD DEVESINHA,22,4620-541,SANTA EULÁLIA VIZ,-8.30201051292641,41.35545799520431
pt.ine.add.PTCONT.467448,VLA FORMIGOSA,81,4620-544,SANTA EULÁLIA VIZ,-8.297281977005213,41.35216934578887
pt.ine.add.PTCONT.467449,R LAMARÃO,493,4620-548,SANTA EULÁLIA VIZ,-8.301075674749256,41.35904298342001
pt.ine.add.PTCONT.467450,R ALTO DE PENABESTEIRA,172,4620-557,SANTA EULÁLIA VIZ,-8.311197197941983,41.354390669620564
pt.ine.add.PTCONT.467456,R IMPEDIDOS,105,4620-557,SANTA EULÁLIA VIZ,-8.310650858435128,41.3556250717924
pt.ine.add.PTCONT.469874,R LATINO COELHO,,4815-435,VIZELA,-8.310692439991703,41.375316880289134
pt.ine.add.PTCONT.469875,R SOUTO,254,4815-424,VIZELA,-8.310985991267529,41.36898658222732
pt.ine.add.PTCONT.469880,R CRUZ DE VILAR,682,4815-404,VIZELA,-8.318266884059065,41.37383728351104
pt.ine.add.PTCONT.469884,R CRUZ DE VILAR,78 106 114,4815-404,VIZELA,-8.317164255706452,41.37280358723906
pt.ine.add.PTCONT.469885,R CRUZ VILAR,106,4815-404,VIZELA,-8.317164255706452,41.37280358723906
pt.ine.add.PTCONT.469886,R CRUZ VILAR,114,4815-404,VIZELA,-8.317164255706452,41.37280358723906
pt.ine.add.PTCONT.469887,R CRUZ VILAR,78,4815-404,VIZELA,-8.317164255706452,41.37280358723906
pt.ine.add.PTCONT.469888,R SAUDADE,442,4815-413,VIZELA,-8.305553667178085,41.36676184533376
pt.ine.add.PTCONT.469889,R SAUDADE,442,4815-413,VIZELA,-8.305553667178085,41.36676184533376
pt.ine.add.PTCONT.469891,R BOAVISTA,96,4815-405,VIZELA,-8.317069455002093,41.364610051944766
pt.ine.add.PTCONT.469894,R FORMIGOSA,11,4815-409,VIZELA,-8.314505570625457,41.366676050703525
pt.ine.add.PTCONT.469900,R BACELO,800,4815-499,VIZELA,-8.310591922347147,41.38231317138891
pt.ine.add.PTCONT.469901,R MATO,1355,4815-505,VIZELA,-8.321411245542793,41.38648284809972
pt.ine.add.PTCONT.469902,R FUNDOS,235 A,4815-093,ÍNFIAS VIZ,-8.319197546214605,41.39839875999702
pt.ine.add.PTCONT.469903,R FUNDOS,235 B,4815-093,ÍNFIAS VIZ,-8.319197546214605,41.39839875999702
pt.ine.add.PTCONT.469904,R FUNDOS,235C,4815-093,ÍNFIAS VIZ,-8.319197546214605,41.39839875999702
pt.ine.add.PTCONT.469905,R FUNDOS,235 D,4815-093,ÍNFIAS VIZ,-8.319197546214605,41.39839875999702
pt.ine.add.PTCONT.469906,R ARCAS,53,4815-081,ÍNFIAS VIZ,-8.319369150946839,41.3956792722518
pt.ine.add.PTCONT.469907,R PORTOS JUNIOR,100,4815-096,ÍNFIAS VIZ,-8.317247640379184,41.39389088868759
pt.ine.add.PTCONT.469908,AV BOMBEIROS VOLUNTARIOS,47B,4815-394,VIZELA,-8.309970983052686,41.3762324534516
pt.ine.add.PTCONT.469909,R MATO,854,4815-505,VIZELA,-8.320956541027389,41.38634853092221
pt.ine.add.PTCONT.469910,TV 25 DE ABRIL,60,4815-647,VIZELA,-8.304100277493417,41.37771293488663
pt.ine.add.PTCONT.469911,TV 25 DE ABRIL,60,4815-647,VIZELA,-8.304100277493417,41.37771293488663
pt.ine.add.PTCONT.469912,TV 25 DE ABRIL,60,4815-647,VIZELA,-8.304100277493417,41.37771293488663
pt.ine.add.PTCONT.469913,TV 25 DE ABRIL,60,4815-647,VIZELA,-8.304100277493417,41.37771293488663
pt.ine.add.PTCONT.469914,TV 25 DE ABRIL,60,4815-647,VIZELA,-8.304100277493417,41.37771293488663
pt.ine.add.PTCONT.469915,R LAGOAS,656,4815-687,SANTO ADRIÃO VIZELA,-8.29367374077956,41.371821302798885
pt.ine.add.PTCONT.469916,R BRITELO,896,4815-682,SANTO ADRIÃO VIZELA,-8.27912149447222,41.358721772684575
pt.ine.add.PTCONT.469917,TV 25 DE ABRIL,60,4815-647,VIZELA,-8.304100277493417,41.37771293488663
pt.ine.add.PTCONT.469918,TV 25 DE ABRIL,60,4815-647,VIZELA,-8.304100277493417,41.37771293488663
pt.ine.add.PTCONT.469919,TV 25 DE ABRIL,60,4815-647,VIZELA,-8.304100277493417,41.37771293488663
pt.ine.add.PTCONT.469920,CC QUINTAES,46 B,4815-595,TAGILDE,-8.276291654896509,41.37620220053031
pt.ine.add.PTCONT.469921,CC S DOMINGOS,75,4815-743,SÃO PAIO VIZELA,-8.265305146034926,41.38165378502971
pt.ine.add.PTCONT.469922,R ASSENTO,9,4815-461,ÍNFIAS VIZ,-8.308873248308743,41.39668622432063
pt.ine.add.PTCONT.469923,TV VEIGA,9,4815-554,ÍNFIAS VIZ,-8.308873248308743,41.39668622432063
pt.ine.add.PTCONT.469924,TV DEVESA DA TORRE,,4815-101,ÍNFIAS VIZ,-8.307034664878023,41.39776949895156
pt.ine.add.PTCONT.469925,R LAMELAS,84,4815-672,SANTO ADRIÃO VIZELA,-8.284445905339881,41.366629465587266
pt.ine.add.PTCONT.469926,R RIO DE VIZELA,1775,4815-728,SÃO PAIO VIZELA,-8.261727796194405,41.380208189351
pt.ine.add.PTCONT.469927,R PORTOS JUNIOR,1087,4815-096,ÍNFIAS VIZ,-8.308691825288463,41.395921160556405
pt.ine.add.PTCONT.469928,R LAGE,321,4815-483,VIZELA,-8.317543961063457,41.38027633185224
pt.ine.add.PTCONT.469929,R FELGUEIRAS,,4815-667,SANTO ADRIÃO VIZELA,-8.28445189035868,41.36405429692211
pt.ine.add.PTCONT.469930,R ESPINHAL,49,4815-503,VIZELA,-8.316597695765278,41.38387045277808
pt.ine.add.PTCONT.469931,R CARVALHAL,154,4815-087,ÍNFIAS VIZ,-8.310839832220505,41.38993919758835
pt.ine.add.PTCONT.469932,R SUB CARREIRA,352,4815-517,VIZELA,-8.3136850847044,41.38548678096601
pt.ine.add.PTCONT.469933,R S GONÇALO,168,4815-624,TAGILDE,-8.271974616456104,41.381024651573206
pt.ine.add.PTCONT.469934,R SANTO ANTÓNIO,73,4815-689,SANTO ADRIÃO VIZELA,-8.296070903058467,41.364866803978444
pt.ine.add.PTCONT.469935,R PE DO MONTE,269,4815-089,ÍNFIAS VIZ,-8.308991456212471,41.391742841100715
pt.ine.add.PTCONT.469936,R PE,273,4815-089,ÍNFIAS VIZ,-8.308991456212471,41.391742841100715
pt.ine.add.PTCONT.469937,R GUILHERME PINTO VARELA,66,4815-094,ÍNFIAS VIZ,-8.313735859822271,41.395193032462444
pt.ine.add.PTCONT.470122,R PORTELAS,544,4815-623,TAGILDE,-8.274736974312763,41.38139945440055
pt.ine.add.PTCONT.470282,R BOUCO,531,4815-673,SANTO ADRIÃO VIZELA,-8.283237909320205,41.37146622425319
pt.ine.add.PTCONT.470418,R VILA POUCA,32,4620-580,SANTA EULÁLIA VIZ,-8.299917444597956,41.35474972610701
pt.ine.add.PTCONT.470419,R VILA POUCA,32,4620-580,SANTA EULÁLIA VIZ,-8.299917444597956,41.35474972610701
pt.ine.add.PTCONT.470420,R SÁ,708 A,4620-569,SANTA EULÁLIA VIZ,-8.294026131275709,41.359602304402244
pt.ine.add.PTCONT.470421,CC REBORDELO,335,4620-599,SANTA EULÁLIA VIZ,-8.288387428190259,41.34539261034749
pt.ine.add.PTCONT.470422,AZ PORTELAS,112,4620-562,SANTA EULÁLIA VIZ,-8.306281566010767,41.36180851978699
pt.ine.add.PTCONT.470423,VLA MONTE,64,4620-592,SANTA EULÁLIA VIZ,-8.284669258835871,41.35471679228796
pt.ine.add.PTCONT.470427,R LAMARÃO,653,4620-548,SANTA EULÁLIA VIZ,-8.301427742286831,41.36117643267635
pt.ine.add.PTCONT.470431,VLA BARREIROS,6,4620-525,SANTA EULÁLIA VIZ,-8.305244885860633,41.35390450223609
pt.ine.add.PTCONT.472967,RUELA REQUEIXOS,71,4620-564,SANTA EULÁLIA VIZ,-8.29783310297429,41.34326351761373
pt.ine.add.PTCONT.472969,R NORA,192,4620-552,SANTA EULÁLIA VIZ,-8.295478038414078,41.36195933022563
pt.ine.add.PTCONT.472970,R SEARA,192,4620-570,SANTA EULÁLIA VIZ,-8.295478038414078,41.36195933022563
pt.ine.add.PTCONT.472971,R NORA,192,4620-552,SANTA EULÁLIA VIZ,-8.295478038414078,41.36195933022563
pt.ine.add.PTCONT.472972,R NORA,192,4620-552,SANTA EULÁLIA VIZ,-8.295478038414078,41.36195933022563
pt.ine.add.PTCONT.472973,R FRANCISCO COSTA,123,4815-432,VIZELA,-8.311099281047055,41.3754693204511
pt.ine.add.PTCONT.472974,R FRANCISCO COSTA,123,4815-432,VIZELA,-8.311099281047055,41.3754693204511
pt.ine.add.PTCONT.472975,R FORMIGOSA,250,4815-409,VIZELA,-8.315199718721995,41.36700810448386
pt.ine.add.PTCONT.472976,R NORA,192,4620-552,SANTA EULÁLIA VIZ,-8.295478038414078,41.36195933022563
pt.ine.add.PTCONT.472977,R NORA,192,4620-552,SANTA EULÁLIA VIZ,-8.295478038414078,41.36195933022563
pt.ine.add.PTCONT.472978,R NORA,192,4620-552,SANTA EULÁLIA VIZ,-8.295478038414078,41.36195933022563
pt.ine.add.PTCONT.472979,R NORA,192,4620-552,SANTA EULÁLIA VIZ,-8.295478038414078,41.36195933022563
pt.ine.add.PTCONT.472986,R 1 DE MAIO,43,4815-564,VIZELA,-8.31682472828604,41.37108435690122
pt.ine.add.PTCONT.472987,R S ROMÃO,18,4815-455,VIZELA,-8.314781815751706,41.37145676607628
pt.ine.add.PTCONT.472991,R ELISA TORRES SOARES,311,4815-430,VIZELA,-8.30813695664918,41.367370221114896
pt.ine.add.PTCONT.472998,R S PAULO,1,4815-443,VIZELA,-8.319207243525176,41.368253257074365
pt.ine.add.PTCONT.473003,R PROGRESSO,99,4815-422,VIZELA,-8.321570247455925,41.371157719621266
pt.ine.add.PTCONT.473004,R PROGRESSO,,4815-422,VIZELA,-8.321570247455925,41.371157719621266
pt.ine.add.PTCONT.473005,R PROGRESSO,,4815-422,VIZELA,-8.321570247455925,41.371157719621266
pt.ine.add.PTCONT.473006,R PROGRESSO,,4815-422,VIZELA,-8.321570247455925,41.371157719621266
pt.ine.add.PTCONT.473007,TV SAUDADE,133,4815-449,VIZELA,-8.30670704990854,41.369011124626574
pt.ine.add.PTCONT.473008,TV SAUDADE,133,4815-449,VIZELA,-8.30670704990854,41.369011124626574
pt.ine.add.PTCONT.473010,R NOVA,7,4815-436,VIZELA,-8.311745063875973,41.366833437753286
pt.ine.add.PTCONT.473011,R NOVA,5,4815-436,VIZELA,-8.311745063875973,41.366833437753286
pt.ine.add.PTCONT.473015,R MOLAR,60,4620-578,SANTA EULÁLIA VIZ,-8.300975696741093,41.357341360251766
pt.ine.add.PTCONT.473020,R CRUZ CAIDA,173,4815-408,VIZELA,-8.308191282732585,41.3698012325892
pt.ine.add.PTCONT.473026,R PESO,254,4620-559,SANTA EULÁLIA VIZ,-8.294406599748838,41.358809413819856
pt.ine.add.PTCONT.473027,R FRANCISCO COSTA,120,4815-432,VIZELA,-8.311326474477019,41.37549598095023
pt.ine.add.PTCONT.473037,R FRANCISCO COSTA,120,4815-432,VIZELA,-8.311326474477019,41.37549598095023
pt.ine.add.PTCONT.473038,R FRANCISCO COSTA,120A 12,4815-432,VIZELA,-8.311326474477019,41.37549598095023
pt.ine.add.PTCONT.473039,R CIMO DE VILA,262,4815-480,VIZELA,-8.304374463716167,41.381980439660104
pt.ine.add.PTCONT.473040,R CIMO DE VILA,262,4815-480,VIZELA,-8.304374463716167,41.381980439660104
pt.ine.add.PTCONT.473041,R CIMO DE VILA,262,4815-480,VIZELA,-8.304374463716167,41.381980439660104
pt.ine.add.PTCONT.473042,R CIMO DE VILA,262,4815-480,VIZELA,-8.304374463716167,41.381980439660104
pt.ine.add.PTCONT.473043,R HERDADE,93,4815-578,SÃO PAIO VIZELA,-8.253862445722923,41.38708678762127
pt.ine.add.PTCONT.473044,R OLIVAIS,172,4815-687,SANTO ADRIÃO VIZELA,-8.287950681153397,41.372855607035575
pt.ine.add.PTCONT.473045,R ABILIO MEIRA PACHECO,,4815-670,SANTO ADRIÃO VIZELA,-8.282797803668444,41.36197652185572
pt.ine.add.PTCONT.473046,R HERDADE,1125,4815-578,SÃO PAIO VIZELA,-8.261716570897867,41.38664608439455
pt.ine.add.PTCONT.473047,TV MATO,273,4815-544,VIZELA,-8.320030127868899,41.384315129797606
pt.ine.add.PTCONT.473048,R VILA CORNEIRA,638,4815-632,TAGILDE,-8.271772554585775,41.37594661737947
pt.ine.add.PTCONT.473049,PCT COUTO,21,4815-655,VIZELA,-8.319285202117538,41.38301975740382
pt.ine.add.PTCONT.473050,PCT COUTO,21,4815-655,VIZELA,-8.319285202117538,41.38301975740382
pt.ine.add.PTCONT.473051,PCT COUTO,21,4815-655,VIZELA,-8.319285202117538,41.38301975740382
pt.ine.add.PTCONT.473052,PCT COUTO,21,4815-655,VIZELA,-8.319285202117538,41.38301975740382
pt.ine.add.PTCONT.473053,PCT COUTO,21,4815-655,VIZELA,-8.319285202117538,41.38301975740382
pt.ine.add.PTCONT.473054,PCT COUTO,21,4815-655,VIZELA,-8.319285202117538,41.38301975740382
pt.ine.add.PTCONT.473055,R PORTOS JUNIOR,131,4815-096,ÍNFIAS VIZ,-8.316805508780844,41.39399063949366
pt.ine.add.PTCONT.473056,TV TEIXUGUEIRAS,,4815-531,VIZELA,-8.314387210847974,41.3800112269844
pt.ine.add.PTCONT.473057,TV TEIXUGUEIRAS,,4815-531,VIZELA,-8.314387210847974,41.3800112269844
pt.ine.add.PTCONT.473058,R PARAISO,215,4815-088,ÍNFIAS VIZ,-8.31526043421389,41.393056678379246
pt.ine.add.PTCONT.473059,TV HOSPITAL,184,4815-542,VIZELA,-8.314272649116461,41.37749928137128
pt.ine.add.PTCONT.473060,AV ABADE DE TAGILDE,503,4815-471,VIZELA,-8.30609384192059,41.3766654868773
pt.ine.add.PTCONT.473061,AV ABADE DE TAGILDE,503,4815-471,VIZELA,-8.30609384192059,41.3766654868773
pt.ine.add.PTCONT.473062,AV ABADE DE TAGILDE,503,4815-471,VIZELA,-8.30609384192059,41.3766654868773
pt.ine.add.PTCONT.473063,AV ABADE DE TAGILDE,503,4815-471,VIZELA,-8.30609384192059,41.3766654868773
pt.ine.add.PTCONT.473064,AV ABADE DE TAGILDE,503,4815-471,VIZELA,-8.30609384192059,41.3766654868773
pt.ine.add.PTCONT.473065,AV ABADE DE TAGILDE,503,4815-471,VIZELA,-8.30609384192059,41.3766654868773
pt.ine.add.PTCONT.473066,R S PAIO,418,4815-582,SÃO PAIO VIZELA,-8.265347584615503,41.378997545599944
pt.ine.add.PTCONT.473067,R 19 DE MARCO,229,4815-388,ÍNFIAS VIZ,-8.308533884177464,41.39054600534379
pt.ine.add.PTCONT.473068,R INDEPENDÊNCIA,308,4815-601,TAGILDE,-8.287776895598391,41.37013661797389
pt.ine.add.PTCONT.473069,R INDEPENDÊNCIA,308,4815-601,TAGILDE,-8.287776895598391,41.37013661797389
pt.ine.add.PTCONT.473070,R SEM NOME,,4815-665,SANTO ADRIÃO VIZELA,-8.292546568765982,41.365457004425764
pt.ine.add.PTCONT.473071,R LAGOAS,,4815-687,SANTO ADRIÃO VIZELA,-8.290091083799773,41.373176852826425
pt.ine.add.PTCONT.473072,R LAGOAS,,4815-687,SANTO ADRIÃO VIZELA,-8.290091083799773,41.373176852826425
pt.ine.add.PTCONT.473073,R LAGOAS,,4815-687,SANTO ADRIÃO VIZELA,-8.290091083799773,41.373176852826425
pt.ine.add.PTCONT.473074,R LAGOAS,32,4815-687,SANTO ADRIÃO VIZELA,-8.290091083799773,41.373176852826425
pt.ine.add.PTCONT.473075,R LAGOAS,,4815-687,SANTO ADRIÃO VIZELA,-8.290091083799773,41.373176852826425
pt.ine.add.PTCONT.473076,R LAGOAS,,4815-687,SANTO ADRIÃO VIZELA,-8.290091083799773,41.373176852826425
pt.ine.add.PTCONT.473077,R LAGOAS,32,4815-687,SANTO ADRIÃO VIZELA,-8.290091083799773,41.373176852826425
pt.ine.add.PTCONT.473078,R RIBEIRO,64 A,4815-109,ÍNFIAS VIZ,-8.315063745527848,41.39541604060516
pt.ine.add.PTCONT.473079,R RIBEIRO,64,4815-109,ÍNFIAS VIZ,-8.315063745527848,41.39541604060516
pt.ine.add.PTCONT.473183,R LAGOAS,,4815-687,SANTO ADRIÃO VIZELA,-8.290091083799773,41.373176852826425
pt.ine.add.PTCONT.473226,R PESO,260,4620-559,SANTA EULÁLIA VIZ,-8.294406599748838,41.358809413819856
pt.ine.add.PTCONT.473236,R CIMO DE VILA,262,4815-480,VIZELA,-8.304374463716167,41.381980439660104
pt.ine.add.PTCONT.473259,R NORA,192,4620-552,SANTA EULÁLIA VIZ,-8.295478038414078,41.36195933022563
pt.ine.add.PTCONT.473267,R NORA,192,4620-552,SANTA EULÁLIA VIZ,-8.295478038414078,41.36195933022563
pt.ine.add.PTCONT.473388,CC CHÃO,205,4815-609,TAGILDE,-8.275590407499404,41.378048899250935
pt.ine.add.PTCONT.473390,R ENGEIO,978,4815-502,VIZELA,-8.306947325169029,41.38294001296586
pt.ine.add.PTCONT.473511,LG TEIXUGUEIRAS,,4815-474,VIZELA,-8.314883187009086,41.38210838412402
pt.ine.add.PTCONT.473512,LG TEIXUGUEIRAS,,4815-474,VIZELA,-8.314883187009086,41.38210838412402
pt.ine.add.PTCONT.473503,LG TEIXUGUEIRAS,,4815-474,VIZELA,-8.314883187009086,41.38210838412402
pt.ine.add.PTCONT.473504,LG TEIXUGUEIRAS,,4815-474,VIZELA,-8.314883187009086,41.38210838412402
pt.ine.add.PTCONT.473505,LG TEIXUGUEIRAS,,4815-474,VIZELA,-8.314883187009086,41.38210838412402
pt.ine.add.PTCONT.473506,LG TEIXUGUEIRAS,,4815-474,VIZELA,-8.314883187009086,41.38210838412402
pt.ine.add.PTCONT.473507,LG TEIXUGUEIRAS,,4815-474,VIZELA,-8.314883187009086,41.38210838412402
pt.ine.add.PTCONT.473508,LG TEIXUGUEIRAS,,4815-474,VIZELA,-8.314883187009086,41.38210838412402
pt.ine.add.PTCONT.473509,LG TEIXUGUEIRAS,,4815-474,VIZELA,-8.314883187009086,41.38210838412402
pt.ine.add.PTCONT.473510,LG TEIXUGUEIRAS,,4815-474,VIZELA,-8.314883187009086,41.38210838412402
pt.ine.add.PTCONT.473559,CC QUINTAES,24,4815-595,TAGILDE,-8.276494375539421,41.37597684706313
pt.ine.add.PTCONT.473712,R BOM VIVER,479,4620-529,SANTA EULÁLIA VIZ,-8.306057371895609,41.353867267840954
pt.ine.add.PTCONT.473706,R MONTE,168,4620-592,SANTA EULÁLIA VIZ,-8.284154248074573,41.35421324111391
pt.ine.add.PTCONT.473707,VLA ULHO,3,4620-575,SANTA EULÁLIA VIZ,-8.301407770830094,41.35342395728754
pt.ine.add.PTCONT.473708,TV IMPEDIDOS,92,4620-557,SANTA EULÁLIA VIZ,-8.312505190799328,41.356378538253026
pt.ine.add.PTCONT.473709,R ALTO DE PENABESTEIRA,1,4620-557,SANTA EULÁLIA VIZ,-8.311808362078525,41.355020007442725
pt.ine.add.PTCONT.473710,LAD DEVESINHA,22,4620-541,SANTA EULÁLIA VIZ,-8.302141753417377,41.35537676586212
pt.ine.add.PTCONT.473711,R SENHORA DE FÁTIMA,229,4620-557,SANTA EULÁLIA VIZ,-8.309777142281694,41.35512218825135
pt.ine.add.PTCONT.476112,R BACELO,29,4815-499,VIZELA,-8.310518797951804,41.381800054381635
pt.ine.add.PTCONT.476117,R DR ABILIO TORRES,1184,4815-552,VIZELA,-8.308455222869405,41.37461799564265
pt.ine.add.PTCONT.476121,R SAUDADE,1321,4815-413,VIZELA,-8.305038021238504,41.36611432483085
pt.ine.add.PTCONT.476149,R SA,360,4620-569,SANTA EULÁLIA VIZ,-8.291487044124255,41.357327797164245
pt.ine.add.PTCONT.476150,R SA,368,4620-569,SANTA EULÁLIA VIZ,-8.291487044124255,41.357327797164245
pt.ine.add.PTCONT.476151,R SEARA,157 A,4620-570,SANTA EULÁLIA VIZ,-8.290591873937478,41.35778823318623
pt.ine.add.PTCONT.476152,R LIBERDADE,423,4815-410,VIZELA,-8.320252257598115,41.370052372551065
pt.ine.add.PTCONT.476164,R SEARA,157,4620-570,SANTA EULÁLIA VIZ,-8.290591873937478,41.35778823318623
pt.ine.add.PTCONT.476165,R ENGEIO,482,4815-502,VIZELA,-8.3058258386234,41.38380608850192
pt.ine.add.PTCONT.476168,TV VEIGAS,568,4815-491,VIZELA,-8.311139348596722,41.38577887648659
pt.ine.add.PTCONT.476172,R FONSECA E CASTRO,241,4815-429,VIZELA,-8.30646221309045,41.375836560835324
pt.ine.add.PTCONT.476173,R FONSECA E CASTRO,241,4815-429,VIZELA,-8.30646221309045,41.375836560835324
pt.ine.add.PTCONT.476174,R FONSECA E CASTRO,241,4815-429,VIZELA,-8.30646221309045,41.375836560835324
pt.ine.add.PTCONT.476175,QLHA MONTE,39,4620-592,SANTA EULÁLIA VIZ,-8.285707384919029,41.354067127026525
pt.ine.add.PTCONT.476176,TV JUNQUEIRA,53,4815-671,SANTO ADRIÃO VIZELA,-8.281054883748986,41.362843165753134
pt.ine.add.PTCONT.476177,LAD BARREIRO,42,4815-745,SÃO PAIO VIZELA,-8.263041095037806,41.38535702053189
pt.ine.add.PTCONT.476178,LAD BARREIRO,44,4815-745,SÃO PAIO VIZELA,-8.263041095037806,41.38535702053189
pt.ine.add.PTCONT.476179,AV BOMBEIROS VOLUNTARIOS,47,4815-394,VIZELA,-8.30990185628564,41.3760867743553
pt.ine.add.PTCONT.476180,AV BOMBEIROS VOLUNTÁRIOS,47,4815-394,VIZELA,-8.30990185628564,41.3760867743553
pt.ine.add.PTCONT.476181,R CANIÇO,237,4815-086,ÍNFIAS VIZ,-8.313051364726405,41.39413163160503
pt.ine.add.PTCONT.476182,R PORTOS JUNIOR,794,4815-096,ÍNFIAS VIZ,-8.311224142630902,41.3949448355128
pt.ine.add.PTCONT.476183,TV LAGE,464,4815-524,VIZELA,-8.320425987701329,41.38061382987911
pt.ine.add.PTCONT.476184,R ALEGRIA,209,4815-075,ÍNFIAS VIZ,-8.308484772453928,41.39896483067537
pt.ine.add.PTCONT.476185,R ALEGRIA,203,4815-075,ÍNFIAS VIZ,-8.308484772453928,41.39896483067537
pt.ine.add.PTCONT.476186,R BRITELO,840,4815-682,SANTO ADRIÃO VIZELA,-8.278535693481608,41.35862346965139
pt.ine.add.PTCONT.476187,R ÁGUAS ALTAS,,4815-669,SANTO ADRIÃO VIZELA,-8.279566210862331,41.35985572022909
pt.ine.add.PTCONT.476188,R BRITELO,1323,4815-682,SANTO ADRIÃO VIZELA,-8.28386512212699,41.35838250598099
pt.ine.add.PTCONT.476189,TV LARGO DAS TEIXUGUEIRAS,93,4815-543,VIZELA,-8.315574833502302,41.38148601135667
pt.ine.add.PTCONT.476190,TV ALTO DAS TEIXUGUEIRAS,96,4815-520,VIZELA,-8.315800663723676,41.381017443390995
pt.ine.add.PTCONT.476191,TV ALTO DAS TEIXUGUEIRAS,96,4815-520,VIZELA,-8.315800663723676,41.381017443390995
pt.ine.add.PTCONT.476192,TV ALTO DAS TEIXUGUEIRAS,96,4815-520,VIZELA,-8.315800663723676,41.381017443390995
pt.ine.add.PTCONT.476193,TV ALTO DAS TEIXUGUEIRAS,96,4815-520,VIZELA,-8.315800663723676,41.381017443390995
pt.ine.add.PTCONT.476194,R ALEGRIA,23,4815-075,ÍNFIAS VIZ,-8.309724404099606,41.39748627769916
pt.ine.add.PTCONT.476195,EN 106,72,4815-071,ÍNFIAS VIZ,-8.317115882493724,41.38956917206605
pt.ine.add.PTCONT.476196,R SUB CARREIRA,494,4815-517,VIZELA,-8.312877690603939,41.38751395049963
pt.ine.add.PTCONT.476197,AV ENG SA E MELO,89,4815-511,VIZELA,-8.313777456680839,41.37998517381491
pt.ine.add.PTCONT.476198,AV ENG SA E MELO,89,4815-511,VIZELA,-8.313777456680839,41.37998517381491
pt.ine.add.PTCONT.476199,CAM FONTE DE S GONÇALO,135,4815-717,TAGILDE,-8.271607478239495,41.38265482409148
pt.ine.add.PTCONT.476200,R BARROSA,379,4815-482,VIZELA,-8.306153733501535,41.381221439121184
pt.ine.add.PTCONT.476201,R TEIXUGUEIRAS,222,4815-490,VIZELA,-8.314534868807625,41.3815236717875
pt.ine.add.PTCONT.476202,R TEIXUGUEIRAS,222,4815-490,VIZELA,-8.314534868807625,41.3815236717875
pt.ine.add.PTCONT.476203,R TEIXUGUEIRAS,222,4815-490,VIZELA,-8.314534868807625,41.3815236717875
pt.ine.add.PTCONT.476204,R TEIXUGUEIRAS,222,4815-490,VIZELA,-8.314534868807625,41.3815236717875
pt.ine.add.PTCONT.476205,R BOM VIVER,1,4815-477,VIZELA,-8.315243990706016,41.37859624060928
pt.ine.add.PTCONT.476206,R BOM VIVER,1,4815-477,VIZELA,-8.315243990706016,41.37859624060928
pt.ine.add.PTCONT.476207,R BOM VIVER,134,4815-477,VIZELA,-8.315352860736725,41.37905527406837
pt.ine.add.PTCONT.476208,R TEIXUGUEIRAS,222,4815-490,VIZELA,-8.314534868807625,41.3815236717875
pt.ine.add.PTCONT.476209,R TEIXUGUEIRAS,222,4815-490,VIZELA,-8.314534868807625,41.3815236717875
pt.ine.add.PTCONT.476210,R TEIXUGUEIRAS,222,4815-490,VIZELA,-8.314534868807625,41.3815236717875
pt.ine.add.PTCONT.476211,R TEIXUGUEIRAS,222,4815-490,VIZELA,-8.314534868807625,41.3815236717875
pt.ine.add.PTCONT.476212,R TEIXUGUEIRAS,222,4815-490,VIZELA,-8.314534868807625,41.3815236717875
pt.ine.add.PTCONT.476213,R BOM VIVER,43,4815-477,VIZELA,-8.31545924244205,41.3786229118288
pt.ine.add.PTCONT.476214,R TORRE,240,4815-592,TAGILDE,-8.281113821128994,41.378303045007186
pt.ine.add.PTCONT.476288,AV BOMBEIROS VOLUNTÁRIOS,47,4815-394,VIZELA,-8.30990185628564,41.3760867743553
pt.ine.add.PTCONT.476317,R TEIXUGUEIRAS,222,4815-490,VIZELA,-8.314534868807625,41.3815236717875
pt.ine.add.PTCONT.476392,R BOUCA,285,4815-576,SÃO PAIO VIZELA,-8.248289800277284,41.39317021501645
pt.ine.add.PTCONT.476498,R FONSECA E CASTRO,241,4815-429,VIZELA,-8.30646221309045,41.375836560835324
pt.ine.add.PTCONT.476499,TV CASAL,40,4815-540,VIZELA,-8.307127900342884,41.37892394133166
pt.ine.add.PTCONT.476616,R LATINO COELHO,9-71,4815-435,VIZELA,-8.310896436445708,41.37560469463025
pt.ine.add.PTCONT.476605,R LATINO COELHO,9-71,4815-435,VIZELA,-8.310896436445708,41.37560469463025
pt.ine.add.PTCONT.476606,R LATINO COELHO,9-71,4815-435,VIZELA,-8.310896436445708,41.37560469463025
pt.ine.add.PTCONT.476607,R LATINO COELHO,9-71,4815-435,VIZELA,-8.310896436445708,41.37560469463025
pt.ine.add.PTCONT.476608,R LATINO COELHO,9-71,4815-435,VIZELA,-8.310896436445708,41.37560469463025
pt.ine.add.PTCONT.476609,R LATINO COELHO,9-71,4815-435,VIZELA,-8.310896436445708,41.37560469463025
pt.ine.add.PTCONT.476610,R LATINO COELHO,9-71,4815-435,VIZELA,-8.310896436445708,41.37560469463025
pt.ine.add.PTCONT.476611,R LATINO COELHO,9-71,4815-435,VIZELA,-8.310896436445708,41.37560469463025
pt.ine.add.PTCONT.476612,R LATINO COELHO,9-71,4815-435,VIZELA,-8.310896436445708,41.37560469463025
pt.ine.add.PTCONT.476613,R LATINO COELHO,9-71,4815-435,VIZELA,-8.310896436445708,41.37560469463025
pt.ine.add.PTCONT.476614,R LATINO COELHO,9-71,4815-435,VIZELA,-8.310896436445708,41.37560469463025
pt.ine.add.PTCONT.476615,R LATINO COELHO,9-71,4815-435,VIZELA,-8.310896436445708,41.37560469463025
pt.ine.add.PTCONT.476617,R LATINO COELHO,9-71,4815-435,VIZELA,-8.310896436445708,41.37560469463025
pt.ine.add.PTCONT.476618,R LATINO COELHO,9-71,4815-435,VIZELA,-8.310896436445708,41.37560469463025
pt.ine.add.PTCONT.476619,R LATINO COELHO,9-71,4815-435,VIZELA,-8.310896436445708,41.37560469463025
pt.ine.add.PTCONT.476620,AV BOMBEIROS VOLUNTARIOS,47C,4815-394,VIZELA,-8.309939887986799,41.376178352740446
pt.ine.add.PTCONT.476621,AV BOMBEIROS VOLUNTARIOS,47C,4815-394,VIZELA,-8.309939887986799,41.376178352740446
pt.ine.add.PTCONT.476622,PCT 10 DE JUNHO,,4815-602,VIZELA,-8.31915536474155,41.38360522924357
pt.ine.add.PTCONT.476623,PCT 10 DE JUNHO,,4815-602,VIZELA,-8.31915536474155,41.38360522924357
pt.ine.add.PTCONT.476624,PCT 10 DE JUNHO,,4815-602,VIZELA,-8.31915536474155,41.38360522924357
pt.ine.add.PTCONT.476625,PCT 10 DE JUNHO,,4815-602,VIZELA,-8.31915536474155,41.38360522924357
pt.ine.add.PTCONT.476626,PCT 10 DE JUNHO,,4815-602,VIZELA,-8.31915536474155,41.38360522924357
pt.ine.add.PTCONT.476627,PCT 10 DE JUNHO,,4815-602,VIZELA,-8.31915536474155,41.38360522924357
pt.ine.add.PTCONT.476628,PCT 10 DE JUNHO,,4815-602,VIZELA,-8.31915536474155,41.38360522924357
pt.ine.add.PTCONT.476629,PCT 10 DE JUNHO,,4815-602,VIZELA,-8.31915536474155,41.38360522924357
pt.ine.add.PTCONT.476630,R VISTA ALEGRE,,4815-519,VIZELA,-8.31563470454539,41.377245015974246
pt.ine.add.PTCONT.476631,R VISTA ALEGRE,,4815-519,VIZELA,-8.31563470454539,41.377245015974246
pt.ine.add.PTCONT.476632,R VISTA ALEGRE,,4815-519,VIZELA,-8.31563470454539,41.377245015974246
pt.ine.add.PTCONT.476633,R VISTA ALEGRE,,4815-519,VIZELA,-8.31563470454539,41.377245015974246
pt.ine.add.PTCONT.476634,R VISTA ALEGRE,,4815-519,VIZELA,-8.31563470454539,41.377245015974246
pt.ine.add.PTCONT.476635,R VISTA ALEGRE,,4815-519,VIZELA,-8.31563470454539,41.377245015974246
pt.ine.add.PTCONT.476639,R CRASTRO,133,4815-684,SANTO ADRIÃO VIZELA,-8.28001519504556,41.36288051388058
pt.ine.add.PTCONT.476656,R BOM VIVER,1,4815-477,VIZELA,-8.315243990706016,41.37859624060928
pt.ine.add.PTCONT.476767,VLA ALTO DE SILVARES,163,4620-522,SANTA EULÁLIA VIZ,-8.294809082922637,41.3620863289795
pt.ine.add.PTCONT.476768,VLA QUINTAS,210 A,4620-564,SANTA EULÁLIA VIZ,-8.291630645765766,41.35248340726578
pt.ine.add.PTCONT.476769,R SÁ,1217 A,4620-569,SANTA EULÁLIA VIZ,-8.298632312172911,41.361621686369936
pt.ine.add.PTCONT.476770,TV IMPEDIDOS,53,4620-557,SANTA EULÁLIA VIZ,-8.31236077589107,41.356009596345785
pt.ine.add.PTCONT.476771,TV BOM VIVER,142,4620-529,SANTA EULÁLIA VIZ,-8.303384576564465,41.355383937848224
pt.ine.add.PTCONT.476772,TV BOM VIVER,142,4620-529,SANTA EULÁLIA VIZ,-8.303384576564465,41.355383937848224
pt.ine.add.PTCONT.476773,TV BOM VIVER,148,4620-529,SANTA EULÁLIA VIZ,-8.303647194503135,41.355275500116676
pt.ine.add.PTCONT.476774,TV SENHORA DE FÁTIMA,153,4620-557,SANTA EULÁLIA VIZ,-8.308582437789443,41.35523206489256
pt.ine.add.PTCONT.476775,R CARREIRA CHÃ,,4620-537,SANTA EULÁLIA VIZ,-8.30844584164305,41.35331440516826
pt.ine.add.PTCONT.476776,R MOLAR,328,4620-578,SANTA EULÁLIA VIZ,-8.30341450829739,41.35769793992206
pt.ine.add.PTCONT.476787,TV BOM VIVER,148,4620-529,SANTA EULÁLIA VIZ,-8.303647194503135,41.355275500116676
pt.ine.add.PTCONT.476879,R CRUZ CAIDA,97,4815-408,VIZELA,-8.307676140149953,41.369360816684924
pt.ine.add.PTCONT.476880,R CRUZ CAIDA,97,4815-408,VIZELA,-8.307676140149953,41.369360816684924
pt.ine.add.PTCONT.476881,R CRUZ CAIDA,97,4815-408,VIZELA,-8.307676140149953,41.369360816684924
pt.ine.add.PTCONT.476882,R FORMIGOSA,112,4815-409,VIZELA,-8.314829528771371,41.367125742335894
pt.ine.add.PTCONT.476883,R S BENTO,403,4815-496,VIZELA,-8.296207601171432,41.38131700220853
pt.ine.add.PTCONT.476884,R ENGEIO,800,4815-502,VIZELA,-8.306996464566271,41.38343516034091
pt.ine.add.PTCONT.476942,R AIDRINHO,1111,4815-497,VIZELA,-8.310553673194025,41.38583380525596
pt.ine.add.PTCONT.476943,TV VÁRZEA,308,4815-528,VIZELA,-8.316143133408625,41.38804004005116
pt.ine.add.PTCONT.477005,R SUB,26,4815-518,VIZELA,-8.31239150190953,41.380266466475355
pt.ine.add.PTCONT.477006,R SUB,20,4815-518,VIZELA,-8.31239150190953,41.380266466475355
pt.ine.add.PTCONT.477007,R SUB,16,4815-518,VIZELA,-8.31239150190953,41.380266466475355
pt.ine.add.PTCONT.477008,R CIMO DE VILA,521,4815-480,VIZELA,-8.30534321162103,41.38213206232177
pt.ine.add.PTCONT.477100,AV ABADE DE TAGILDE,27,4815-471,VIZELA,-8.307947900452614,41.3771128868602
pt.ine.add.PTCONT.477097,TV TEIXUGUEIRAS,363,4815-531,VIZELA,-8.314303829260078,41.380119406712055
pt.ine.add.PTCONT.477098,TV VISTA ALEGRE,152,4815-551,VIZELA,-8.31534891463173,41.377641646586646
pt.ine.add.PTCONT.477099,TV VISTA ALEGRE,158,4815-551,VIZELA,-8.31534891463173,41.377641646586646
pt.ine.add.PTCONT.477101,AV BOMBEIROS VOLUNTARIOS,226,4815-394,VIZELA,-8.313236112898972,41.37600552669642
pt.ine.add.PTCONT.477178,AV BOMBEIROS VOLUNTARIOS,,4815-394,VIZELA,-8.313236112898972,41.37600552669642
pt.ine.add.PTCONT.477179,AV BOMBEIROS VOLUNTARIOS,,4815-394,VIZELA,-8.313236112898972,41.37600552669642
pt.ine.add.PTCONT.477180,AV BOMBEIROS VOLUNTARIOS,,4815-394,VIZELA,-8.313236112898972,41.37600552669642
pt.ine.add.PTCONT.477181,AV BOMBEIROS VOLUNTARIOS,,4815-394,VIZELA,-8.313236112898972,41.37600552669642
pt.ine.add.PTCONT.477182,R DR ABILIO TORRES,782,4815-552,VIZELA,-8.309582795611469,41.3760749267497
pt.ine.add.PTCONT.477183,R DR ABILIO TORRES,782,4815-552,VIZELA,-8.309582795611469,41.3760749267497
pt.ine.add.PTCONT.477265,AV ABADE TAGILDE,,4815-471,VIZELA,-8.304405319458352,41.37551549548511
pt.ine.add.PTCONT.477266,AV ABADE TAGILDE,1223,4815-471,VIZELA,-8.304405319458352,41.37551549548511
pt.ine.add.PTCONT.477267,TV CARREIRAS,259 B,4815-107,ÍNFIAS VIZ,-8.303602341357388,41.39760355967431
pt.ine.add.PTCONT.477268,R ALEGRIA,179,4815-075,ÍNFIAS VIZ,-8.308496125265485,41.3987397132523
pt.ine.add.PTCONT.477269,R ALEGRIA,167,4815-075,ÍNFIAS VIZ,-8.308496125265485,41.3987397132523
pt.ine.add.PTCONT.477339,R PE DO MONTE,525,4815-089,ÍNFIAS VIZ,-8.307171691509716,41.39086321457114
pt.ine.add.PTCONT.477340,RUELA NARIDO,888,4815-613,TAGILDE,-8.276571773815762,41.38399934681053
pt.ine.add.PTCONT.477458,R S SALVADOR,408,4815-589,TAGILDE,-8.285849655134692,41.374028940818945
pt.ine.add.PTCONT.477459,R S SALVADOR,132,4815-589,TAGILDE,-8.287672752358581,41.371586409927666
pt.ine.add.PTCONT.477555,R INDEPENDÊNCIA,194,4815-601,TAGILDE,-8.288024570396713,41.36873165270272
pt.ine.add.PTCONT.477556,R PORTA DE FERRO,109,4815-678,SANTO ADRIÃO VIZELA,-8.288608021593959,41.372818704500666
pt.ine.add.PTCONT.477557,R LIBERDADE,24,4815-685,SANTO ADRIÃO VIZELA,-8.288531030416573,41.37060381257542
pt.ine.add.PTCONT.477558,R LAGOAS,483,4815-687,SANTO ADRIÃO VIZELA,-8.292146759564677,41.373056977657
pt.ine.add.PTCONT.477668,R ILHA DOS AMORES,312B,4815-674,SANTO ADRIÃO VIZELA,-8.295954093766596,41.3707466167301
pt.ine.add.PTCONT.477756,R ALFAXIM,404,4815-665,SANTO ADRIÃO VIZELA,-8.29039899191968,41.362056424672986
pt.ine.add.PTCONT.477757,R ALFAXIM,388,4815-665,SANTO ADRIÃO VIZELA,-8.29039899191968,41.362056424672986
pt.ine.add.PTCONT.477758,R MIGUEL BASTOS MIRANDA,138,4815-669,SANTO ADRIÃO VIZELA,-8.278667651667753,41.35884840456314
pt.ine.add.PTCONT.477914,R NOVA DE PENABESTEIRA,696,4620-557,SANTA EULÁLIA VIZ,-8.313157686385862,41.35464873738814
pt.ine.add.PTCONT.477915,R NOVA PENABESTEIRA,644,4620-557,SANTA EULÁLIA VIZ,-8.313157686385862,41.35464873738814
pt.ine.add.PTCONT.477916,TV LAVANDEIRA,142,4620-550,SANTA EULÁLIA VIZ,-8.304932259071602,41.35771369207348
pt.ine.add.PTCONT.477985,AV BOMBEIROS VOLUNTARIOS,593,4815-394,VIZELA,-8.313095816558409,41.37556525953956
pt.ine.add.PTCONT.477986,TV BARROCAS,17,4815-450,VIZELA,-8.315065414228824,41.37457171754855
pt.ine.add.PTCONT.477987,TV BARROCAS,17,4815-450,VIZELA,-8.315065414228824,41.37457171754855
pt.ine.add.PTCONT.478079,R CRUZ DE VILAR,834,4815-404,VIZELA,-8.31820747457553,41.37396343569024
pt.ine.add.PTCONT.478080,R CHARCA,29,4815-406,VIZELA,-8.317444886794009,41.36635623817251
pt.ine.add.PTCONT.478081,R NOVA DOS CASAIS,1257,4815-436,VIZELA,-8.31712266180444,41.370768739206234
pt.ine.add.PTCONT.478082,R LIBERDADE,37,4815-410,VIZELA,-8.319684703431362,41.37221426551771
pt.ine.add.PTCONT.478083,R LIBERDADE,37,4815-410,VIZELA,-8.319684703431362,41.37221426551771
pt.ine.add.PTCONT.478084,R OUTEIRO,284,4815-420,VIZELA,-8.319860600362226,41.37102544603152
pt.ine.add.PTCONT.478174,R CRUZ CAIDA,97,4815-408,VIZELA,-8.307676140149953,41.369360816684924
pt.ine.add.PTCONT.478171,R AGOSTINHO DE LIMA,315,4815-396,VIZELA,-8.312901458362482,41.374440058123284
pt.ine.add.PTCONT.478172,R GUILHERME CALDAS PEIXOTO CASA DO CANTINHO,531,4815-433,VIZELA,-8.310821204714806,41.36992325809246
pt.ine.add.PTCONT.478173,R CRUZ CAIDA,97,4815-408,VIZELA,-8.307676140149953,41.369360816684924
pt.ine.add.PTCONT.478175,R CRUZ CAIDA,97,4815-408,VIZELA,-8.307676140149953,41.369360816684924
pt.ine.add.PTCONT.479182,R PACO,14,4815-665,SANTO ADRIÃO VIZELA,-8.292768217532679,41.36323269435739
pt.ine.add.PTCONT.479211,AV BOMBEIROS VOLUNTARIOS,,4815-394,VIZELA,-8.313236112898972,41.37600552669642
pt.ine.add.PTCONT.479268,CAM MOUSELAS,188,4815-055,VIZELA,-8.289510869448197,41.380461911567984
pt.ine.add.PTCONT.479360,TV LATINO COELHO,88,4815-453,VIZELA,-8.310295892907932,41.37455214795837
pt.ine.add.PTCONT.479383,R S PAIO,286,4815-582,SÃO PAIO VIZELA,-8.266528874523535,41.377924701417705
pt.ine.add.PTCONT.479561,R SOUTO,383,4620-602,SANTA EULÁLIA VIZ,-8.28774061010326,41.3497604631033
pt.ine.add.PTCONT.479546,CC POUSADA,57,4620-596,SANTA EULÁLIA VIZ,-8.28919205842926,41.35711483485452
pt.ine.add.PTCONT.479547,CC POUSADA,57,4620-596,SANTA EULÁLIA VIZ,-8.28919205842926,41.35711483485452
pt.ine.add.PTCONT.479548,CC POUSADA,308,4620-596,SANTA EULÁLIA VIZ,-8.288227053756895,41.35836770536194
pt.ine.add.PTCONT.479549,R PRADOS,1589,4620-597,SANTA EULÁLIA VIZ,-8.287288982205725,41.35585682997215
pt.ine.add.PTCONT.479550,R SENHORA DOS MILAGRES,74,4620-579,SANTA EULÁLIA VIZ,-8.305546773304181,41.36415067903591
pt.ine.add.PTCONT.479551,R SENHORA DE FÁTIMA,374,4620-557,SANTA EULÁLIA VIZ,-8.311461887950287,41.35504755712031
pt.ine.add.PTCONT.479552,R SENHORA DE FÁTIMA,374,4620-557,SANTA EULÁLIA VIZ,-8.311461887950287,41.35504755712031
pt.ine.add.PTCONT.479559,TV MONTE,,4620-592,SANTA EULÁLIA VIZ,-8.286160632460918,41.35370636209673
pt.ine.add.PTCONT.479560,R PRADOS,1260,4620-597,SANTA EULÁLIA VIZ,-8.286995393913429,41.35297591868029
pt.ine.add.PTCONT.481882,R DR ABILIO TORRES,1008,4815-552,VIZELA,-8.309138320938485,41.375265243806766
pt.ine.add.PTCONT.481886,R RIO VIZELA,213,4815-423,VIZELA,-8.313820929246003,41.374096464276036
pt.ine.add.PTCONT.481896,R BOCA,71,4815-640,VIZELA,-8.304726702458664,41.36589869215394
pt.ine.add.PTCONT.481902,R S BENTO,549,4815-496,VIZELA,-8.302269109584246,41.3768692615785
pt.ine.add.PTCONT.481903,R FRADES,361,4815-493,VIZELA,-8.299895100856116,41.374081473823786
pt.ine.add.PTCONT.481904,R FRADES,365,4815-493,VIZELA,-8.299895100856116,41.374081473823786
pt.ine.add.PTCONT.481905,R FRADES,355,4815-493,VIZELA,-8.299895100856116,41.374081473823786
pt.ine.add.PTCONT.481906,R VEIGAS,1142,4815-491,VIZELA,-8.311358778200825,41.38732722890248
pt.ine.add.PTCONT.481910,R PACO DO VILAR,121,4815-438,VIZELA,-8.31792492668375,41.37127168025803
pt.ine.add.PTCONT.481911,R PORTELADINHA,528,4815-440,VIZELA,-8.31150550565073,41.36664472420531
pt.ine.add.PTCONT.481933,TV 5 DE OUTUBRO,,4815-648,VIZELA,-8.305473618302269,41.377188651816105
pt.ine.add.PTCONT.481912,R PORTELADINHA,480,4815-440,VIZELA,-8.31150550565073,41.36664472420531
pt.ine.add.PTCONT.481914,R VEIGAS,196,4620-578,SANTA EULÁLIA VIZ,-8.30337372299661,41.360390216459635
pt.ine.add.PTCONT.481915,R VEIGAS,196 190,4620-578,SANTA EULÁLIA VIZ,-8.30337372299661,41.360390216459635
pt.ine.add.PTCONT.481917,R CRUZ CAIDA,157,4815-408,VIZELA,-8.30801182443446,41.36973847712309
pt.ine.add.PTCONT.481920,R S BENTO,,4815-496,VIZELA,-8.301795930899681,41.37879682033136
pt.ine.add.PTCONT.481921,R FRADES,258,4815-493,VIZELA,-8.301248434269693,41.37508795728624
pt.ine.add.PTCONT.481922,R FRADES,258,4815-493,VIZELA,-8.301248434269693,41.37508795728624
pt.ine.add.PTCONT.481923,R HERDADE,429,4815-578,SÃO PAIO VIZELA,-8.256004607178868,41.388183010811666
pt.ine.add.PTCONT.481924,TV FERMIL,1112,4815-492,VIZELA,-8.318833815109029,41.38824282122821
pt.ine.add.PTCONT.481925,R DR ABILIO TORRES,786,4815-552,VIZELA,-8.309714238484398,41.37605671702252
pt.ine.add.PTCONT.481926,R DR ABILIO TORRES,766,4815-552,VIZELA,-8.309714238484398,41.37605671702252
pt.ine.add.PTCONT.481927,R S PAIO,793,4815-582,SÃO PAIO VIZELA,-8.264504317610115,41.381726734499
pt.ine.add.PTCONT.481928,R BOAVISTA,200B,4815-076,ÍNFIAS VIZ,-8.310800597277384,41.3974846208181
pt.ine.add.PTCONT.481929,TV 5 DE OUTUBRO,,4815-648,VIZELA,-8.305473618302269,41.377188651816105
pt.ine.add.PTCONT.481930,TV 5 DE OUTUBRO,,4815-648,VIZELA,-8.305473618302269,41.377188651816105
pt.ine.add.PTCONT.481931,TV 5 DE OUTUBRO,,4815-648,VIZELA,-8.305473618302269,41.377188651816105
pt.ine.add.PTCONT.481932,TV 5 DE OUTUBRO,,4815-648,VIZELA,-8.305473618302269,41.377188651816105
pt.ine.add.PTCONT.481934,TV 5 DE OUTUBRO,,4815-648,VIZELA,-8.305473618302269,41.377188651816105
pt.ine.add.PTCONT.481935,TV 5 DE OUTUBRO,,4815-648,VIZELA,-8.305473618302269,41.377188651816105
pt.ine.add.PTCONT.481936,TV DEVESA DA TORRE,399,4815-101,ÍNFIAS VIZ,-8.308553517736602,41.397848229199745
pt.ine.add.PTCONT.481937,TV DEVESA DA TORRE,399,4815-101,ÍNFIAS VIZ,-8.308553517736602,41.397848229199745
pt.ine.add.PTCONT.481938,TV DEVESA DA TORRE,399,4815-101,ÍNFIAS VIZ,-8.308553517736602,41.397848229199745
pt.ine.add.PTCONT.481939,TV LAPA,150,4815-526,VIZELA,-8.313679556174188,41.387809827728105
pt.ine.add.PTCONT.481940,R LAGE,646,4815-483,VIZELA,-8.317713412581755,41.38101439082652
pt.ine.add.PTCONT.481941,LG CRUZEIRO,217,4815-073,ÍNFIAS VIZ,-8.309926757738852,41.397143814659145
pt.ine.add.PTCONT.481942,TV LAPA,2,4815-526,VIZELA,-8.314649764488427,41.388447586686176
pt.ine.add.PTCONT.481943,TV ALDEIA,186,4815-522,VIZELA,-8.319724156026245,41.386017387227085
pt.ine.add.PTCONT.481944,R CRUZ,61 B,4815-078,ÍNFIAS VIZ,-8.3117047980809,41.39580847545697
pt.ine.add.PTCONT.481945,R BOAVISTA,153,4815-076,ÍNFIAS VIZ,-8.310571074258634,41.39662959432199
pt.ine.add.PTCONT.481946,R BOAVISTA,77,4815-076,ÍNFIAS VIZ,-8.310571074258634,41.39662959432199
pt.ine.add.PTCONT.481947,R BOAVISTA,99,4815-076,ÍNFIAS VIZ,-8.310571074258634,41.39662959432199
pt.ine.add.PTCONT.481948,R BOAVISTA,77 A,4815-076,ÍNFIAS VIZ,-8.310571074258634,41.39662959432199
pt.ine.add.PTCONT.481949,R BOAVISTA,77 B,4815-076,ÍNFIAS VIZ,-8.310571074258634,41.39662959432199
pt.ine.add.PTCONT.481950,R BOAVISTA,77 C,4815-076,ÍNFIAS VIZ,-8.310571074258634,41.39662959432199
pt.ine.add.PTCONT.481951,R BOAVISTA,77 D,4815-076,ÍNFIAS VIZ,-8.310571074258634,41.39662959432199
pt.ine.add.PTCONT.481952,R S PAIO,598,4815-582,SÃO PAIO VIZELA,-8.26454854728308,41.37994388497787
pt.ine.add.PTCONT.481953,R S PAIO,606,4815-582,SÃO PAIO VIZELA,-8.26454854728308,41.37994388497787
pt.ine.add.PTCONT.481954,R 5 MAIO,,4815-562,ÍNFIAS VIZ,-8.309827104981345,41.391255343907844
pt.ine.add.PTCONT.481955,RUELA DE NARIDO,647 C,4815-613,TAGILDE,-8.279465428774152,41.38421179959027
pt.ine.add.PTCONT.481956,R PE DO MONTE,219,4815-089,ÍNFIAS VIZ,-8.308861024346294,41.3921482210921
pt.ine.add.PTCONT.481957,R ALFAXIM,702,4815-665,SANTO ADRIÃO VIZELA,-8.292528573423578,41.36298091284433
pt.ine.add.PTCONT.481958,R FONTANARIO,98,4815-665,SANTO ADRIÃO VIZELA,-8.291212176524683,41.36226240384502
pt.ine.add.PTCONT.481959,R CARVALHINHOS,11,4815-669,SANTO ADRIÃO VIZELA,-8.280711191649903,41.35883679771158
pt.ine.add.PTCONT.482038,R SUB-QUINTÃO,24,4815-662,VIZELA,-8.30947314679226,41.38416071746745
pt.ine.add.PTCONT.482074,R PORTELADINHA,,4815-440,VIZELA,-8.31150550565073,41.36664472420531
pt.ine.add.PTCONT.482120,TV MOUSELAS,42,4815-534,VIZELA,-8.293349134061213,41.38079878415287
pt.ine.add.PTCONT.482132,TV 5 DE OUTUBRO,,4815-648,VIZELA,-8.305473618302269,41.377188651816105
pt.ine.add.PTCONT.482478,R CENTRAL,299,4815-608,TAGILDE,-8.277283583586378,41.376092913558765
pt.ine.add.PTCONT.482482,R DR PEREIRA CALDAS,93,4815-516,VIZELA,-8.309502135586515,41.37719155132152
pt.ine.add.PTCONT.482584,R IMPEDIDOS,445,4620-557,SANTA EULÁLIA VIZ,-8.313711660547265,41.356196569872814
pt.ine.add.PTCONT.482585,RUELA DO BARREIRO,101,4620-525,SANTA EULÁLIA VIZ,-8.305715578499916,41.360188638486015
pt.ine.add.PTCONT.482586,TV BOM VIVER,305,4620-529,SANTA EULÁLIA VIZ,-8.304995268020754,41.354409103520965
pt.ine.add.PTCONT.482587,R SOUTO,401,4620-602,SANTA EULÁLIA VIZ,-8.28782463665633,41.349922423668616
pt.ine.add.PTCONT.482588,CC POUSADA,60,4620-596,SANTA EULÁLIA VIZ,-8.288772896099179,41.35673723155801
pt.ine.add.PTCONT.482589,R LAMARÃO,371,4620-548,SANTA EULÁLIA VIZ,-8.301051287334815,41.35885393358657
pt.ine.add.PTCONT.482590,R VINHA,422,4620-581,SANTA EULÁLIA VIZ,-8.291701035935757,41.35686829484285
pt.ine.add.PTCONT.482598,CAM QUINTELA,,4620-565,SANTA EULÁLIA VIZ,-8.301380416679493,41.352082389736
pt.ine.add.PTCONT.482703,PCT DR ARMENIO CALDAS,,4815-653,VIZELA,-8.303271338867514,41.376138456707764
pt.ine.add.PTCONT.482704,PCT DR ARMENIO CALDAS,,4815-653,VIZELA,-8.303271338867514,41.376138456707764
pt.ine.add.PTCONT.482705,PCT DR ARMENIO CALDAS,,4815-653,VIZELA,-8.303271338867514,41.376138456707764
pt.ine.add.PTCONT.482706,PCT DR ARMENIO CALDAS,,4815-653,VIZELA,-8.303271338867514,41.376138456707764
pt.ine.add.PTCONT.482928,PCT DR ARMENIO CALDAS,,4815-653,VIZELA,-8.303271338867514,41.376138456707764
pt.ine.add.PTCONT.482929,PCT DR ARMENIO CALDAS,,4815-653,VIZELA,-8.303271338867514,41.376138456707764
pt.ine.add.PTCONT.482930,TV CASCALHEIRA,7,4815-523,VIZELA,-8.303638684708222,41.37490435922564
pt.ine.add.PTCONT.482931,TV CASCALHEIRA,12,4815-523,VIZELA,-8.303638684708222,41.37490435922564
pt.ine.add.PTCONT.482932,R PACOS,221,4815-084,ÍNFIAS VIZ,-8.31444747046592,41.39739789527481
pt.ine.add.PTCONT.483110,R BOCO,976,4815-604,TAGILDE,-8.273285800508825,41.384804755163856
pt.ine.add.PTCONT.483111,R VILA CORNEIRA,16,4815-632,TAGILDE,-8.267228730909938,41.37527669954695
pt.ine.add.PTCONT.483261,R VILA CORNEIRA,1077,4815-632,TAGILDE,-8.275975654176777,41.37382552566272
pt.ine.add.PTCONT.483262,R DR ANTÓNIO PINTO,167,4815-680,SANTO ADRIÃO VIZELA,-8.294989040719505,41.37200854510865
pt.ine.add.PTCONT.483263,TV ILHA DOS AMORES,12,4815-674,SANTO ADRIÃO VIZELA,-8.295068870951543,41.37045973637559
pt.ine.add.PTCONT.483264,R REGEDOR MIGUEL COSTA,174,4815-686,SANTO ADRIÃO VIZELA,-8.283238146366868,41.366369929846435
pt.ine.add.PTCONT.483265,R FELGUEIRAS,752 D,4815-667,SANTO ADRIÃO VIZELA,-8.284607010490346,41.3639460440931
pt.ine.add.PTCONT.483266,R JUNQUEIRA,508,4815-671,SANTO ADRIÃO VIZELA,-8.282458753194424,41.36527244887299
pt.ine.add.PTCONT.483435,R JUNQUEIRA,20,4815-671,SANTO ADRIÃO VIZELA,-8.280729103691682,41.361474966384236
pt.ine.add.PTCONT.483436,R BOUCA,228,4815-576,SÃO PAIO VIZELA,-8.25475637420559,41.39202005022342
pt.ine.add.PTCONT.483437,LG S GONCALO,132,4815-573,SÃO PAIO VIZELA,-8.263248270425688,41.38732866829049
pt.ine.add.PTCONT.483588,CAM LAMELA,104,4620-525,SANTA EULÁLIA VIZ,-8.304762300220155,41.36125254393007
pt.ine.add.PTCONT.483589,CAM LAMELA,118,4620-525,SANTA EULÁLIA VIZ,-8.304762300220155,41.36125254393007
pt.ine.add.PTCONT.483590,R S PAIO,705,4815-582,SÃO PAIO VIZELA,-8.264538478050637,41.38088031622962
pt.ine.add.PTCONT.483591,R S PAIO,543,4815-582,SÃO PAIO VIZELA,-8.265062518580912,41.379907280621595
pt.ine.add.PTCONT.483592,R S PAIO,543,4815-582,SÃO PAIO VIZELA,-8.265062518580912,41.379907280621595
pt.ine.add.PTCONT.483745,CAM LAMELA,104,4620-525,SANTA EULÁLIA VIZ,-8.304762300220155,41.36125254393007
pt.ine.add.PTCONT.483746,CAM LAMELA,144,4620-525,SANTA EULÁLIA VIZ,-8.304762300220155,41.36125254393007
pt.ine.add.PTCONT.483747,R VEIGAS,132,4620-578,SANTA EULÁLIA VIZ,-8.302789554838695,41.36094032720286
pt.ine.add.PTCONT.483748,R S PAIO,543,4815-582,SÃO PAIO VIZELA,-8.265062518580912,41.379907280621595
pt.ine.add.PTCONT.483749,R S PAIO,543,4815-582,SÃO PAIO VIZELA,-8.265062518580912,41.379907280621595
pt.ine.add.PTCONT.484024,QLHA MONTE,30,4620-592,SANTA EULÁLIA VIZ,-8.285659291547729,41.353941133714564
pt.ine.add.PTCONT.484025,R VILA POUCA,738,4620-580,SANTA EULÁLIA VIZ,-8.292444681032578,41.35308555637185
pt.ine.add.PTCONT.484156,R LATINO COELHO,341,4815-435,VIZELA,-8.30935185793295,41.374661646142926
pt.ine.add.PTCONT.484284,R ELISA TORRES SOARES,2,4815-430,VIZELA,-8.307351547400508,41.36865899257778
pt.ine.add.PTCONT.484285,R FORMIGOSA,,4815-409,VIZELA,-8.31509245073385,41.36711632281204
pt.ine.add.PTCONT.484286,R SAUDADE,929,4815-413,VIZELA,-8.3040869557923,41.36806061761471
pt.ine.add.PTCONT.484287,R SAUDADE,658,4815-413,VIZELA,-8.305335348184439,41.3655556287305
pt.ine.add.PTCONT.484288,R SAUDADE,658,4815-413,VIZELA,-8.30544267733053,41.36546542748448
pt.ine.add.PTCONT.484289,R SAUDADE,2067,4815-413,VIZELA,-8.304617551047736,41.36529558304507
pt.ine.add.PTCONT.484290,R CASAIS,99,4815-425,VIZELA,-8.311230903102878,41.36675319821934
pt.ine.add.PTCONT.484291,R ENTRONCAMENTO,63,4815-418,VIZELA,-8.307580757909909,41.3649759867774
pt.ine.add.PTCONT.484292,R S BENTO,1063,4815-496,VIZELA,-8.295361991995385,41.38259677016116
pt.ine.add.PTCONT.484422,VLA CASAL SOBRADO,1634,4815-714,VIZELA,-8.307420953591125,41.38570353297762
pt.ine.add.PTCONT.484423,R ALDEIA,59,4815-481,VIZELA,-8.320370662288818,41.38633147779294
pt.ine.add.PTCONT.484424,TV RIBAS,128,4815-536,VIZELA,-8.320706119294663,41.38657404003293
pt.ine.add.PTCONT.484554,R MONSENHOR JOSE DE SOUSA MONTEIRO,562,4815-484,VIZELA,-8.308770751906275,41.38082129654844
pt.ine.add.PTCONT.484555,R RECHA,212,4815-487,VIZELA,-8.313052145980205,41.37706900248694
pt.ine.add.PTCONT.484658,R DR PEREIRA DE FREITAS,326,4815-509,VIZELA,-8.312313373034833,41.37793454297185
pt.ine.add.PTCONT.484777,R DR PEREIRA FREITAS,335,4815-509,VIZELA,-8.312313373034833,41.37793454297185
pt.ine.add.PTCONT.484778,R DR PEREIRA CALDAS,115,4815-516,VIZELA,-8.309502378855019,41.377281591334814
pt.ine.add.PTCONT.484779,R DR PEREIRA CALDAS,37,4815-516,VIZELA,-8.309704354788776,41.37682207557788
pt.ine.add.PTCONT.484780,R BELMENSE,253,4815-501,VIZELA,-8.311282861474528,41.37703573932912
pt.ine.add.PTCONT.484781,R DR ABILIO TORRES,796,4815-552,VIZELA,-8.309857610682169,41.376029484782855
pt.ine.add.PTCONT.484782,R DR ABILIO TORRES,796,4815-552,VIZELA,-8.309857610682169,41.376029484782855
pt.ine.add.PTCONT.484783,R DR ABILIO TORRES,796,4815-552,VIZELA,-8.309857610682169,41.376029484782855
pt.ine.add.PTCONT.485092,R BACELO,1322,4815-499,VIZELA,-8.311994472815735,41.383706624192705
pt.ine.add.PTCONT.485176,R FELGUEIRAS,752 B,4815-667,SANTO ADRIÃO VIZELA,-8.284607010490346,41.3639460440931
pt.ine.add.PTCONT.485424,R FRADES DE CIMA,490,4815-512,VIZELA,-8.29865288092236,41.374452433307
pt.ine.add.PTCONT.485425,R FRADES DE CIMA,490,4815-512,VIZELA,-8.29865288092236,41.374452433307
pt.ine.add.PTCONT.485573,VLA VEIGAS,49,4620-578,SANTA EULÁLIA VIZ,-8.302619810765988,41.3600041545536
pt.ine.add.PTCONT.485579,R LAMARÃO,,4620-548,SANTA EULÁLIA VIZ,-8.300506772123525,41.35622553844253
pt.ine.add.PTCONT.485580,R LAVANDEIRA,108,4620-550,SANTA EULÁLIA VIZ,-8.304770326799739,41.35521080184918
pt.ine.add.PTCONT.485581,R LAVANDEIRA,120,4620-550,SANTA EULÁLIA VIZ,-8.304746852618274,41.355372910180165
pt.ine.add.PTCONT.485582,R REQUEIXOS,1018,4620-580,SANTA EULÁLIA VIZ,-8.298210891850927,41.35092545397122
pt.ine.add.PTCONT.485583,R REQUEIXOS,1018,4620-580,SANTA EULÁLIA VIZ,-8.298210891850927,41.35092545397122
pt.ine.add.PTCONT.485597,R REQUEIXOS,1018,4620-580,SANTA EULÁLIA VIZ,-8.298210891850927,41.35092545397122
pt.ine.add.PTCONT.485598,R REQUEIXOS,1018,4620-580,SANTA EULÁLIA VIZ,-8.298210891850927,41.35092545397122
pt.ine.add.PTCONT.485599,R REQUEIXOS,1018,4620-580,SANTA EULÁLIA VIZ,-8.298210891850927,41.35092545397122
pt.ine.add.PTCONT.485600,R REQUEIXOS,1018,4620-580,SANTA EULÁLIA VIZ,-8.298210891850927,41.35092545397122
pt.ine.add.PTCONT.485601,R REQUEIXOS,1018,4620-580,SANTA EULÁLIA VIZ,-8.298210891850927,41.35092545397122
pt.ine.add.PTCONT.485602,R REQUEIXOS,1018,4620-580,SANTA EULÁLIA VIZ,-8.298210891850927,41.35092545397122
pt.ine.add.PTCONT.485603,R MONTE,348,4620-592,SANTA EULÁLIA VIZ,-8.282902595187394,41.35555648422406
pt.ine.add.PTCONT.485604,R INFISTELA,158,4620-602,SANTA EULÁLIA VIZ,-8.28876416570828,41.3530725848977
pt.ine.add.PTCONT.485610,R PENABESTEIRA,162,4620-557,SANTA EULÁLIA VIZ,-8.30933193445668,41.35398835746901
pt.ine.add.PTCONT.485611,R CARREIRA CHÃ,281,4620-537,SANTA EULÁLIA VIZ,-8.308825614363219,41.35234138564926
pt.ine.add.PTCONT.485612,CC CARREIRA CHÃ,40,4620-537,SANTA EULÁLIA VIZ,-8.307238738378754,41.35324420524538
pt.ine.add.PTCONT.485613,VLA BARREIROS,6,4620-525,SANTA EULÁLIA VIZ,-8.305459933432607,41.35388617224021
pt.ine.add.PTCONT.485614,R REQUEIXOS,163,4620-580,SANTA EULÁLIA VIZ,-8.299735417325026,41.344287245714895
pt.ine.add.PTCONT.485615,TV REQUEIXOS,78,4620-564,SANTA EULÁLIA VIZ,-8.298134093547755,41.34417249971591
pt.ine.add.PTCONT.485638,R MONTE,235,4620-592,SANTA EULÁLIA VIZ,-8.284168904012462,41.355383751664164
pt.ine.add.PTCONT.485640,R ÁGUA LEVADA,102,4620-521,SANTA EULÁLIA VIZ,-8.305014856333756,41.35277033243494
pt.ine.add.PTCONT.487996,AV BOMBEIROS VOLUNTARIOS,627,4815-394,VIZELA,-8.313286976123557,41.375528944233274
pt.ine.add.PTCONT.487997,TV CASAL DA BOUCA,112,4815-712,VIZELA,-8.315570963834853,41.36726863404112
pt.ine.add.PTCONT.487998,TV PADIM,4168,4815-535,VIZELA,-8.302536091668731,41.37840855937912
pt.ine.add.PTCONT.487999,R COMEND JOSE LUIS DE ALMEIDA,239,4815-402,VIZELA,-8.31601069925809,41.3749123726196
pt.ine.add.PTCONT.488000,R S JOÃO,716,4815-441,VIZELA,-8.315926579925549,41.366214595264665
pt.ine.add.PTCONT.488001,TV PADIM,4166,4815-535,VIZELA,-8.302536091668731,41.37840855937912
pt.ine.add.PTCONT.488002,R PADIM,1145,4815-495,VIZELA,-8.302667213838477,41.378264301655356
pt.ine.add.PTCONT.488003,R PADIM,1147,4815-495,VIZELA,-8.302667213838477,41.378264301655356
pt.ine.add.PTCONT.488005,TV S BENTO,824,4815-537,VIZELA,-8.301660528398981,41.37728434037963
pt.ine.add.PTCONT.488010,R ELISA TORRES SOARES,241,4815-430,VIZELA,-8.307742823352472,41.367478868528984
pt.ine.add.PTCONT.488012,R NOVA,975 A,4815-436,VIZELA,-8.316007217860612,41.369401901895564
pt.ine.add.PTCONT.488013,R NOVA,975 B,4815-436,VIZELA,-8.316007217860612,41.369401901895564
pt.ine.add.PTCONT.488014,R NOVA,975 D,4815-436,VIZELA,-8.316007217860612,41.369401901895564
pt.ine.add.PTCONT.488015,R NOVA,975 E,4815-436,VIZELA,-8.316007217860612,41.369401901895564
pt.ine.add.PTCONT.488016,R NOVA,975 F,4815-436,VIZELA,-8.316007217860612,41.369401901895564
pt.ine.add.PTCONT.488017,R NOVA,975 G,4815-436,VIZELA,-8.316007217860612,41.369401901895564
pt.ine.add.PTCONT.488018,R NOVA,975 H,4815-436,VIZELA,-8.316007217860612,41.369401901895564
pt.ine.add.PTCONT.488019,R NOVA DOS CASAIS,975,4815-436,VIZELA,-8.316007217860612,41.369401901895564
pt.ine.add.PTCONT.488020,R NOVA DOS CASAIS,975,4815-436,VIZELA,-8.316007217860612,41.369401901895564
pt.ine.add.PTCONT.488021,R NOVA,975 J,4815-436,VIZELA,-8.316007217860612,41.369401901895564
pt.ine.add.PTCONT.488022,R ENGEIO,350,4815-502,VIZELA,-8.305395784195824,41.383932789578395
pt.ine.add.PTCONT.488023,R ENGEIO,350,4815-502,VIZELA,-8.305395784195824,41.383932789578395
pt.ine.add.PTCONT.488026,R PACO DO VILAR,681,4815-438,VIZELA,-8.318380030813584,41.37158609011799
pt.ine.add.PTCONT.488027,R PACO VILAR,152,4815-438,VIZELA,-8.317614634762302,41.37144325506328
pt.ine.add.PTCONT.488028,R S PAULO S JOAO CALDAS,600,4815-443,VIZELA,-8.315593559948613,41.36680038739259
pt.ine.add.PTCONT.488029,R S PAULO S CALDAS,600,4815-443,VIZELA,-8.315593559948613,41.36680038739259
pt.ine.add.PTCONT.488034,R LIBERDADE,362,4815-410,VIZELA,-8.320385234614749,41.37057439105603
pt.ine.add.PTCONT.488038,R SA,705A,4620-569,SANTA EULÁLIA VIZ,-8.294299599475524,41.35903466544192
pt.ine.add.PTCONT.488039,R FERREIRA CALDAS,123,4815-431,VIZELA,-8.308147255640435,41.37567193739786
pt.ine.add.PTCONT.488040,PCT ALTO SILVARES,30,4620-520,SANTA EULÁLIA VIZ,-8.296164291691472,41.363975269806126
pt.ine.add.PTCONT.488041,TV VISTA ALEGRE,118,4815-551,VIZELA,-8.315278999182562,41.37829004795844
pt.ine.add.PTCONT.488042,R AGUA NOVA,119,4815-598,TAGILDE,-8.279547234478446,41.37804393208092
pt.ine.add.PTCONT.488043,R 25 DE ABRIL,40,4815-647,VIZELA,-8.302733698748394,41.37624729893861
pt.ine.add.PTCONT.488044,R SANTA MARIA,1108,4815-390,ÍNFIAS VIZ,-8.30298508786962,41.399351249704644
pt.ine.add.PTCONT.488045,R S MARIA,954,4815-390,ÍNFIAS VIZ,-8.302685411102,41.3990725675986
pt.ine.add.PTCONT.488046,AV BOMBEIROS VOLUNTARIOS,65,4815-394,VIZELA,-8.310189147689083,41.37618732915011
pt.ine.add.PTCONT.488047,R S DOMINGOS,366,4815-581,SÃO PAIO VIZELA,-8.26537895489656,41.38268016000856
pt.ine.add.PTCONT.488048,R D MARIA ADELAIDE VILAS,90,4815-091,ÍNFIAS VIZ,-8.309905233629863,41.39802624038619
pt.ine.add.PTCONT.488049,R PEDREIRAS,184,4815-580,SÃO PAIO VIZELA,-8.262960352023565,41.38082808361047
pt.ine.add.PTCONT.488050,R PEDREIRAS,112,4815-580,SÃO PAIO VIZELA,-8.26232698584521,41.38094584902423
pt.ine.add.PTCONT.488051,R LAMELAS,203,4815-672,SANTO ADRIÃO VIZELA,-8.285880574474014,41.36680765113001
pt.ine.add.PTCONT.488052,TV VÁRZEA,212,4815-528,VIZELA,-8.316009119643327,41.38714885496385
pt.ine.add.PTCONT.488053,R LAGE,705,4815-483,VIZELA,-8.318276227495863,41.381346635753125
pt.ine.add.PTCONT.488054,R S PAIO,494,4815-582,SÃO PAIO VIZELA,-8.26496591864533,41.379430177377166
pt.ine.add.PTCONT.488055,R S PAIO,576,4815-582,SÃO PAIO VIZELA,-8.264237313937482,41.37973714719918
pt.ine.add.PTCONT.488056,R S PAIO,576,4815-582,SÃO PAIO VIZELA,-8.264237313937482,41.37973714719918
pt.ine.add.PTCONT.488057,R S GONÇALO,122,4815-624,TAGILDE,-8.271817827732608,41.38037655013092
pt.ine.add.PTCONT.488058,R TRANCOSA,921 923,4815-629,TAGILDE,-8.286691359209074,41.371056484954465
pt.ine.add.PTCONT.488059,R TRANCOSA,923,4815-629,TAGILDE,-8.286691359209074,41.371056484954465
pt.ine.add.PTCONT.488060,R PONTE VELHA,,4815-620,TAGILDE,-8.289349719702969,41.3680725653106
pt.ine.add.PTCONT.488061,R SANTO ANTÓNIO,,4815-689,SANTO ADRIÃO VIZELA,-8.29667534470713,41.36760317969541
pt.ine.add.PTCONT.488062,TV CIMO DE VILA,801,4815-521,VIZELA,-8.304161305261106,41.38275510336445
pt.ine.add.PTCONT.488063,R PE DO MONTE,539,4815-089,ÍNFIAS VIZ,-8.307064131099747,41.39088138525922
pt.ine.add.PTCONT.488064,BC MONTE,78,4815-612,TAGILDE,-8.286377465526693,41.374820594961754
pt.ine.add.PTCONT.488065,R SILVARES,51,4815-665,SANTO ADRIÃO VIZELA,-8.295580366689737,41.364660404195966
pt.ine.add.PTCONT.488066,R MIMOSAS,253,4815-664,SANTO ADRIÃO VIZELA,-8.295183815749368,41.3637965736069
pt.ine.add.PTCONT.488067,R 26 DE JUNHO,414,4815-587,SÃO PAIO VIZELA,-8.260387642240698,41.391833878873214
pt.ine.add.PTCONT.488068,R VISTA ALEGRE,628,4815-519,VIZELA,-8.315889368303255,41.37854119311818
pt.ine.add.PTCONT.488069,R FRADES,197R C,4815-493,VIZELA,-8.301703368735842,41.37535741295121
pt.ine.add.PTCONT.488070,R FRADES,197,4815-493,VIZELA,-8.301703368735842,41.37535741295121
pt.ine.add.PTCONT.488071,R LAGOAS,961,4815-687,SANTO ADRIÃO VIZELA,-8.28873549389253,41.37113477519312
pt.ine.add.PTCONT.488072,R LAGOAS,,4815-687,SANTO ADRIÃO VIZELA,-8.28873549389253,41.37113477519312
pt.ine.add.PTCONT.488073,R LAGOAS,961,4815-687,SANTO ADRIÃO VIZELA,-8.28873549389253,41.37113477519312
pt.ine.add.PTCONT.488074,R LAGOAS,961,4815-687,SANTO ADRIÃO VIZELA,-8.28873549389253,41.37113477519312
pt.ine.add.PTCONT.488319,S PAIO,,4815-755,TAGILDE,-8.259127442386855,41.38937716833988
pt.ine.add.PTCONT.488270,TV MATO,188,4815-544,VIZELA,-8.319528160293988,41.38436996824531
pt.ine.add.PTCONT.488373,R LATINO COELHO,151,4815-435,VIZELA,-8.310489007944389,41.37523615766387
pt.ine.add.PTCONT.488595,R INFISTELA,75,4620-602,SANTA EULÁLIA VIZ,-8.289648974163574,41.353296486746984
pt.ine.add.PTCONT.488596,VLA IMPEDIDOS,48,4620-557,SANTA EULÁLIA VIZ,-8.312995693320444,41.356575862178694
pt.ine.add.PTCONT.488597,R LAMARÃO,481,4620-548,SANTA EULÁLIA VIZ,-8.30154372406384,41.35980764505134
pt.ine.add.PTCONT.488598,R LAMARÃO,481,4620-548,SANTA EULÁLIA VIZ,-8.30154372406384,41.35980764505134
pt.ine.add.PTCONT.488599,R VENDA,,4620-579,SANTA EULÁLIA VIZ,-8.304299795114575,41.36262185041224
pt.ine.add.PTCONT.488600,R PESO,21,4620-559,SANTA EULÁLIA VIZ,-8.296136812143725,41.35775349975495
pt.ine.add.PTCONT.490835,R CIMO DE VILA,608,4815-480,VIZELA,-8.303600007855806,41.382981037094254
pt.ine.add.PTCONT.490844,R CRUZ DE VILAR,299,4815-404,VIZELA,-8.31827761179608,41.3734050721509
pt.ine.add.PTCONT.490845,R FRADES DE CIMA,397,4815-512,VIZELA,-8.298760942042469,41.37464136271938
pt.ine.add.PTCONT.490847,R PACO DO VILAR,152,4815-438,VIZELA,-8.317449683066597,41.37228989978476
pt.ine.add.PTCONT.490848,R PACO DO VILAR,146,4815-438,VIZELA,-8.318214833450801,41.37234269584953
pt.ine.add.PTCONT.490858,QTA CASALHEIRA,,4815-429,VIZELA,-8.301513683390075,41.3713328824871
pt.ine.add.PTCONT.490863,R BACELO,1110,4815-499,VIZELA,-8.311490485309092,41.38302310036075
pt.ine.add.PTCONT.490865,R FRADES,410,4815-493,VIZELA,-8.300170006509598,41.374072071022255
pt.ine.add.PTCONT.490866,R NACIONAL 106,571,4815-071,ÍNFIAS VIZ,-8.318650454388068,41.39523923690273
pt.ine.add.PTCONT.490867,R MATO,828,4815-505,VIZELA,-8.320860584974607,41.38624063924014
pt.ine.add.PTCONT.490868,LAD ROJAL,141,4815-269,TAGILDE,-8.26768812942112,41.377779286893556
pt.ine.add.PTCONT.490869,TV LARGO DAS TEIXUGUEIRAS,100,4815-543,VIZELA,-8.315718517399713,41.38156681972029
pt.ine.add.PTCONT.490870,CC QUINTAES,94,4815-595,TAGILDE,-8.2759572827459,41.37635568479554
pt.ine.add.PTCONT.490871,R ESPANHA,9,4815-669,SANTO ADRIÃO VIZELA,-8.278979514417072,41.359361241622494
pt.ine.add.PTCONT.490872,R S PAIO,677 685,4815-582,SÃO PAIO VIZELA,-8.26449022439376,41.38066427447901
pt.ine.add.PTCONT.490873,R S PAIO,677 685,4815-582,SÃO PAIO VIZELA,-8.26449022439376,41.38066427447901
pt.ine.add.PTCONT.490874,R PORTOS JUNIOR,255,4815-096,ÍNFIAS VIZ,-8.316041468792653,41.39442404923796
pt.ine.add.PTCONT.490875,R PEDREIRAS,281,4815-580,SÃO PAIO VIZELA,-8.26299569651116,41.38056692668697
pt.ine.add.PTCONT.490876,R SUB CARREIRA,955,4815-517,VIZELA,-8.312698302952727,41.38749622256111
pt.ine.add.PTCONT.490877,R SUB CARREIRA,955,4815-517,VIZELA,-8.312698302952727,41.38749622256111
pt.ine.add.PTCONT.490878,VLA CANEIROS,51,4815-427,TAGILDE,-8.277325074451815,41.373229575427374
pt.ine.add.PTCONT.490879,R CEDOFEITA,,4815-577,SÃO PAIO VIZELA,-8.262706382377013,41.39139909784981
pt.ine.add.PTCONT.490880,R DR PEREIRA CALDAS,109,4815-516,VIZELA,-8.309562051520995,41.377245483696605
pt.ine.add.PTCONT.490881,R ALTO DE SILVARES,100,4815-664,SANTO ADRIÃO VIZELA,-8.297063823885033,41.36523456007475
pt.ine.add.PTCONT.490882,R VISTA ALEGRE,356,4815-519,VIZELA,-8.316281078923305,41.377550126217834
pt.ine.add.PTCONT.490883,R NOVA DO FORUM,211,4815-738,VIZELA,-8.308308380084771,41.37780564956139
pt.ine.add.PTCONT.490884,R PE DO MONTE,355,4815-089,ÍNFIAS VIZ,-8.308690722915099,41.3910679991431
pt.ine.add.PTCONT.490885,R PACO,375,4815-665,SANTO ADRIÃO VIZELA,-8.292153582944609,41.366042811953605
pt.ine.add.PTCONT.490886,R VISTA ALEGRE,356,4815-519,VIZELA,-8.316281078923305,41.377550126217834
pt.ine.add.PTCONT.490887,PCT VISTA ALEGRE,356,4815-519,VIZELA,-8.316281078923305,41.377550126217834
pt.ine.add.PTCONT.490888,R VISTA ALEGRE,356,4815-519,VIZELA,-8.316281078923305,41.377550126217834
pt.ine.add.PTCONT.490889,R VISTA ALEGRE,356,4815-519,VIZELA,-8.316281078923305,41.377550126217834
pt.ine.add.PTCONT.490890,R VISTA ALEGRE,356,4815-519,VIZELA,-8.316281078923305,41.377550126217834
pt.ine.add.PTCONT.490891,R DR ABILIO TORRES,670,4815-552,VIZELA,-8.310325836260544,41.37677609998508
pt.ine.add.PTCONT.490892,TV ANDORINHAS,263,4815-105,ÍNFIAS VIZ,-8.31692380148368,41.39778113833353
pt.ine.add.PTCONT.490893,R PACOS,350,4815-084,ÍNFIAS VIZ,-8.315451412512118,41.39721622860205
pt.ine.add.PTCONT.490894,R TEIXUGUEIRAS,180,4815-490,VIZELA,-8.31429462370273,41.38110986483837
pt.ine.add.PTCONT.490895,R TEIXUGUEIRAS,180,4815-490,VIZELA,-8.31429462370273,41.38110986483837
pt.ine.add.PTCONT.490896,R ALIJO,80,4815-082,ÍNFIAS VIZ,-8.31235925449679,41.39899487622464
pt.ine.add.PTCONT.490897,LG GONDIVAI,3,4815-667,SANTO ADRIÃO VIZELA,-8.285702306442639,41.36212577642935
pt.ine.add.PTCONT.490898,R TEIXUGUEIRAS,180,4815-490,VIZELA,-8.31429462370273,41.38110986483837
pt.ine.add.PTCONT.490899,R TEIXUGUEIRAS,180,4815-490,VIZELA,-8.31429462370273,41.38110986483837
pt.ine.add.PTCONT.490900,R TEIXUGUEIRAS,180,4815-490,VIZELA,-8.31429462370273,41.38110986483837
pt.ine.add.PTCONT.490901,R TEIXUGUEIRAS,180,4815-490,VIZELA,-8.31429462370273,41.38110986483837
pt.ine.add.PTCONT.490902,R TEIXUGUEIRAS,180,4815-490,VIZELA,-8.31429462370273,41.38110986483837
pt.ine.add.PTCONT.490903,R TEIXUGUEIRAS,180,4815-490,VIZELA,-8.31429462370273,41.38110986483837
pt.ine.add.PTCONT.490904,R TEIXUGUEIRAS,180,4815-490,VIZELA,-8.31429462370273,41.38110986483837
pt.ine.add.PTCONT.490905,R TEIXUGUEIRAS,180,4815-490,VIZELA,-8.31429462370273,41.38110986483837
pt.ine.add.PTCONT.490986,R FRANCISCO COSTA,337,4815-432,VIZELA,-8.310953531648995,41.37462316584521
pt.ine.add.PTCONT.491170,R ELISA TORRES SOARES,455,4815-430,VIZELA,-8.308481853485347,41.36673040816177
pt.ine.add.PTCONT.491377,R CONDE VIZELA,260,4815-403,VIZELA,-8.321080698048812,41.3713386012416
pt.ine.add.PTCONT.491378,R CONDE VIZELA,260,4815-403,VIZELA,-8.321080698048812,41.3713386012416
pt.ine.add.PTCONT.491379,R CONDE VIZELA,260,4815-403,VIZELA,-8.321080698048812,41.3713386012416
pt.ine.add.PTCONT.491380,R SENHORA DE LURDES,528,4815-444,VIZELA,-8.309501038059047,41.36793539377108
pt.ine.add.PTCONT.491381,R SENHORA DE LURDES,528,4815-444,VIZELA,-8.309501038059047,41.36793539377108
pt.ine.add.PTCONT.491382,R SENHORA DE LURDES,528,4815-444,VIZELA,-8.309501038059047,41.36793539377108
pt.ine.add.PTCONT.491383,R SENHORA DE LURDES,528,4815-444,VIZELA,-8.309501038059047,41.36793539377108
pt.ine.add.PTCONT.491384,R SENHORA DE LURDES,528,4815-444,VIZELA,-8.309501038059047,41.36793539377108
pt.ine.add.PTCONT.491385,R SENHORA DE LURDES,528,4815-444,VIZELA,-8.309501038059047,41.36793539377108
pt.ine.add.PTCONT.491386,R SENHORA DE LURDES,528,4815-444,VIZELA,-8.309501038059047,41.36793539377108
pt.ine.add.PTCONT.491392,R SENHORA DE LURDES,528,4815-444,VIZELA,-8.309501038059047,41.36793539377108
pt.ine.add.PTCONT.491419,TV VISTA ALEGRE,270,4815-551,VIZELA,-8.314167659728911,41.378435866473566
pt.ine.add.PTCONT.491515,R PRADOS,789,4620-597,SANTA EULÁLIA VIZ,-8.286735816342595,41.349302600473166
pt.ine.add.PTCONT.491516,R BOM VIVER,275,4620-529,SANTA EULÁLIA VIZ,-8.304073600601562,41.35382521147231
pt.ine.add.PTCONT.491517,R PENABESTEIRA,195,4620-557,SANTA EULÁLIA VIZ,-8.309869356054353,41.353870480336916
pt.ine.add.PTCONT.491518,CAM POMARES,34,4620-561,SANTA EULÁLIA VIZ,-8.301794319043458,41.35966321295169
pt.ine.add.PTCONT.491519,QLHA PRADOS,84,4620-597,SANTA EULÁLIA VIZ,-8.285844873029417,41.356651113971644
pt.ine.add.PTCONT.491520,R SÁ,25A,4620-569,SANTA EULÁLIA VIZ,-8.287505637148058,41.35651383684318
pt.ine.add.PTCONT.491829,LG POLES,148,4815-659,VIZELA,-8.315858288222042,41.384519919382605
pt.ine.add.PTCONT.491830,LG POLES,148,4815-659,VIZELA,-8.315858288222042,41.384519919382605
pt.ine.add.PTCONT.491831,LG POLES,148,4815-659,VIZELA,-8.315858288222042,41.384519919382605
pt.ine.add.PTCONT.491832,LG POLES,148,4815-659,VIZELA,-8.315858288222042,41.384519919382605
pt.ine.add.PTCONT.491833,R MATO,539,4815-505,VIZELA,-8.3212247478029,41.38399804214535
pt.ine.add.PTCONT.491834,R VEIGA DE CIMA,61,4815-080,ÍNFIAS VIZ,-8.30960738475862,41.39843187789353
pt.ine.add.PTCONT.492395,R ABILIO MEIRA PACHECO,74,4815-670,SANTO ADRIÃO VIZELA,-8.283658311947178,41.36198440344768
pt.ine.add.PTCONT.492396,R 19 DE MARCO,161,4815-633,SÃO PAIO VIZELA,-8.26689757091701,41.37700586121919
pt.ine.add.PTCONT.492397,R 19 DE MARCO,161,4815-633,SÃO PAIO VIZELA,-8.26689757091701,41.37700586121919
pt.ine.add.PTCONT.492521,R MIMOSAS,214,4815-664,SANTO ADRIÃO VIZELA,-8.29506526031994,41.36418391510169
pt.ine.add.PTCONT.492522,R SEM NOME,,4815-665,SANTO ADRIÃO VIZELA,-8.292605624404262,41.36516879272742
pt.ine.add.PTCONT.492523,R CARRAL TELHADO,,4815-634,SÃO PAIO VIZELA,-8.252201528358192,41.39415667472321
pt.ine.add.PTCONT.493284,VLA PESO,79B,4620-602,SANTA EULÁLIA VIZ,-8.293548741534153,41.35986408886227
pt.ine.add.PTCONT.493285,VLA PESO,79 A,4620-602,SANTA EULÁLIA VIZ,-8.293548741534153,41.35986408886227
pt.ine.add.PTCONT.493286,R CRUZ DE VILAR,742,4815-404,VIZELA,-8.318911392139215,41.3734940910512
pt.ine.add.PTCONT.493287,R LIBERDADE,105,4815-410,VIZELA,-8.31993466163413,41.37184469410215
pt.ine.add.PTCONT.493288,PCT 10 DE JUNHO,,4815-602,VIZELA,-8.319477639701656,41.383424627187054
pt.ine.add.PTCONT.493289,PCT 10 DE JUNHO,,4815-602,VIZELA,-8.319477639701656,41.383424627187054
pt.ine.add.PTCONT.493290,PCT 10 DE JUNHO,,4815-602,VIZELA,-8.319477639701656,41.383424627187054
pt.ine.add.PTCONT.493291,PCT 10 DE JUNHO,,4815-602,VIZELA,-8.319477639701656,41.383424627187054
pt.ine.add.PTCONT.493292,PCT 10 DE JUNHO,,4815-602,VIZELA,-8.319477639701656,41.383424627187054
pt.ine.add.PTCONT.493293,PCT 10 DE JUNHO,,4815-602,VIZELA,-8.319477639701656,41.383424627187054
pt.ine.add.PTCONT.493427,R FRANCISCO COSTA,96,4815-432,VIZELA,-8.31135072594769,41.37562199996587
pt.ine.add.PTCONT.493428,PCT 10 DE JUNHO,,4815-602,VIZELA,-8.319477639701656,41.383424627187054
pt.ine.add.PTCONT.493429,PCT 10 DE JUNHO,,4815-602,VIZELA,-8.319477639701656,41.383424627187054
pt.ine.add.PTCONT.493430,PCT 10 DE JUNHO,,4815-602,VIZELA,-8.319477639701656,41.383424627187054
pt.ine.add.PTCONT.493431,TV LARGO DAS TEIXUGUEIRAS,82,4815-543,VIZELA,-8.315646839064021,41.38158494150598
pt.ine.add.PTCONT.493432,R BOM VIVER,324 320,4815-477,VIZELA,-8.315665334897176,41.37964904508636
pt.ine.add.PTCONT.493433,R BOM VIVER,324,4815-477,VIZELA,-8.315665334897176,41.37964904508636
pt.ine.add.PTCONT.493434,R PE DO MONTE,91,4815-089,ÍNFIAS VIZ,-8.309425593628724,41.39311078695498
pt.ine.add.PTCONT.493435,R NACIONAL 106,930,4815-071,ÍNFIAS VIZ,-8.319013867836022,41.39688638389257
pt.ine.add.PTCONT.493436,RUELA DE COUTOS DA LAMA,248,4815-590,TAGILDE,-8.279122958850568,41.37541529119279
pt.ine.add.PTCONT.493541,R S BENTO,1650,4815-496,VIZELA,-8.299664048332476,41.377224219014415
pt.ine.add.PTCONT.493542,R 25 DE ABRIL,180,4815-647,VIZELA,-8.30309503257751,41.377291234371256
pt.ine.add.PTCONT.493639,R PENAS DE GALO,54,4815-515,VIZELA,-8.311140773095124,41.38630110771567
pt.ine.add.PTCONT.493640,R AIDRO,122,4815-498,VIZELA,-8.308547436927313,41.38224427426846
pt.ine.add.PTCONT.493641,TV FERMIL,1226,4815-492,VIZELA,-8.31902629106623,41.38865669535012
pt.ine.add.PTCONT.493642,LG POLES,148,4815-659,VIZELA,-8.315858288222042,41.384519919382605
pt.ine.add.PTCONT.493643,LG POLES,148,4815-659,VIZELA,-8.315858288222042,41.384519919382605
pt.ine.add.PTCONT.493830,R CRUZ DE VILAR,742,4815-404,VIZELA,-8.318911392139215,41.3734940910512
pt.ine.add.PTCONT.493838,R HOSPITAL,48,4815-504,VIZELA,-8.315190824877014,41.37667846472967
pt.ine.add.PTCONT.493885,VLA PESO,79 A,4620-602,SANTA EULÁLIA VIZ,-8.293548741534153,41.35986408886227
pt.ine.add.PTCONT.493934,LG POLES,148,4815-659,VIZELA,-8.315858288222042,41.384519919382605
pt.ine.add.PTCONT.493991,LG POLES,148,4815-659,VIZELA,-8.315858288222042,41.384519919382605
pt.ine.add.PTCONT.494032,LG POLES,148,4815-659,VIZELA,-8.315858288222042,41.384519919382605
pt.ine.add.PTCONT.494115,R ENGEIO,994,4815-502,VIZELA,-8.307352931227337,41.38261525443195
pt.ine.add.PTCONT.494116,R AIDRINHO,827,4815-497,VIZELA,-8.309965361822272,41.384916300311545
pt.ine.add.PTCONT.494324,R PENAS DE GALO,19,4815-515,VIZELA,-8.311536023449392,41.386561612229464
pt.ine.add.PTCONT.494325,R SUB-CARREIRA,628,4815-517,VIZELA,-8.312851547081861,41.38670362927607
pt.ine.add.PTCONT.494326,R SUB-CARREIRA,628,4815-517,VIZELA,-8.312851547081861,41.38670362927607
pt.ine.add.PTCONT.494331,R PENAS DE GALO,19,4815-515,VIZELA,-8.311536023449392,41.386561612229464
pt.ine.add.PTCONT.494417,R FÁBRICA,,4815-667,SANTO ADRIÃO VIZELA,-8.284286871236997,41.35988563217487
pt.ine.add.PTCONT.494453,R VILA POUCA,1296,4620-580,SANTA EULÁLIA VIZ,-8.289608076683809,41.35617784639221
pt.ine.add.PTCONT.494454,RUELA DO BARREIRO,74,4620-525,SANTA EULÁLIA VIZ,-8.305381571337717,41.3604232446525
pt.ine.add.PTCONT.494455,TV SENHORA DE FÁTIMA,38B,4620-557,SANTA EULÁLIA VIZ,-8.308487925629873,41.355637392235515
pt.ine.add.PTCONT.494456,R REQUEIXOS,,4620-580,SANTA EULÁLIA VIZ,-8.299567824702653,41.344161430952
pt.ine.add.PTCONT.494457,R VEIGAS,178,4620-578,SANTA EULÁLIA VIZ,-8.303242450541935,41.36046244312147
pt.ine.add.PTCONT.494458,R BOM VIVER,199,4620-529,SANTA EULÁLIA VIZ,-8.303488017718204,41.35380807172026
pt.ine.add.PTCONT.494459,R BOM VIVER,199,4620-529,SANTA EULÁLIA VIZ,-8.303488017718204,41.35380807172026
pt.ine.add.PTCONT.494460,VLA MONTE,95,4620-592,SANTA EULÁLIA VIZ,-8.285027860116754,41.35476133986005
pt.ine.add.PTCONT.494461,VLA MONTE,95,4620-592,SANTA EULÁLIA VIZ,-8.285027860116754,41.35476133986005
pt.ine.add.PTCONT.494462,VLA MONTE,95,4620-592,SANTA EULÁLIA VIZ,-8.285027860116754,41.35476133986005
pt.ine.add.PTCONT.495520,R SANTA MARIA,569,4815-390,ÍNFIAS VIZ,-8.30351327533093,41.39555077763825
pt.ine.add.PTCONT.495521,R D MARIA ADELAIDE VILAS,101,4815-091,ÍNFIAS VIZ,-8.310192514137439,41.39813384669889
pt.ine.add.PTCONT.495522,R D MARIA ADELAIDE VILAS,101,4815-091,ÍNFIAS VIZ,-8.310192514137439,41.39813384669889
pt.ine.add.PTCONT.495523,R D MARIA ADELAIDE VILAS,134,4815-091,ÍNFIAS VIZ,-8.309918606759407,41.39854845216101
pt.ine.add.PTCONT.495524,R D MARIA ADELAIDE VILAS,200,4815-091,ÍNFIAS VIZ,-8.309918606759407,41.39854845216101
pt.ine.add.PTCONT.495525,R PORTOS JÚNIOR,1110,4815-096,ÍNFIAS VIZ,-8.308167003529379,41.396408176679536
pt.ine.add.PTCONT.495611,R GUILHERME PINTO VARELA,44,4815-094,ÍNFIAS VIZ,-8.313783240147714,41.39503088589203
pt.ine.add.PTCONT.495612,TV PENEDO,31,4815-553,ÍNFIAS VIZ,-8.310806105290759,41.39511655804211
pt.ine.add.PTCONT.495613,TV PENEDO,31,4815-553,ÍNFIAS VIZ,-8.310806105290759,41.39511655804211
pt.ine.add.PTCONT.495614,TV PENEDO,31,4815-553,ÍNFIAS VIZ,-8.310806105290759,41.39511655804211
pt.ine.add.PTCONT.495696,R PARAISO,350,4815-088,ÍNFIAS VIZ,-8.314091031736004,41.39391390479889
pt.ine.add.PTCONT.495697,R VILA CORNEIRA,34,4815-632,TAGILDE,-8.267419730133865,41.37515042016665
pt.ine.add.PTCONT.495698,R CENTRAL,320,4815-608,TAGILDE,-8.277033327813966,41.376444384456825
pt.ine.add.PTCONT.495789,BC VEIGAS,4,4815-594,TAGILDE,-8.277777743020998,41.372526691568716
pt.ine.add.PTCONT.495790,BC VEIGAS,121,4815-594,TAGILDE,-8.27708322948565,41.37196931157213
pt.ine.add.PTCONT.495791,BC BAINHO,20A,4815-696,TAGILDE,-8.285532497694994,41.37130113504421
pt.ine.add.PTCONT.495792,RUELA DA LIBERDADE,440 B,4815-601,TAGILDE,-8.288887960295337,41.369910018057745
pt.ine.add.PTCONT.495793,R OLIVAIS,144,4815-687,SANTO ADRIÃO VIZELA,-8.28757964191964,41.3726490126021
pt.ine.add.PTCONT.495794,R PINHEIRO MANSO,40,4815-677,SANTO ADRIÃO VIZELA,-8.295416239533413,41.370756380620634
pt.ine.add.PTCONT.495795,R FELGUEIRAS,752 C,4815-667,SANTO ADRIÃO VIZELA,-8.284451514836151,41.363892224320324
pt.ine.add.PTCONT.495796,R ALFAXIM,724,4815-665,SANTO ADRIÃO VIZELA,-8.292588044613908,41.36286377763955
pt.ine.add.PTCONT.495895,BC BOUCAS,58/70,4620-532,SANTA EULÁLIA VIZ,-8.306686063582644,41.36111459751746
pt.ine.add.PTCONT.495896,BC BOUCAS,70,4620-532,SANTA EULÁLIA VIZ,-8.306686063582644,41.36111459751746
pt.ine.add.PTCONT.495897,VLA CARVALHINHOS,145,4815-669,SANTO ADRIÃO VIZELA,-8.280975145144684,41.35929566638381
pt.ine.add.PTCONT.495898,R MIGUEL BASTOS MIRANDA,163,4815-669,SANTO ADRIÃO VIZELA,-8.278536815908796,41.35912769610693
pt.ine.add.PTCONT.495991,R LAMARAO,321,4620-548,SANTA EULÁLIA VIZ,-8.300513001198585,41.35865662833909
pt.ine.add.PTCONT.495992,R HERDADE,541,4815-578,SÃO PAIO VIZELA,-8.256555078328045,41.38844353828983
pt.ine.add.PTCONT.495993,R S PAIO,275,4815-582,SÃO PAIO VIZELA,-8.26707874663307,41.37791505853958
pt.ine.add.PTCONT.496252,R AGUA,344,4620-521,SANTA EULÁLIA VIZ,-8.302876149576567,41.352872551960374
pt.ine.add.PTCONT.496253,R AGUA,344 B,4620-521,SANTA EULÁLIA VIZ,-8.302876149576567,41.352872551960374
pt.ine.add.PTCONT.496254,R BARROCAS,272,4815-415,VIZELA,-8.315268573514102,41.37455338805696
pt.ine.add.PTCONT.496255,R BARROCAS,176,4815-415,VIZELA,-8.315473618795478,41.375210358363994
pt.ine.add.PTCONT.496256,R COMEND JOÃO PEREIRA MAGALHÃES,1002,4815-400,VIZELA,-8.318335641404166,41.37279270373384
pt.ine.add.PTCONT.496257,R COMEND JOÃO PEREIRA MAGALHÃES,998,4815-400,VIZELA,-8.318252198954488,41.372873874414346
pt.ine.add.PTCONT.496258,TV S ROMÃO,256,4815-455,VIZELA,-8.316181747515216,41.37196777819568
pt.ine.add.PTCONT.496339,R PRESÉPIO,24 323,4815-568,VIZELA,-8.316109549936368,41.37179681614273
pt.ine.add.PTCONT.496421,R S BENTO,1050,4815-496,VIZELA,-8.29570633154355,41.38165086079442
pt.ine.add.PTCONT.496422,TV PADIM,3622,4815-535,VIZELA,-8.30186042707167,41.38062454491519
pt.ine.add.PTCONT.496423,TV PADIM,96,4815-535,VIZELA,-8.302332730027802,41.37835483438673
pt.ine.add.PTCONT.496424,TV PADIM,96,4815-535,VIZELA,-8.302332730027802,41.37835483438673
pt.ine.add.PTCONT.496425,R PORTA,293,4815-485,VIZELA,-8.310479908874928,41.385086584849574
pt.ine.add.PTCONT.496426,R PORTA,642,4815-485,VIZELA,-8.310598777601388,41.3848342888258
pt.ine.add.PTCONT.496503,R BACELO,21,4815-499,VIZELA,-8.310422890291992,41.38170115785616
pt.ine.add.PTCONT.496504,R MONSENHOR JOSE DE SOUSA MONTEIRO,207,4815-484,VIZELA,-8.310326054046177,41.3812601094635
pt.ine.add.PTCONT.496505,LG POLES,200,4815-659,VIZELA,-8.31593047411575,41.38468187720011
pt.ine.add.PTCONT.496506,LG POLES,200,4815-659,VIZELA,-8.31593047411575,41.38468187720011
pt.ine.add.PTCONT.496507,LG POLES,200,4815-659,VIZELA,-8.31593047411575,41.38468187720011
pt.ine.add.PTCONT.496508,LG POLES,200,4815-659,VIZELA,-8.31593047411575,41.38468187720011
pt.ine.add.PTCONT.496509,LG POLES,200,4815-659,VIZELA,-8.31593047411575,41.38468187720011
pt.ine.add.PTCONT.496510,LG POLES,200,4815-659,VIZELA,-8.31593047411575,41.38468187720011
pt.ine.add.PTCONT.496511,LG POLES,200,4815-659,VIZELA,-8.31593047411575,41.38468187720011
pt.ine.add.PTCONT.496512,LG POLES,200,4815-659,VIZELA,-8.31593047411575,41.38468187720011
pt.ine.add.PTCONT.496513,LG POLES,200,4815-659,VIZELA,-8.31593047411575,41.38468187720011
pt.ine.add.PTCONT.496683,R CASAS DO SENHOR,331,4815-479,VIZELA,-8.309236011522104,41.38046042405637
pt.ine.add.PTCONT.496684,LG TEIXUGUEIRAS,263,4815-474,VIZELA,-8.316226427698151,41.38363693945354
pt.ine.add.PTCONT.496685,LG TEIXUGUEIRAS,263,4815-474,VIZELA,-8.316226427698151,41.38363693945354
pt.ine.add.PTCONT.496686,LG TEIXUGUEIRAS,263,4815-474,VIZELA,-8.316226427698151,41.38363693945354
pt.ine.add.PTCONT.496769,LG TEIXUGUEIRAS,263,4815-474,VIZELA,-8.316226427698151,41.38363693945354
pt.ine.add.PTCONT.496770,LG TEIXUGUEIRAS,263,4815-474,VIZELA,-8.316226427698151,41.38363693945354
pt.ine.add.PTCONT.496771,LG TEIXUGUEIRAS,263,4815-474,VIZELA,-8.316226427698151,41.38363693945354
pt.ine.add.PTCONT.496855,AV ABADE DE TAGILDE,7,4815-471,VIZELA,-8.307026868972553,41.37689818558338
pt.ine.add.PTCONT.496905,R LIBERDADE,524,4815-410,VIZELA,-8.320336881435077,41.37038538471497
pt.ine.add.PTCONT.496929,R FELGUEIRAS,752,4815-667,SANTO ADRIÃO VIZELA,-8.284451514836151,41.363892224320324
pt.ine.add.PTCONT.496945,LG POLES,200,4815-659,VIZELA,-8.31593047411575,41.38468187720011
pt.ine.add.PTCONT.496973,R VEIGAS,34 TRAZ,4815-491,VIZELA,-8.311532208197784,41.38516599427682
pt.ine.add.PTCONT.497045,CC BOAVISTA,575,4815-603,TAGILDE,-8.285141045795097,41.37772153644416
pt.ine.add.PTCONT.497055,LG TEIXUGUEIRAS,263,4815-474,VIZELA,-8.316226427698151,41.38363693945354
pt.ine.add.PTCONT.497142,R PORTA,642,4815-485,VIZELA,-8.310598777601388,41.3848342888258
pt.ine.add.PTCONT.497208,TV VISTA ALEGRE,218,4815-551,VIZELA,-8.314907842844999,41.37808354206976
pt.ine.add.PTCONT.497377,R CARREIRA CHÃ,1009,4620-537,SANTA EULÁLIA VIZ,-8.309081334988385,41.35855380517794
pt.ine.add.PTCONT.497378,R IMPEDIDOS,236,4620-557,SANTA EULÁLIA VIZ,-8.311514506457483,41.356812273658726
pt.ine.add.PTCONT.497393,R MOLAR,551,4620-578,SANTA EULÁLIA VIZ,-8.303431975123338,41.3598138700473
pt.ine.add.PTCONT.497402,TV PRADOS,,4620-597,SANTA EULÁLIA VIZ,-8.284349571414534,41.35599579140745
pt.ine.add.PTCONT.497403,R PRADOS,1189,4620-597,SANTA EULÁLIA VIZ,-8.287543669505558,41.35238091509243
pt.ine.add.PTCONT.497404,R PRADOS,1189,4620-597,SANTA EULÁLIA VIZ,-8.287543669505558,41.35238091509243
pt.ine.add.PTCONT.497405,R PRADOS,1189,4620-597,SANTA EULÁLIA VIZ,-8.287543669505558,41.35238091509243
pt.ine.add.PTCONT.497406,R PRADOS,1189,4620-597,SANTA EULÁLIA VIZ,-8.287543669505558,41.35238091509243
pt.ine.add.PTCONT.497407,R SOUTO,603 A,4620-602,SANTA EULÁLIA VIZ,-8.28817325167003,41.35080435453535
pt.ine.add.PTCONT.497408,QLHA CARREIRA CHÃ,8A,4620-537,SANTA EULÁLIA VIZ,-8.308684858161866,41.35332304485531
pt.ine.add.PTCONT.497442,QLHA CARREIRA CHÃ,8A,4620-537,SANTA EULÁLIA VIZ,-8.308684858161866,41.35332304485531
pt.ine.add.PTCONT.499647,CC BAIXINHO,5A,4620-524,SANTA EULÁLIA VIZ,-8.308664589204898,41.359121697904165
pt.ine.add.PTCONT.499648,R MONTESINHOS,1855,4815-393,VIZELA,-8.295554123214513,41.382938652266866
pt.ine.add.PTCONT.499649,R MONTESINHOS,1855,4815-393,VIZELA,-8.295554123214513,41.382938652266866
pt.ine.add.PTCONT.499658,R JOAQUIM PINTO,2,4815-434,VIZELA,-8.307441409889545,41.37545691186708
pt.ine.add.PTCONT.499659,R MONTESINHOS,1855,4815-393,VIZELA,-8.295554123214513,41.382938652266866
pt.ine.add.PTCONT.499661,R AGOSTINHO DE LIMA,53,4815-396,VIZELA,-8.311466868648692,41.37437926221913
pt.ine.add.PTCONT.499665,R 1 MAIO,300,4815-564,VIZELA,-8.316383887536196,41.37158928648195
pt.ine.add.PTCONT.499666,R CRUZ DE VILAR,162,4815-404,VIZELA,-8.316973486594403,41.37297496904876
pt.ine.add.PTCONT.499670,R S ROMÃO,47,4815-455,VIZELA,-8.316739488452898,41.37052624195741
pt.ine.add.PTCONT.499679,R DR ARMINDO FREITAS RIBEIRO FARIA,1556,4815-428,VIZELA,-8.312798705463624,41.36750710147449
pt.ine.add.PTCONT.499680,R PORTELADINHA,663,4815-440,VIZELA,-8.311206286927117,41.3664921187177
pt.ine.add.PTCONT.499685,R CRUZ CAIDA,380,4815-408,VIZELA,-8.30832418702634,41.37033226925886
pt.ine.add.PTCONT.499687,R S BENTO,578,4815-496,VIZELA,-8.30082862856852,41.37918540777761
pt.ine.add.PTCONT.499690,R MONTE,275,4620-592,SANTA EULÁLIA VIZ,-8.283822104508413,41.355276157445616
pt.ine.add.PTCONT.499691,R PADIM,1274,4815-495,VIZELA,-8.302833238188507,41.37775082675235
pt.ine.add.PTCONT.499692,R TRATADO DA ALIANCA,61,4815-630,TAGILDE,-8.277537640977286,41.37746120923536
pt.ine.add.PTCONT.499693,R LAGOAS,337,4815-687,SANTO ADRIÃO VIZELA,-8.296254803670404,41.3715025309293
pt.ine.add.PTCONT.499694,R LAGOAS,337,4815-687,SANTO ADRIÃO VIZELA,-8.296254803670404,41.3715025309293
pt.ine.add.PTCONT.499695,R LAGOAS,337,4815-687,SANTO ADRIÃO VIZELA,-8.296254803670404,41.3715025309293
pt.ine.add.PTCONT.499696,R LAGOAS,337,4815-687,SANTO ADRIÃO VIZELA,-8.296254803670404,41.3715025309293
pt.ine.add.PTCONT.499697,R LAGOAS,337,4815-687,SANTO ADRIÃO VIZELA,-8.296254803670404,41.3715025309293
pt.ine.add.PTCONT.499698,R LAGOAS,337,4815-687,SANTO ADRIÃO VIZELA,-8.296254803670404,41.3715025309293
pt.ine.add.PTCONT.499699,R LAGOAS,337,4815-687,SANTO ADRIÃO VIZELA,-8.296254803670404,41.3715025309293
pt.ine.add.PTCONT.499700,R LAGOAS,337,4815-687,SANTO ADRIÃO VIZELA,-8.296254803670404,41.3715025309293
pt.ine.add.PTCONT.499701,R JUNQUEIRA,89,4815-671,SANTO ADRIÃO VIZELA,-8.280455649496353,41.362105601337674
pt.ine.add.PTCONT.499702,R PORTOS JUNIOR,672,4815-096,ÍNFIAS VIZ,-8.312312795093323,41.395141233451334
pt.ine.add.PTCONT.499703,R CENTRAL,264,4815-608,TAGILDE,-8.2774163291853,41.37666000180344
pt.ine.add.PTCONT.499704,CC S DOMINGOS,39,4815-743,SÃO PAIO VIZELA,-8.265687919935614,41.38176139307422
pt.ine.add.PTCONT.499705,TV VEIGA,22,4815-554,ÍNFIAS VIZ,-8.308825781835385,41.39682135693643
pt.ine.add.PTCONT.499706,RUELA DA CARREIRA,308,4815-591,TAGILDE,-8.28311246649437,41.3740955695932
